Location ID,Location HSCA start date,Care home?,Location Name,Location Region,Location Local Authority,Location Street Address,Location City,Location Postal Code,Location Latitude,Location Longitude,Location Parliamentary Constituency,Provider Nominated Individual Name,"Regulated activity - Treatment of disease, disorder or injury",Service type - Care home service with nursing,Service type - Care home service without nursing,Service user band - Children 0-18 years,Service user band - Dementia,Service user band - Learning disabilities or autistic spectrum disorder,Service user band - Mental Health,Service user band - Older People,Service user band - Physical Disability,Service user band - Sensory Impairment,Service user band - Younger Adults,num_values_found,num_values_found.1,lad,msoa,area,Care homes beds,occupancy_mean,%occupancy_mean,probability_mean,occupancy_std,%occupancy_std,probability_std
1-10245842735,2021-03-24,Y,Amber Lodge Nursing Home,East Midlands,Derby,684-686 Osmaston Road,Derby,DE24 8GT,52.895661,-1.456652,Derby South,"Mylne, Kieron",Y,Y,,,Y,,,Y,Y,,Y,5,5,E06000015,E02002821,E00068586,40,36.0,90.0,0.9331,2.0,3.9528,0.08054
1-1088400390,2014-02-06,Y,Royal Manor Nursing Home,East Midlands,Derby,346 Uttoxeter New Road,Derby,DE22 3HS,52.917015,-1.502994,Derby North,"Raja, Dinesh",Y,Y,,,Y,,Y,Y,Y,Y,,6,6,E06000015,E02002812,E00067929,31,26.0,84.0,0.95062,3.0,8.8929,0.06926
1-112490015,2010-11-25,Y,Aspen House Limited,East Midlands,Derby,33 Carlton Road,Derby,DE23 6HB,52.908288,-1.492659,Derby North,"Johal, Simon",,,Y,,,,Y,Y,,,Y,4,4,E06000015,E02002815,E00067936,22,22.0,98.0,0.91801,1.0,2.6243,0.06686
1-112563142,2010-12-14,Y,Liversage Court Residential Home,East Midlands,Derby,Liversage Place,Derby,DE1 2TL,52.917726,-1.469761,Derby South,"Mellors, Andrew",,,Y,,,,,Y,,,,2,2,E06000015,E02002813,E00171185,40,38.0,96.0,0.89972,1.0,1.7678,0.06066
1-112861572,2020-09-17,Y,Elvaston Lodge Residential Home,East Midlands,Derby,24a Elvaston Lane,Derby,DE24 0PU,52.894564,-1.420519,Derby South,"Ogunleye, Timothy",Y,Y,Y,,Y,,,Y,,,Y,0,0,E06000015,E02002819,E00068024,44,31.0,70.9371356962972,,,,
1-112867536,2011-01-21,Y,Abbeydale - Derby,East Midlands,Derby,182 Duffield Road,Derby,DE22 1BJ,52.935207,-1.483444,Derby North,"Shepperson, Michael",Y,Y,,,Y,,,Y,Y,,,3,3,E06000015,E02002800,E00068282,41,27.0,67.0,0.88776,2.0,3.7257,0.13354
1-112867593,2011-01-21,Y,Stanley House,East Midlands,Derby,155 Duffield Road,Derby,DE22 1AH,52.936414,-1.483999,Derby North,"Shepperson, Michael",Y,Y,,,Y,,,Y,Y,,,4,4,E06000015,E02002800,E00068314,42,27.0,65.0,0.87071,7.0,16.6525,0.12701
1-1141632173,2014-01-19,Y,Mercy Care Centre,East Midlands,Derby,310 Highfields Park Drive,Derby,DE22 1JX,52.940015,-1.489339,Derby North,"Holmes, Mary",,,Y,,Y,,Y,Y,Y,Y,Y,3,3,E06000015,E02002800,E00171213,50,50.0,100.0,0.84109,4.0,7.2111,0.14206
1-114444322,2011-01-07,Y,Littleover Nursing Home,East Midlands,Derby,149 Stenson Road,Derby,DE23 1JJ,52.896752,-1.49217,Derby South,"Woodley, Helen",Y,Y,,,,,,Y,,,Y,7,7,E06000015,E02002818,E00068490,40,30.0,76.0,0.9207,5.0,13.6058,0.08276
1-115603555,2010-12-08,Y,Holly Tree Lodge Residential Home Derby,East Midlands,Derby,2-4 Thornhill Road,Derby,DE22 3LX,52.917721,-1.506276,Derby North,"Mann, Kalvir",,,Y,,Y,,,Y,,,,5,5,E06000015,E02002812,E00171195,27,23.0,86.0,0.90778,1.0,3.0987,0.06554
1-118366777,2011-01-11,Y,The Gables Private Residential Home,East Midlands,Derby,161 Morley Road,Derby,DE21 4QY,52.937254,-1.424041,Mid Derbyshire,*,,,Y,,,,,Y,,,,5,5,E06000015,E02002798,E00068567,28,23.0,84.0,0.9676,5.0,17.7856,0.01477
1-121494541,2011-01-07,Y,Westwood,East Midlands,Derby,175 Station Road,Derby,DE3 9FJ,52.914274,-1.543553,Derby North,"Johal, Simon",,,Y,,,,Y,Y,,,Y,3,3,E06000015,E02002810,E00068462,24,20.0,83.0,0.97872,3.0,11.024,0.01389
1-122231066,2011-01-14,Y,Abbey Court Nursing and Residential Home,East Midlands,Derby,200 Kedleston Road,Derby,DE22 1FX,52.932674,-1.492166,Derby North,"Wildsmith, Natasha",Y,Y,,,,,,Y,,,Y,7,7,E06000015,E02002800,E00068275,40,33.0,84.0,0.9069,4.0,10.0889,0.16473
1-123609553,2011-01-11,Y,The Limes Residential Home,East Midlands,Derby,12 Limes Avenue,Derby,DE3 0DB,52.903345,-1.541686,Derby North,*,,,Y,,,,,Y,Y,,,0,0,E06000015,E02002814,E00068450,34,27.0,79.1657763262959,,,,
1-123670530,2010-12-13,Y,Annefield House Limited,East Midlands,Derby,541-543 Burton Road,Derby,DE23 6FT,52.905547,-1.507957,Derby North,"Kumar, Bindhu",,,Y,,,,Y,Y,,,Y,3,3,E06000015,E02002816,E00068397,17,16.0,96.0,0.97288,1.0,3.3962,0.00975
1-124213154,2010-11-22,Y,Brookfields Private Nursing Home,East Midlands,Derby,488 Burton Road,Derby,DE23 6AL,52.909116,-1.499341,Derby North,"Turner, Celeste",Y,Y,,,,,,Y,Y,,,4,4,E06000015,E02002812,E00067937,36,31.0,85.0,0.93604,3.0,8.8932,0.07123
1-124708026,2010-11-15,Y,Normanton Village View Nursing Home,East Midlands,Derby,101 Village Street,Derby,DE23 8DF,52.898704,-1.483986,Derby South,"Rai, Surjit",Y,Y,,,Y,,,Y,Y,Y,,0,0,E06000015,E02002818,E00068504,72,49.0,67.55095058291448,,,,
1-126240739,2010-11-25,Y,Landemere Residential Care Home,East Midlands,Derby,Inverary Close,Sinfin,DE24 3JX,52.879103,-1.495671,Derby South,"Martin, Robert",,,Y,,Y,,,Y,,,,4,4,E06000015,E02002824,E00068601,41,38.0,91.0,0.95845,2.0,5.806,0.0225
1-129931769,2011-01-12,Y,The Yews Residential Care Home,East Midlands,Derby,2 Church Street,Derby,DE24 0PR,52.895618,-1.419093,Derby South,*,,,Y,,Y,,,Y,,,,0,0,E06000015,E02002819,E00068024,40,34.0,83.93311133731414,,,,
1-130502722,2010-12-01,Y,Derwent Lodge,East Midlands,Derby,11 Beaufort Street,Derby,DE21 6AX,52.92755,-1.45542,Derby North,"Silvester, Rebecca",Y,Y,,,,,Y,,,,,4,4,E06000015,E02002802,E00068322,16,14.0,88.0,0.96298,1.0,7.2169,0.00368
1-133299122,2011-01-06,Y,Oaklands,East Midlands,Derby,87 Burton Road,Derby,DE1 1TJ,52.914882,-1.481306,Derby South,"Cresswell, Rebekah",,,Y,,,,Y,,,,Y,3,3,E06000015,E02002811,E00068076,8,8.0,100.0,0.94791,0.0,0.0,0.08694
1-138895904,2010-12-07,Y,Douglas Court,East Midlands,Derby,1 Douglas Street,Derby,DE23 8LH,52.908916,-1.467776,Derby South,"Philpott, Emma",,,Y,,Y,,,Y,,,Y,5,5,E06000015,E02002813,E00068061,43,37.0,86.0,0.94377,6.0,13.0937,0.04961
1-1434777508,2014-06-03,Y,24 St Marks Road,East Midlands,Derby,24 St Marks Road,Derby,DE21 6AH,52.926706,-1.457829,Derby North,"Cannon, Andrew",,,Y,,,Y,,,,,Y,1,1,E06000015,E02002802,E00068348,8,7.0,88.0,0.99811,,,
1-1435097001,2014-06-03,Y,26 St Marks Road,East Midlands,Derby,26 St Marks Road,Derby,DE21 6AH,52.926706,-1.457829,Derby North,"Cannon, Andrew",,,Y,,,Y,,Y,Y,Y,Y,2,2,E06000015,E02002802,E00068348,8,8.0,94.0,0.98116,1.0,8.8388,0.02397
1-1438730074,2014-06-19,Y,South Avenue,East Midlands,Derby,1 South Avenue,Derby,DE73 6RS,52.877795,-1.440549,Derby South,"Cannon, Andrew",,,Y,,,Y,,,Y,Y,Y,1,1,E06000015,E02002825,E00068231,7,6.0,86.0,0.99811,,,
1-147125249,2011-01-19,Y,Manorfields Residential Care Home,East Midlands,Derby,47 Farley Road,Derby,DE23 6BW,52.90924,-1.501064,Derby North,"Hearn, Paul",,,Y,,Y,,,Y,,,,5,5,E06000015,E02002812,E00067937,40,35.0,88.0,0.93552,1.0,2.0917,0.05486
1-151512564,2011-01-31,Y,Derwent View,East Midlands,Derby,5 Dorset Street,Derby,DE21 6BE,52.928836,-1.455765,Derby North,"Rankin, Jamie",,,Y,,,Y,,Y,Y,,Y,2,2,E06000015,E02002802,E00068322,19,18.0,92.0,0.96952,2.0,11.1648,0.0127
1-152773436,2011-04-04,Y,Bluebell Park,East Midlands,Derby,Royal Glen Park,Derby,DE73 5XE,52.867668,-1.448964,Derby South,"O'Reilly, Michael",Y,Y,,,Y,,,Y,Y,,Y,1,1,E06000015,E02002825,E00171205,64,5.0,8.0,0.51975,,,
1-152919808,2011-01-27,Y,Cedar Tree Care Home Limited,East Midlands,Derby,Rowley Lane,Derby,DE23 1FT,52.896447,-1.507306,Derby South,"Samra, Jasvir",Y,Y,,,Y,,,Y,Y,Y,,4,4,E06000015,E02002817,E00068106,40,36.0,91.0,0.78196,5.0,12.1407,0.22711
1-165367861,2011-03-16,Y,Arboretum House,East Midlands,Derby,Morleston Street,Derby,DE23 8FL,52.913094,-1.471141,Derby South,"Sadiq, Perveez",,,Y,,,,,Y,Y,Y,,6,6,E06000015,E02002813,E00068071,38,15.0,40.0,0.89502,9.0,23.9266,0.10526
1-165367940,2011-03-16,Y,Perth House,East Midlands,Derby,Athlone Close,Derby,DE21 4BP,52.937802,-1.452539,Derby North,"Sadiq, Perveez",,,Y,,,,,Y,Y,,,6,6,E06000015,E02002799,E00068325,39,19.0,50.0,0.9658,12.0,30.1505,0.01838
1-165367973,2011-03-16,Y,Warwick House,East Midlands,Derby,Bonsall Avenue,Derby,DE23 6JW,52.902222,-1.497399,Derby South,"Sadiq, Perveez",,,Y,,,Y,,Y,Y,Y,,3,3,E06000015,E02002817,E00068113,28,12.0,42.0,0.91022,9.0,30.3746,0.08427
1-1757433469,2015-04-01,Y,Autonomy: Victoria & Elizabeth,East Midlands,Derby,Leylands,Derby,DE22 1AZ,52.936748,-1.492729,Derby North,"Koban, Steve",,,Y,,,Y,Y,,,,Y,9,9,E06000015,E02002800,E00171218,9,8.0,89.0,0.99782,1.0,9.6225,0.00088
1-196898998,2011-04-25,Y,Willowcroft,East Midlands,Derby,Nottingham Road,Derby,DE21 7NN,52.912743,-1.402789,Mid Derbyshire,"Ryan, Daniel",,,Y,,Y,,,Y,,,,4,4,E06000015,E02002809,E00068656,60,58.0,97.0,0.9645,1.0,1.5957,0.02997
1-2141179053,2015-08-19,Y,Derby Heights Care Home,East Midlands,Derby,Rykneld Road,Derby,DE23 4BU,52.894439,-1.53074,Derby North,"Matthews, Ian",,,Y,,Y,,Y,Y,Y,Y,Y,0,0,E06000015,E02002814,E00068364,75,75.0,99.41598196750638,,,,
1-233554564,2011-04-19,Y,Lavender Lodge Nursing Home,East Midlands,Derby,40-50 Stafford Street,Derby,DE1 1JL,52.922,-1.485089,Derby South,"Minto, Gerald",Y,Y,,,Y,,,Y,Y,,,4,4,E06000015,E02002808,E00179858,44,42.0,95.0,0.94001,2.0,3.8814,0.01978
1-233723186,2011-04-18,Y,Windsor Park Nursing Home,East Midlands,Derby,112 Blagreaves Lane,Derby,DE23 1FP,52.893152,-1.508161,Derby South,"Purmessur, Sanjiv",Y,Y,,,Y,,,Y,,,,7,7,E06000015,E02002822,E00068128,19,17.0,87.0,0.92784,2.0,10.4635,0.06026
1-2418769562,2016-02-22,Y,Castle Park,East Midlands,Derby,176 Siddals Road,Derby,DE1 2PW,52.920435,-1.468553,Derby South,"Davies, Jeremy",Y,Y,,,,,,Y,,,,3,3,E06000015,E02002813,E00171185,40,26.0,65.0,0.8737,9.0,21.36,0.08766
1-2564949736,2016-06-23,Y,Clova House Residential Care Home,East Midlands,Derby,231 Chellaston Road,Derby,DE24 9EE,52.880191,-1.445269,Derby South,"Joygopaul, Rhean",,,Y,,Y,,,Y,Y,,,2,2,E06000015,E02002825,E00068255,20,17.0,85.0,0.89687,1.0,7.0711,0.03028
1-2696010643,2016-07-01,Y,Kiwi House,East Midlands,Derby,59 Coleman Street,Derby,DE24 8NL,52.89475,-1.444296,Derby South,"Philpott, Emma",,,Y,,Y,,,Y,,,Y,5,5,E06000015,E02002821,E00068025,78,64.0,82.0,0.9549,10.0,12.9036,0.04414
1-270497705,2011-07-05,Y,Western Mount Lodge Nursing Home,East Midlands,Derby,109 Radbourne Street,Derby,DE22 3BW,52.926509,-1.505414,Derby North,"Brownhill-Farndon, Joanna",Y,Y,,,,,Y,,,,,3,3,E06000015,E02002806,E00068436,18,16.0,89.0,0.98931,0.0,0.0,0.00424
1-2853500210,2016-10-12,Y,Heathcotes (Derby),East Midlands,Derby,516 Burton Road,Derby,DE23 6FN,52.907056,-1.503272,Derby North,"Kelly, Brendan",,,Y,Y,,Y,Y,,Y,Y,Y,0,0,E06000015,E02002812,E00068390,6,6.0,99.18326073049433,,,,
1-291767745,2011-08-11,Y,White Doves Ltd,East Midlands,Derby,32-34 Renals Street,Derby,DE23 6SH,52.913556,-1.480281,Derby South,"Hanrahan, Chrisdina",,,Y,,,,,Y,Y,Y,,5,5,E06000015,E02002811,E00068076,13,10.0,74.0,0.8141,1.0,8.7706,0.2035
1-291768329,2011-08-11,Y,Southover Care Home,East Midlands,Derby,397 Burton Road,Derby,DE23 6AN,52.908549,-1.49902,Derby North,"Hanrahan, Chrisdina",,,Y,,,,,Y,Y,Y,,5,5,E06000015,E02002812,E00067937,22,15.0,66.0,0.93357,6.0,26.621,0.05256
1-295158157,2011-09-26,Y,Western House,East Midlands,Derby,211 Western Road,Derby,DE3 9GU,52.909715,-1.529222,Derby North,"Halford, Ann",,,Y,,,,Y,,,,Y,3,3,E06000015,E02002810,E00171234,5,5.0,93.0,0.99811,1.0,11.547,0.0
1-2998554941,2016-11-14,Y,Farriess Court,East Midlands,Derby,103 Boulton Lane,Derby,DE24 0FF,52.890915,-1.43177,Derby South,"Heath, Allen",,,Y,,Y,,,Y,Y,,Y,3,3,E06000015,E02002823,E00068155,26,16.0,60.0,0.82149,9.0,32.7112,0.15963
1-3015028908,2017-01-31,Y,Shelton Lock Care Home,East Midlands,Derby,61A Weston Park Avenue,Derby,DE24 9ER,52.879024,-1.447681,Derby South,"Hall, Antony",Y,Y,,,,,,Y,,,Y,5,5,E06000015,E02002825,E00068255,40,29.0,73.0,0.87011,5.0,13.3931,0.11816
1-3054210439,2017-01-31,Y,Aspen Court Care Home,East Midlands,Derby,Aspen Drive,Derby,DE21 7SG,52.917672,-1.421609,Mid Derbyshire,"Hall, Antony",Y,Y,,,Y,,,Y,Y,,Y,4,4,E06000015,E02002809,E00171233,40,34.0,84.0,0.94939,4.0,10.8733,0.02915
1-310380448,2011-09-22,Y,Westside Nursing Home,East Midlands,Derby,90 Western Road,Derby,DE3 9GQ,52.909703,-1.537727,Derby North,"Chettiar, Balasoopramaniah",Y,Y,,,,,,Y,,,,3,3,E06000015,E02002814,E00068479,26,24.0,91.0,0.88635,1.0,4.4412,0.15151
1-3288902664,2017-02-01,Y,Trevayler,East Midlands,Derby,309 Burton Road,Derby,DE23 6AG,52.910612,-1.491647,Derby North,"Templeton, Robert",,,Y,,,,Y,,,,,1,1,E06000015,E02002812,E00067935,15,4.0,27.0,0.99811,,,
1-3646991290,2017-04-12,Y,Langdale Heights,East Midlands,Derby,352 Burton Road,Derby,DE23 6AF,52.910952,-1.491439,Derby North,"Sadiq, Neemat",Y,Y,,,Y,,Y,Y,Y,Y,Y,4,4,E06000015,E02002808,E00067923,31,26.0,83.0,0.9446,0.0,1.6129,0.03125
1-3913587968,2017-06-09,Y,Coleridge House,East Midlands,Derby,116 Coleridge Street,Derby,DE23 8AD,52.894209,-1.488171,Derby South,"Dosanjh, Rajvinder",,,Y,,,Y,,Y,Y,Y,Y,2,2,E06000015,E02002818,E00068512,2,1.0,50.0,0.88123,0.0,0.0,0.02243
1-452537840,2012-08-30,Y,Vinegar House,East Midlands,Derby,17 Longford Street,Derby,DE22 1GJ,52.935095,-1.494917,Derby North,"Brown, Ian",,,Y,,,,Y,,,,,2,2,E06000015,E02002800,E00068281,13,9.0,69.0,0.98959,1.0,10.8786,0.01388
1-5055769476,2018-04-04,Y,The New Lodge Nursing Care Ltd,East Midlands,Derby,114 Western Road,Derby,DE3 9GR,52.909893,-1.535792,Derby North,"Orta, Khadiga",Y,Y,,,Y,,,Y,Y,Y,Y,1,1,E06000015,E02002814,E00068479,33,29.0,88.0,0.70435,,,
1-6615555029,2019-04-01,Y,Nightingale House,East Midlands,Derby,117A London Road,Derby,DE1 2QS,52.917297,-1.470257,Derby South,"Rogers, Claire",,,Y,Y,,Y,,,Y,Y,Y,3,3,E06000015,E02002813,E00068071,12,6.0,50.0,0.85312,3.0,22.0479,0.05523
1-7299430569,2019-10-21,Y,Cavista Ltd,East Midlands,Derby,138 Whitaker Road,Derby,DE23 6AP,52.909335,-1.493703,Derby North,"Raju, Amarjit",,,Y,,Y,,,Y,Y,Y,Y,5,5,E06000015,E02002812,E00067935,20,18.0,88.0,0.98781,2.0,7.5829,0.01348
1-734347694,2013-05-24,Y,Linden House,East Midlands,Derby,9-11 Scarsdale Avenue,Derby,DE23 6ER,52.907154,-1.509489,Derby North,"Galloway, Sara",,,Y,,,,,Y,,,,5,5,E06000015,E02002812,E00068387,16,16.0,98.0,0.861,1.0,3.4233,0.21045
1-741182112,2013-05-22,Y,Rykneld View,East Midlands,Derby,410 Burton Road,Derby,DE23 6AJ,52.910333,-1.495862,Derby North,"Woodley, Helen",Y,Y,,,Y,,Y,Y,Y,,Y,3,3,E06000015,E02002812,E00067935,31,22.0,70.0,0.90842,7.0,23.7778,0.13042
1-7626057330,2019-10-21,Y,Ivy House,East Midlands,Derby,1 The Green,Derby,DE3 0DE,52.902931,-1.546184,Derby North,"Raju, Amarjit",,,Y,,,,,Y,,,,1,1,E06000015,E02002814,E00068453,22,17.0,77.0,0.92563,,,
1-8067963968,2020-01-13,Y,Foylebank Care Home,East Midlands,Derby,Foyle Avenue,Derby,DE21 6TZ,52.91871,-1.431798,Derby North,"Summerson, Raina",,,Y,,Y,,Y,Y,Y,Y,Y,0,0,E06000015,E02002807,E00068222,35,25.0,70.60699642981773,,,,
1-8068336024,2020-01-13,Y,Queensferry Court Care Home,East Midlands,Derby,Queensferry Gardens,Derby,DE24 9JR,52.882068,-1.450733,Derby South,"Summerson, Raina",Y,Y,Y,,Y,,Y,Y,Y,Y,Y,0,0,E06000015,E02002825,E00068241,56,46.0,81.98839109794926,,,,
1-8068336121,2020-01-13,Y,Coleridge House Care Home,East Midlands,Derby,234 Caxton Street,Derby,DE23 1RJ,52.894174,-1.492527,Derby South,"Summerson, Raina",,,Y,,Y,,Y,Y,Y,Y,Y,0,0,E06000015,E02002818,E00068492,40,35.0,87.90029839555524,,,,
1-9049116732,2020-07-06,Y,The Laurels Residential and Nursing Home,East Midlands,Derby,77 Nottingham Road,Derby,DE21 7NG,52.913819,-1.405849,Mid Derbyshire,"O'Connor, Sheila",Y,Y,,,Y,,,Y,Y,,,4,4,E06000015,E02002809,E00171221,43,33.0,76.0,0.94458,2.0,4.4023,0.03896
1-9049116767,2020-07-06,Y,The Park Residential and Nursing Home,East Midlands,Derby,40 St. Marks Road,Derby,DE21 6AH,52.926706,-1.457829,Derby North,"O'Connor, Sheila",Y,Y,,,Y,,,Y,Y,Y,,3,3,E06000015,E02002802,E00068348,42,37.0,87.0,0.82903,2.0,4.9563,0.11119
1-939772847,2013-09-16,Y,Chestnut View,East Midlands,Derby,169 Derby Road,Derby,DE73 5SB,52.873665,-1.441385,Derby South,"Wood, Malcolm",,,Y,,Y,,,Y,,Y,Y,5,5,E06000015,E02002825,E00068235,18,16.0,89.0,0.97546,3.0,18.8398,0.01055
1-9506129869,2020-12-23,Y,Elderflower House Nursing and Residential Care Home,East Midlands,Derby,43 Belper Road,Derby,DE1 3EP,52.931588,-1.482226,Derby North,"Gupta, Rachna",Y,Y,,,Y,,,Y,Y,,,2,2,E06000015,E02002800,E00068283,37,24.0,64.0,0.89914,6.0,17.1999,0.11246
1-9635861945,2020-10-06,Y,Sherwood Forest Residential and Nursing Home,East Midlands,Derby,29 Village Street,Derby,DE23 8TA,52.89912,-1.480428,Derby South,"O'Connor, Sheila",Y,Y,,,Y,,,Y,,,,6,6,E06000015,E02002818,E00068501,75,60.0,80.0,0.8081,4.0,5.1063,0.15643
1-9843429860,2020-12-10,Y,New Spring Lodge,East Midlands,Derby,1166 - 1168 London Road,Derby,DE24 8QG,52.898683,-1.433869,Derby South,"Cummins, Lisa",,,Y,,,,Y,,,,Y,1,1,E06000015,E02002820,E00068054,17,15.0,88.0,0.96617,,,
1-9882561240,2020-11-16,Y,Chesapeake House,East Midlands,Derby,27 - 29 Chesapeake Road,Derby,DE21 6RB,52.925121,-1.422774,Derby North,"Baker, Lisa",,,Y,,,Y,,,,,,5,5,E06000015,E02002807,E00068190,11,8.0,76.0,0.78992,4.0,38.8895,0.11539
1-997439974,2014-01-20,Y,The Villas Care Homes Ltd,East Midlands,Derby,69-71 Wilson Street,Derby,DE1 1PL,52.918859,-1.48001,Derby South,"Singh, Ranjeet",Y,Y,,,,Y,Y,,,,Y,7,7,E06000015,E02002808,E00179877,16,14.0,88.0,0.97229,1.0,7.5937,0.01444
1-110947976,2010-12-30,Y,Agnes House,East Midlands,Leicester,Hinckley Road,Leicester,LE3 0UX,52.631166,-1.156767,Leicester West,"Jones, Christopher",,,Y,,,,,Y,Y,Y,,2,2,E06000016,E02002849,E00069522,26,26.0,100.0,0.83806,0.0,0.0,0.14779
1-112029735,2011-01-27,Y,Lester Hall Apartments,East Midlands,Leicester,15 Elms Road,Leicester,LE2 3JD,52.608316,-1.106819,Leicester South,"Bata, Nizam",Y,,Y,,Y,,Y,Y,Y,Y,Y,7,7,E06000016,E02002858,E00069165,33,25.0,74.0,0.92131,4.0,11.0453,0.13421
1-112807288,2011-01-10,Y,Spencefield Grange,East Midlands,Leicester,Davenport Road,Leicester,LE5 6SD,52.634079,-1.073616,Leicester East,"Patel, Jateen",Y,,Y,,Y,,Y,Y,Y,,Y,1,1,E06000016,E02002851,E00069013,60,49.0,82.0,0.7182,,,
1-112807308,2011-01-10,Y,Meadow's Court,East Midlands,Leicester,Old Church Street,Leicester,LE2 8ND,52.60474,-1.154771,Leicester South,"Patel, Jateen",Y,,Y,,Y,,Y,Y,Y,Y,Y,8,8,E06000016,E02002860,E00068710,60,46.0,77.0,0.81161,5.0,7.8553,0.09861
1-112816741,2010-12-24,Y,Ashton Lodge Residential Home,East Midlands,Leicester,3 Daneshill Road,Leicester,LE3 6AN,52.633628,-1.153934,Leicester West,*,,,Y,,Y,,Y,Y,Y,,Y,5,5,E06000016,E02002849,E00069536,27,23.0,84.0,0.97387,3.0,10.9244,0.02094
1-113491767,2011-02-07,Y,Western Park View Nursing Home,East Midlands,Leicester,390 Hinckley Road,Leicester,LE3 0WA,52.632955,-1.173245,Leicester West,"Bailey, Anne",Y,Y,,,,,,Y,Y,,,4,4,E06000016,E02002846,E00069540,60,50.0,84.0,0.86723,3.0,5.5067,0.08963
1-113570003,2011-01-14,Y,Stonesby Lodge,East Midlands,Leicester,109 Stonesby Avenue,Leicester,LE2 6TY,52.59341,-1.13083,Leicester South,*,,,Y,,,,Y,,,,,3,3,E06000016,E02002861,E00069022,12,9.0,75.0,0.92327,1.0,8.3333,0.11446
1-113724526,2011-01-25,Y,Anita Jane's Lodge,East Midlands,Leicester,126 Uppingham Road,Leicester,LE5 0QF,52.642364,-1.09643,Leicester East,"Bata, Nizam",,,Y,,,,Y,,,,Y,3,3,E06000016,E02002837,E00068943,16,10.0,65.0,0.82361,1.0,7.2169,0.27445
1-113854543,2010-12-22,Y,St Bennett's Care Home,East Midlands,Leicester,346-348 London Road,Leicester,LE2 2PL,52.615373,-1.104415,Leicester South,*,,,Y,,Y,Y,,Y,,Y,,3,3,E06000016,E02002856,E00069211,27,20.0,75.0,0.92359,4.0,13.007,0.08323
1-113891165,2011-01-20,Y,Pine View Care Home,East Midlands,Leicester,420 Hinckley Road,Leicester,LE3 0WA,52.632955,-1.173245,Leicester West,"Raja, Dinesh",,,Y,,Y,,Y,Y,Y,,,2,2,E06000016,E02002846,E00069540,15,12.0,83.0,0.82131,1.0,4.714,0.05706
1-113891203,2011-01-20,Y,Groby Lodge,East Midlands,Leicester,452 Groby Road,Leicester,LE3 9QB,52.650562,-1.171382,Leicester West,"Raja, Dinesh",,,Y,,Y,,Y,Y,Y,,,4,4,E06000016,E02002838,E00069279,12,10.0,79.0,0.9567,4.0,32.2749,0.03366
1-113891220,2011-01-20,Y,Silver Birches,East Midlands,Leicester,85 Lutterworth Road,Leicester,LE2 8PJ,52.597113,-1.159384,Leicester South,"Raja, Dinesh",,,Y,,Y,,Y,Y,Y,,,6,6,E06000016,E02002860,E00068723,19,15.0,79.0,0.93935,2.0,11.0401,0.07694
1-114172725,2010-12-14,Y,Vishram Ghar,East Midlands,Leicester,120 Armadale Drive,Leicester,LE5 1HF,52.646424,-1.06122,Leicester East,"Pattani, Mahesh",,,Y,,Y,,Y,Y,Y,,Y,6,6,E06000016,E02002839,E00069153,44,38.0,87.0,0.9345,2.0,5.1157,0.04022
1-114954321,2010-12-03,Y,Hambleton House,East Midlands,Leicester,337 Scraptoft Lane,Leicester,LE5 2HU,52.643358,-1.055648,Leicester East,"Advani, Suresh",,,Y,,Y,Y,Y,Y,,,Y,5,5,E06000016,E02006815,E00178531,18,16.0,90.0,0.78892,1.0,7.2436,0.19334
1-115454003,2011-01-07,Y,Welford Court,East Midlands,Leicester,458 Welford Road,Leicester,LE2 6EL,52.605564,-1.11984,Leicester South,"Macken, Thomas",,,Y,,Y,,Y,Y,,Y,,5,5,E06000016,E02006817,E00069190,14,14.0,97.0,0.93191,1.0,3.9123,0.03706
1-116447214,2010-12-08,Y,Hollywell Court Residential Home,East Midlands,Leicester,464 London Road,Leicester,LE2 2PP,52.608753,-1.097979,Leicester South,"Garrity, Carole",,,Y,,,,,Y,,,,6,6,E06000016,E02002858,E00069167,12,8.0,71.0,0.93802,2.0,17.2804,0.09841
1-117074445,2010-12-10,Y,Heartwell House Residential Care Home,East Midlands,Leicester,32 Shaftesbury Avenue,Leicester,LE4 5DQ,52.654383,-1.121536,Leicester East,"Chand, Irene",,,Y,,Y,Y,Y,Y,,Y,Y,4,4,E06000016,E02002832,E00068793,13,13.0,98.0,0.92639,0.0,3.8462,0.04892
1-1172130136,2014-01-20,Y,Aaron Court,East Midlands,Leicester,17 Ramsey Way,Leicester,LE5 1SJ,52.649259,-1.052668,Leicester East,"Gamble, Andrea",Y,Y,,,Y,Y,,Y,Y,,Y,7,7,E06000016,E02006815,E00069135,91,73.0,80.0,0.93494,11.0,11.8501,0.07411
1-117229673,2010-10-26,Y,Ashleigh Nursing Home,East Midlands,Leicester,17 Ashleigh Road,Leicester,LE3 0FA,52.625286,-1.154058,Leicester West,*,Y,Y,,,Y,Y,Y,Y,Y,Y,,5,5,E06000016,E02002849,E00069493,21,17.0,79.0,0.92829,1.0,2.6082,0.04918
1-117965617,2010-12-22,Y,Foxton Grange,East Midlands,Leicester,571 Gipsy Lane,Leicester,LE5 0TA,52.648787,-1.082928,Leicester East,"Ryan, Daniel",Y,Y,,,Y,,,Y,,,,3,3,E06000016,E02006965,E00169060,36,31.0,85.0,0.81652,3.0,8.9293,0.2024
1-118268286,2011-01-25,Y,The New Wycliffe Home,East Midlands,Leicester,111 Gleneagles Avenue,Leicester,LE4 7YJ,52.664484,-1.103027,Leicester East,"Payne, Stephen",,,Y,,Y,Y,Y,Y,Y,Y,Y,1,1,E06000016,E02002831,E00069305,49,48.0,98.0,0.92908,,,
1-118268302,2011-01-25,Y,Simmins Crescent/Whitteney Drive,East Midlands,Leicester,2-6 Simmins Crescent,Leicester,LE2 9AH,52.592531,-1.150983,Leicester South,"Payne, Stephen",,,Y,,Y,Y,Y,Y,Y,Y,Y,2,2,E06000016,E02002862,E00069044,15,14.0,97.0,0.94548,1.0,4.714,0.02925
1-118284410,2011-01-09,Y,Pendene House,East Midlands,Leicester,15 Pendene Road,Leicester,LE2 3DQ,52.615239,-1.114107,Leicester South,"Billan, Sundeep",,,Y,,Y,,Y,Y,,,,4,4,E06000016,E02002856,E00069212,17,12.0,71.0,0.92876,3.0,20.3771,0.08281
1-118862846,2011-01-11,Y,Stonesby House,East Midlands,Leicester,147 Stonesby Avenue,Leicester,LE2 6TY,52.59341,-1.13083,Leicester South,"Saghir, Osman",,,Y,,Y,Y,Y,Y,Y,Y,Y,3,3,E06000016,E02002861,E00069022,9,8.0,93.0,0.97427,1.0,6.415,0.04137
1-119126156,2011-03-23,Y,Coriander Road,East Midlands,Leicester,25 Coriander Road,Leicester,LE2 7ER,52.627027,-1.144998,Leicester West,"Burslem, Sarah",,,Y,,,Y,,,,,,3,3,E06000016,E02002849,E00168090,4,3.0,75.0,0.98216,0.0,0.0,0.01412
1-119652340,2010-12-23,Y,Cherre Residential Care,East Midlands,Leicester,2 Daneshill Road,Leicester,LE3 6AL,52.633269,-1.154126,Leicester West,"Patel, Hema",,,Y,,,Y,Y,,Y,,,4,4,E06000016,E02002849,E00069520,14,11.0,79.0,0.90273,1.0,10.1015,0.06033
1-121081806,2010-12-15,Y,Melbourne Home,East Midlands,Leicester,263 London Road,Leicester,LE2 3BE,52.617779,-1.109861,Leicester South,"Coveney, Natalie",,,Y,,,,,Y,,,,3,3,E06000016,E02002856,E00068894,17,16.0,96.0,0.84782,1.0,6.7924,0.1047
1-122118977,2010-12-14,Y,Marston Court,East Midlands,Leicester,67-71 Marston Road,Leicester,LE4 9FF,52.656,-1.096253,Leicester East,"Tennant, Paul",,,Y,,,Y,,,Y,,,4,4,E06000016,E02002828,E00069308,22,19.0,86.0,0.92743,1.0,3.7113,0.06613
1-126083472,2010-12-10,Y,Halifax Drive,East Midlands,Leicester,72 Halifax Drive,Leicester,LE4 2DP,52.661695,-1.1403,Leicester West,"Cresswell, Rebekah",,,Y,,,Y,,Y,,,Y,3,3,E06000016,E02002829,E00068657,33,31.0,93.0,0.96307,2.0,4.6289,0.00493
1-126083502,2010-12-10,Y,Lansdowne Road (67-71),East Midlands,Leicester,67-71 Lansdowne Road,Leicester,LE2 8AS,52.610405,-1.141237,Leicester South,"Cresswell, Rebekah",,,Y,,,Y,,Y,,,Y,3,3,E06000016,E02002857,E00069097,26,24.0,94.0,0.98021,1.0,2.2206,0.00544
1-126765083,2011-01-13,Y,A S Care,East Midlands,Leicester,138 Westcotes Drive,Leicester,LE3 0QS,52.629226,-1.155659,Leicester West,"Boodhoo, Mohammad",,,Y,,Y,,Y,Y,Y,Y,,10,10,E06000016,E02002849,E00069513,25,20.0,82.0,0.91776,2.0,9.4657,0.07243
1-129453069,2010-12-23,Y,London Road Neurological & Specialist Care Unit,East Midlands,Leicester,362 London Road,Leicester,LE2 2PU,52.614858,-1.104071,Leicester South,"Jacobs, Kim",Y,Y,,,Y,,,Y,Y,Y,Y,0,0,E06000016,E02002858,E00069213,33,24.0,73.69380099411919,,,,
1-1300171773,2014-09-23,Y,Aylestone Grange,East Midlands,Leicester,705-707 Aylestone Road,Leicester,LE2 8TG,52.602828,-1.155265,Leicester South,"Odedra, Dharini",,,Y,,,,Y,Y,,,Y,4,4,E06000016,E02002860,E00068710,10,10.0,100.0,0.86053,1.0,8.165,0.19417
1-131815529,2011-01-20,Y,Stoneygate Oaklands,East Midlands,Leicester,328 London Road,Leicester,LE2 2PJ,52.616298,-1.106641,Leicester South,"Wood, James",,,Y,,Y,,Y,Y,Y,,Y,3,3,E06000016,E02002856,E00069179,44,42.0,95.0,0.95839,1.0,1.3122,0.02144
1-131815591,2011-01-20,Y,St Georges,East Midlands,Leicester,Ratcliffe Road,Leicester,LE2 3TE,52.612414,-1.105368,Leicester South,"Wood, James",,,Y,,Y,,,Y,,,,3,3,E06000016,E02002858,E00069164,36,22.0,60.0,0.62034,16.0,44.2995,0.11967
1-131819705,2011-01-20,Y,Prime Life Limited - 50 Stoneygate Road,East Midlands,Leicester,50 Stoneygate Road,Leicester,LE2 2AD,52.617901,-1.104556,Leicester South,"Wood, James",,,Y,,,,Y,,,,Y,2,2,E06000016,E02002856,E00069178,19,18.0,97.0,0.78836,1.0,3.7216,0.27102
1-131819914,2011-01-20,Y,Stoneygate Ashlands,East Midlands,Leicester,Ratcliffe Road,Leicester,LE2 3TE,52.612414,-1.105368,Leicester South,"Wood, James",,,Y,,Y,,Y,Y,Y,Y,Y,2,2,E06000016,E02002858,E00069164,37,33.0,89.0,0.84931,3.0,7.6444,0.14479
1-131819970,2011-01-20,Y,Clarendon Beechlands,East Midlands,Leicester,28 Central Avenue,Leicester,LE2 1TB,52.618466,-1.114012,Leicester South,"Wood, James",,,Y,,,Y,Y,,,,Y,1,1,E06000016,E02002856,E00068892,18,18.0,100.0,0.52842,,,
1-131820132,2011-01-20,Y,Braunstone Firlands Nursing Home,East Midlands,Leicester,Gooding Avenue,Leicester,LE3 1JS,52.625989,-1.172201,Leicester West,"Wood, James",Y,Y,,,Y,,,Y,,,,0,0,E06000016,E02002854,E00068858,24,16.0,67.44634085536327,,,,
1-131820231,2011-01-20,Y,Island Place,East Midlands,Leicester,Gooding Avenue,Leicester,LE3 1JS,52.625989,-1.172201,Leicester West,"Wood, James",,,Y,,,,Y,,,,Y,1,1,E06000016,E02002854,E00068858,39,37.0,95.0,0.98669,,,
1-133803108,2010-12-30,Y,Church View,East Midlands,Leicester,5 Springfield Road,Leicester,LE2 3BB,52.617423,-1.112793,Leicester South,"Hazlehurst, David",,,Y,,,Y,,,,,,4,4,E06000016,E02002856,E00068894,8,6.0,78.0,0.93923,2.0,27.7169,0.07976
1-135972130,2010-11-23,Y,The Ark Care Lodge Limited,East Midlands,Leicester,94-96 Evington Lane,Leicester,LE5 5PP,52.622383,-1.093488,Leicester South,"Ark, Kamal",,,Y,,,Y,,,,,,0,0,E06000016,E02002853,E00069417,18,5.0,26.425196735983356,,,,
1-136815706,2010-12-09,Y,Glenfield Woodlands Care Home,East Midlands,Leicester,11 Holmwood Drive,Leicester,LE3 9LG,52.651377,-1.182601,Leicester West,"Middleton, Philip",,,Y,,Y,,Y,Y,Y,,,5,5,E06000016,E02006819,E00069277,17,16.0,95.0,0.94245,1.0,4.9215,0.07029
1-137806715,2011-01-04,Y,Newton House,East Midlands,Leicester,47 Prospect Road,Leicester,LE5 3RR,52.638748,-1.106834,Leicester East,"Azam, Faisal",,,Y,,,Y,Y,,,,,3,3,E06000016,E02002843,E00068920,26,16.0,60.0,0.96613,3.0,11.7502,0.00632
1-138315667,2011-01-13,Y,Leaholme,East Midlands,Leicester,8 Springfield Road,Leicester,LE2 3BA,52.616961,-1.1134,Leicester South,"Weller, Victoria",,,Y,,,,,Y,,,,4,4,E06000016,E02002856,E00068894,17,10.0,57.0,0.97636,6.0,33.7489,0.01837
1-1393468454,2014-06-12,Y,The Chantry,East Midlands,Leicester,Chantry Lane,Leicester,LE3 9QJ,52.652476,-1.169942,Leicester West,"Jones, Carol",,,Y,,,Y,Y,,,,Y,2,2,E06000016,E02002830,E00068747,13,12.0,96.0,0.78244,1.0,5.4393,0.00208
1-143362016,2010-12-31,Y,Queens Park Care Home,East Midlands,Leicester,15 Queens Park Way,Leicester,LE2 9RQ,52.582358,-1.150339,Leicester South,"Gilliver, Sarah",,,Y,,,Y,,Y,Y,,,5,5,E06000016,E02002862,E00069029,16,14.0,88.0,0.96524,2.0,14.6575,0.00881
1-1441009202,2014-06-30,Y,Willowbrook,East Midlands,Leicester,20 Wendys Close,Leicester,LE5 2HY,52.64001,-1.058587,Leicester East,"Cannon, Andrew",,,Y,,,Y,Y,,Y,Y,Y,5,5,E06000016,E02006815,E00069471,6,5.0,90.0,0.84703,1.0,9.1287,0.17736
1-144244306,2011-01-12,Y,Knighton Manor Limited,East Midlands,Leicester,31 Knighton Drive,Leicester,LE2 3HD,52.612789,-1.107481,Leicester South,"Smith, Matthew",,,Y,,Y,Y,Y,Y,Y,,Y,0,0,E06000016,E02002856,E00069162,9,8.0,88.30661967499249,,,,
1-145498319,2011-01-20,Y,South Lodge Care Home,East Midlands,Leicester,307 London Road,Leicester,LE2 3ND,52.614772,-1.105704,Leicester South,"Matthews, Ian",,,Y,,Y,,,Y,Y,,,0,0,E06000016,E02002856,E00069211,106,81.0,76.27061301185893,,,,
1-145556238,2011-01-10,Y,Venetia House,East Midlands,Leicester,348 Aylestone Road,Leicester,LE2 8BL,52.610907,-1.142328,Leicester South,*,,,Y,,,Y,Y,,,,Y,8,8,E06000016,E02002857,E00069120,12,10.0,81.0,0.90343,2.0,14.6046,0.09168
1-145683691,2011-01-13,Y,Ryedale House,East Midlands,Leicester,410 Narborough Road,Leicester,LE3 2FR,52.618462,-1.159101,Leicester West,"Burgess, Orlane",,,Y,,,,Y,,,,,3,3,E06000016,E02002855,E00068820,7,7.0,95.0,0.9994,1.0,8.2479,0.0
1-147962215,2011-01-26,Y,Hayes Park Nursing Home,East Midlands,Leicester,2 Cropthorne Avenue,Leicester,LE5 4QJ,52.633006,-1.088275,Leicester East,"Raja, Ejaz",Y,Y,,,Y,,,Y,Y,,Y,4,4,E06000016,E02002845,E00068983,49,34.0,68.0,0.75613,4.0,7.904,0.20857
1-160126117,2010-12-31,Y,Diwali Nivas,East Midlands,Leicester,38 Westcotes Drive,Leicester,LE3 0QR,52.628609,-1.15115,Leicester West,"Sachdev, Kishen",,,Y,,Y,,Y,Y,,,,3,3,E06000016,E02002849,E00069511,21,19.0,92.0,0.91904,4.0,18.0283,0.08929
1-160233387,2011-01-27,Y,Scraptoft Court Care Home,East Midlands,Leicester,273A Scraptoft Lane,Leicester,LE5 2HT,52.642943,-1.06216,Leicester East,"Appleton, Helen",Y,Y,,,Y,,Y,Y,Y,,Y,6,6,E06000016,E02006815,E00069477,34,29.0,85.0,0.87878,2.0,4.9215,0.07028
1-166483724,2011-03-15,Y,Gratia Residential Care Limited,East Midlands,Leicester,472 Groby Road,Leicester,LE3 9QD,52.65214,-1.179772,Leicester West,"Smith, Matthew",,,Y,,Y,Y,Y,Y,Y,,Y,3,3,E06000016,E02006819,E00069246,20,19.0,95.0,0.93128,2.0,8.6603,0.05661
1-1835504485,2015-01-21,Y,Hartington Road Care Home,East Midlands,Leicester,75 Hartington Road,Leicester,LE2 0GQ,52.636194,-1.110389,Leicester South,"Anwar, Zohib",,,Y,,Y,Y,Y,Y,Y,Y,Y,2,2,E06000016,E02002843,E00069356,8,7.0,88.0,0.99811,1.0,17.6777,0.0
1-1901347130,2015-02-02,Y,Abbey House,East Midlands,Leicester,Stokes Drive,Leicester,LE3 9BR,52.646416,-1.160922,Leicester West,"Kananda, Davie",,,Y,,Y,,Y,Y,Y,Y,Y,4,4,E06000016,E02002838,E00069251,37,35.0,95.0,0.92813,2.0,5.8385,0.08185
1-1901362585,2015-02-02,Y,Cooper House,East Midlands,Leicester,Pasley Road,Leicester,LE2 9BT,52.593367,-1.145933,Leicester South,"Kananda, Davie",,,Y,,Y,,Y,Y,Y,Y,Y,1,1,E06000016,E02002862,E00069019,32,27.0,84.0,0.76062,,,
1-196074518,2011-03-07,Y,Mere Lodge,East Midlands,Leicester,93 Mere Road,Leicester,LE5 5GQ,52.634544,-1.109661,Leicester South,"Tennant, Paul",,,Y,,,Y,,,,,,4,4,E06000016,E02002843,E00169477,4,4.0,100.0,0.99316,0.0,0.0,0.00651
1-2019105285,2015-05-06,Y,Rosywood House,East Midlands,Leicester,29 Montvale Gardens,Leicester,LE4 0BL,52.648033,-1.146864,Leicester West,"Makandeni, Shandirayi",,,Y,,,Y,,,,Y,Y,3,3,E06000016,E02002834,E00169474,3,2.0,56.0,0.67007,1.0,19.245,0.09792
1-2058959945,2015-06-02,Y,Bodnant House,East Midlands,Leicester,11 Bodnant Avenue,Leicester,LE5 5RB,52.622504,-1.097563,Leicester South,"Anwar, Zohib",,,Y,,,Y,Y,Y,,Y,Y,3,3,E06000016,E02002853,E00069435,10,7.0,73.0,0.99814,2.0,15.2753,4e-05
1-2131239441,2015-09-07,Y,Orchard Manor View,East Midlands,Leicester,34 Robert Hall Street,Leicester,LE4 5RB,52.658602,-1.130455,Leicester West,"Govani, Shazia",,,Y,,Y,,,Y,,,Y,3,3,E06000016,E02002829,E00068671,30,19.0,63.0,0.92929,0.0,0.0,0.06406
1-2188458336,2015-10-07,Y,Barclay House,East Midlands,Leicester,165 Barclay Street,Leicester,LE3 0JE,52.628536,-1.156093,Leicester West,"Tennant, Paul",Y,Y,,,,,Y,Y,Y,,Y,3,3,E06000016,E02002849,E00069514,29,21.0,72.0,0.94624,8.0,27.3698,0.03457
1-2251922688,2015-10-12,Y,Thurn Court,East Midlands,Leicester,Thurncourt Road,Leicester,LE5 2NG,52.638294,-1.056384,Leicester East,"Kananda, Davie",,,Y,,Y,,Y,Y,Y,Y,Y,4,4,E06000016,E02006815,E00069448,44,36.0,82.0,0.90651,3.0,7.873,0.0755
1-2252130445,2015-10-12,Y,Arbor House,East Midlands,Leicester,High Street,Leicester,LE5 6SH,52.636914,-1.074052,Leicester East,"Kananda, Davie",,,Y,,Y,,Y,Y,Y,Y,Y,3,3,E06000016,E02002851,E00068986,40,38.0,95.0,0.82332,1.0,2.5,0.12623
1-2506609702,2016-05-13,Y,Gwendolen Road Care Home,East Midlands,Leicester,305 Gwendolen Road,Leicester,LE5 5FP,52.629081,-1.094568,Leicester South,"Anwar, Zunaid",,,Y,,Y,Y,Y,Y,Y,,Y,0,0,E06000016,E02002847,E00069348,14,12.0,87.74777082319373,,,,
1-253521530,2011-07-20,Y,Queens Lodge,East Midlands,Leicester,15 Queens Park Way,Leicester,LE2 9RQ,52.582358,-1.150339,Leicester South,"Gilliver, Sarah",,,Y,,,Y,Y,,,,Y,3,3,E06000016,E02002862,E00069029,4,4.0,100.0,0.98669,0.0,0.0,0.02063
1-2663248865,2016-06-06,Y,Skelton Court,East Midlands,Leicester,41 Ryder Road,Leicester,LE3 6UJ,52.636651,-1.198391,Leicester West,"Keetley, Sara",,,Y,,Y,Y,,Y,Y,Y,Y,3,3,E06000016,E02006819,E00069261,15,12.0,80.0,0.83233,1.0,6.6667,0.23766
1-2781763154,2016-07-20,Y,Clarendon Mews Care Home,East Midlands,Leicester,Grasmere Street,Leicester,LE2 7FS,52.626346,-1.139027,Leicester South,"Alidina, Abbas",,,Y,,Y,,,Y,,,Y,3,3,E06000016,E02006850,E00068885,47,42.0,89.0,0.93533,4.0,8.5988,0.01986
1-299000429,2011-09-30,Y,Asra House Residential Care Home,East Midlands,Leicester,15 Asha Margh,Leicester,LE4 5LE,52.654535,-1.123794,Leicester East,"O'Connor, Sheila",,,Y,,Y,,,Y,Y,Y,,2,2,E06000016,E02002832,E00068806,42,42.0,100.0,0.8579,0.0,0.0,0.14893
1-3004022901,2017-01-06,Y,Elliott Residential Care Home,East Midlands,Leicester,46-48 Highfield Street,Leicester,LE2 1AD,52.629167,-1.117999,Leicester South,"Trivedi, Shital",,,Y,,Y,Y,Y,Y,,Y,Y,6,6,E06000016,E02002848,E00069442,17,16.0,92.0,0.90841,2.0,9.6058,0.09661
1-306798244,2011-07-21,Y,Gokul-Vrandavan,East Midlands,Leicester,12-14 Windsor Avenue,Leicester,LE4 5DT,52.655674,-1.119765,Leicester East,"Pabari, Ashok",,,Y,,Y,,,Y,Y,,,3,3,E06000016,E02002832,E00068799,27,14.0,51.0,0.93365,12.0,42.9268,0.02092
1-3121814220,2017-01-31,Y,Grey Ferrers Care Home,East Midlands,Leicester,"5 Priestley Road, Off Blackmore Drive",Leicester,LE3 1LF,52.62995,-1.170376,Leicester West,"Hall, Antony",Y,Y,,,Y,,,Y,Y,,Y,6,6,E06000016,E02002854,E00068814,120,87.0,73.0,0.87416,18.0,14.6787,0.13896
1-320350586,2011-10-31,Y,Harley Grange Nursing Home,East Midlands,Leicester,25 Elms Road,Leicester,LE2 3JD,52.608316,-1.106819,Leicester South,"Hall, Antony",Y,Y,,,Y,,,Y,Y,,Y,3,3,E06000016,E02002858,E00069165,34,21.0,62.0,0.79368,6.0,16.3758,0.31319
1-346705847,2012-03-06,Y,Abberdale Ltd t/a Abberdale House,East Midlands,Leicester,"165, 167, 169 Hinckley Road",Leicester,LE3 0TF,52.632684,-1.155297,Leicester West,"Sachdev, Kishen",,,Y,,Y,,Y,Y,Y,,Y,4,4,E06000016,E02002849,E00069520,25,23.0,91.0,0.75324,2.0,6.0,0.14681
1-3649045751,2017-04-12,Y,Langdale View,East Midlands,Leicester,590 Gipsy Lane,Leicester,LE5 0TB,52.6492,-1.0817,Leicester East,"Sadiq, Neemat",Y,Y,,,Y,,Y,Y,Y,Y,Y,2,2,E06000016,E02006965,E00178570,37,35.0,95.0,0.89427,0.0,0.0,0.09837
1-3837026605,2017-08-04,Y,Evington Grange,East Midlands,Leicester,291 Green Lane Road,Leicester,LE5 4NG,52.638191,-1.086837,Leicester East,"Odedra, Dharini",,,Y,,,,Y,,,,Y,1,1,E06000016,E02002845,E00068969,6,6.0,100.0,0.94165,,,
1-3983626642,2017-09-04,Y,Evington Home - Pilgrims' Friend Society,East Midlands,Leicester,Grocot Road,Leicester,LE5 6AL,52.623122,-1.079676,Leicester East,"Sim, Maureen",,Y,,,Y,,Y,Y,Y,,,1,1,E06000016,E02002845,E00069006,30,26.0,87.0,0.76412,,,
1-429644756,2012-06-13,Y,Hamilton House,East Midlands,Leicester,31 Highfield Street,Leicester,LE2 1AD,52.629167,-1.117999,Leicester South,"Allen, Michele",,,Y,,,,Y,,,,Y,5,5,E06000016,E02002848,E00069442,19,15.0,81.0,0.98188,1.0,6.0009,0.00645
1-453580544,2012-09-10,Y,Harley House Care Home Ltd,East Midlands,Leicester,10-12 Elms Road,Leicester,LE2 3JE,52.611789,-1.108313,Leicester South,"Patel, Rajan",Y,Y,,,,,,Y,Y,,,3,3,E06000016,E02002858,E00069165,28,22.0,79.0,0.98216,6.0,21.4286,0.0103
1-4704689205,2018-02-13,Y,Heathcotes Lutterworth View,East Midlands,Leicester,88 Lutterworth Road,Leicester,LE2 8PG,52.593511,-1.158538,Leicester South,"Kelly, Brendan",,,Y,Y,,Y,Y,,Y,Y,Y,0,0,E06000016,E02002860,E00068731,8,8.0,96.20434171743852,,,,
1-470557134,2012-10-05,Y,Heathcotes (Aylestone),East Midlands,Leicester,128 Lutterworth Road,Leicester,LE2 8PG,52.593511,-1.158538,Leicester South,"Kelly, Brendan",,,Y,,,Y,Y,,Y,Y,Y,0,0,E06000016,E02002860,E00068731,7,6.0,87.63505611843746,,,,
1-4708438393,2018-01-22,Y,Adjuvo (Midlands) Support for Living Ltd,East Midlands,Leicester,Satya Nivas,Leicester,LE4 5ES,52.657706,-1.117418,Leicester East,"Reeman, Samantha",,,Y,,Y,Y,Y,Y,Y,Y,Y,0,0,E06000016,E02002832,E00068801,10,9.0,92.68501295541812,,,,
1-4802840470,2018-03-12,Y,Everdale Grange,East Midlands,Leicester,78-80 Lutterworth Road,Leicester,LE2 8PG,52.593511,-1.158538,Leicester South,"Sadiq, Neemat",Y,Y,,,Y,,Y,Y,Y,Y,Y,4,4,E06000016,E02002860,E00068731,67,63.0,94.0,0.94816,5.0,6.7852,0.05284
1-4862488308,2018-03-23,Y,Goodwood Orchard Care Home,East Midlands,Leicester,304 Uppingham Road,Leicester,LE5 2BE,52.640003,-1.079387,Leicester East,"Gill, Sebastian",,,Y,,Y,,Y,Y,,,Y,0,0,E06000016,E02002839,E00069476,21,17.0,81.77376541901143,,,,
1-494009248,2012-12-31,Y,Fosse Court,East Midlands,Leicester,207-211 Fosse Road North,Leicester,LE3 5EZ,52.640725,-1.151965,Leicester West,"Hodsdon, Ian",,,Y,,Y,Y,Y,Y,Y,Y,,0,0,E06000016,E02002842,E00069057,22,20.0,89.86430674261018,,,,
1-5429237262,2019-01-25,Y,Alston House,East Midlands,Leicester,380 Aylestone Road,Leicester,LE2 8BL,52.610907,-1.142328,Leicester South,"De Jesus, Andrea",,,Y,,Y,Y,Y,Y,Y,Y,Y,4,4,E06000016,E02002857,E00069120,19,17.0,88.0,0.80819,1.0,5.0391,0.12184
1-5552554578,2019-02-20,Y,Oak House,East Midlands,Leicester,357 Gwendolen Road,Leicester,LE5 5FP,52.629081,-1.094568,Leicester South,"Anwar, Zunaid",,,Y,,,,Y,Y,,,Y,2,2,E06000016,E02002847,E00069348,11,10.0,91.0,0.98805,1.0,12.8565,0.01561
1-5705683726,2018-11-14,Y,Dane View Care Home With Nursing,East Midlands,Leicester,165 Glenfield Road,Leicester,LE3 6DP,52.636647,-1.162639,Leicester West,"Singh, Amarveer",Y,Y,,,Y,Y,Y,Y,Y,Y,Y,4,4,E06000016,E02002846,E00069516,41,29.0,71.0,0.96891,10.0,23.5106,0.00761
1-6017463148,2019-01-09,Y,Geraint House,East Midlands,Leicester,28 Uppingham Road,Leicester,LE5 0QD,52.642365,-1.102423,Leicester East,"Mhaka, Vena",,,Y,,,,Y,,,,Y,1,1,E06000016,E02002837,E00178604,11,11.0,100.0,0.98102,,,
1-6313146754,2019-04-09,Y,Spinney Lodge,East Midlands,Leicester,91 Mere Road,Leicester,LE5 5GQ,52.634544,-1.109661,Leicester South,"Tennant, Paul",,,Y,,,Y,Y,,,,Y,1,1,E06000016,E02002843,E00169477,4,4.0,100.0,0.99908,,,
1-6367204387,2019-05-01,Y,Five Rivers Living,East Midlands,Leicester,12 Sangha Close,Leicester,LE3 9SW,52.660492,-1.175985,Leicester West,"Sangha, Ravina",,,Y,,Y,Y,Y,Y,,,Y,3,3,E06000016,E02002830,E00169539,50,23.0,46.0,0.93358,4.0,8.0,0.02767
1-7640464938,2019-10-07,Y,Graysford Hall,East Midlands,Leicester,11 Elmfield Avenue,Leicester,LE2 1RB,52.621872,-1.111439,Leicester South,"O'Hare-Connolly, Gavin",,,Y,,Y,,,Y,Y,Y,,2,2,E06000016,E02002853,E00069438,72,24.0,33.0,0.97293,11.0,15.7135,0.00789
1-7694639366,2019-11-18,Y,The Magnolia Care Home,East Midlands,Leicester,6 Monsell Drive,Leicester,LE2 8PN,52.597273,-1.155336,Leicester South,"De Jesus, Andrea",Y,Y,,,Y,Y,Y,Y,Y,,Y,5,5,E06000016,E02002860,E00068731,38,29.0,77.0,0.90558,3.0,7.0613,0.07211
1-7920651716,2020-03-23,Y,The Big House,East Midlands,Leicester,236 Beaumanor Road,Leicester,LE4 5QB,52.659828,-1.132035,Leicester West,"Charehwa, Bernadette",,,Y,Y,,Y,,,Y,Y,Y,2,2,E06000016,E02002829,E00068658,3,2.0,67.0,0.8619,0.0,0.0,0.12977
1-829226686,2013-09-30,Y,Stonesby House LTD,East Midlands,Leicester,107 Stonesby Avenue,Leicester,LE2 6TY,52.59341,-1.13083,Leicester South,"Saghir, Osman",,,Y,,Y,Y,Y,Y,Y,Y,Y,5,5,E06000016,E02002861,E00069022,14,11.0,80.0,0.95822,2.0,17.7856,0.02638
1-829424698,2013-07-12,Y,Beaumont Hall,East Midlands,Leicester,120 Beaumont Leys Lane,Leicester,LE4 2BD,52.658693,-1.141674,Leicester West,"Boyle, Allison",,,Y,,Y,,,Y,,,Y,0,0,E06000016,E02002829,E00068682,60,53.0,88.97410922600584,,,,
1-833302745,2013-08-01,Y,Barclay Street,East Midlands,Leicester,148 Barclay Street,Leicester,LE3 0JB,52.628297,-1.156497,Leicester West,"Terrell, Nichola",,,Y,,,Y,,Y,,,Y,4,4,E06000016,E02002849,E00069524,6,5.0,79.0,0.82456,3.0,43.8326,0.20365
1-833359943,2013-08-01,Y,Milligan Road,East Midlands,Leicester,244 Milligan Road,Leicester,LE2 8FD,52.605844,-1.142161,Leicester South,"Terrell, Nichola",,,Y,,Y,Y,,Y,Y,,Y,5,5,E06000016,E02002857,E00068715,8,8.0,105.0,0.95098,2.0,25.9206,0.05628
1-8336055992,2020-03-17,Y,Rushey Mead Manor Care and Nursing Home,East Midlands,Leicester,30 Coatbridge Avenue,Leicester,LE4 7ZS,52.66206,-1.10457,Leicester East,"Alidina, Abbas",Y,Y,,,Y,,Y,Y,Y,Y,Y,6,6,E06000016,E02002831,E00069305,50,35.0,70.0,0.86298,8.0,16.1988,0.09351
1-8372188795,2020-07-16,Y,George Hythe House,East Midlands,Leicester,1 Croft Road,Leicester,LE4 1HA,52.675786,-1.152151,Leicester West,"Fleetham, Katie",,,Y,,Y,Y,Y,Y,Y,,Y,5,5,E06000016,E02002827,E00068750,43,35.0,80.0,0.96045,7.0,16.8183,0.01208
1-8823003967,2020-05-12,Y,Diamond House,East Midlands,Leicester,80 Bewcastle Grove,Leicester,LE4 2JW,52.669263,-1.146318,Leicester West,"Farebrother, Colin",,,Y,,Y,,,Y,Y,,Y,6,6,E06000016,E02002829,E00068695,74,43.0,59.0,0.94549,20.0,26.7918,0.04991
1-894167334,2013-09-03,Y,Toller Road,East Midlands,Leicester,13 Toller Road,Leicester,LE2 3PH,52.603785,-1.109155,Leicester South,"Smith, Peter",Y,Y,,,,Y,Y,Y,,,Y,3,3,E06000016,E02002858,E00069198,8,6.0,71.0,0.99844,2.0,19.0941,0.00056
1-9922444123,2020-12-21,Y,Acorn Hill Nursing Home,East Midlands,Leicester,Radstone Walk,Leicester,LE5 4UH,52.636891,-1.084979,Leicester East,"Sadiq, Neemat",Y,Y,,,Y,,Y,Y,Y,Y,Y,6,6,E06000016,E02002845,E00068953,59,33.0,56.0,0.94639,4.0,7.2241,0.03962
1-112448960,2011-01-05,Y,Manton Hall,East Midlands,Rutland,Lyndon Road,Oakham,LE15 8SR,52.631783,-0.698398,Rutland and Melton,"Michael, James",,,Y,,Y,,Y,Y,Y,,,3,3,E06000017,E02002867,E00069588,34,30.0,87.0,0.93391,3.0,7.4018,0.05183
1-115525064,2011-01-19,Y,Rutland House Community Trust,East Midlands,Rutland,Willowbrook,Oakham,LE15 6EH,52.671815,-0.719674,Rutland and Melton,"Dawson, Julie",,,Y,,,Y,,Y,Y,,,4,4,E06000017,E02002865,E00069622,10,9.0,92.0,0.8863,1.0,9.5743,0.08537
1-118545843,2010-12-22,Y,Wisteria House Residential Home - Rutland,East Midlands,Rutland,9 Ayston Road,Oakham,LE15 9RL,52.591481,-0.722474,Rutland and Melton,*,,,Y,,,,,Y,,,,3,3,E06000017,E02002867,E00069643,16,14.0,90.0,0.92701,4.0,23.6621,0.02987
1-125862514,2011-02-15,Y,Chater Lodge,East Midlands,Rutland,High Street,Rutland,PE9 3TJ,52.633942,-0.549103,Rutland and Melton,"O'Reilly, Michael",,,Y,,Y,,,Y,Y,,Y,2,2,E06000017,E02002866,E00069570,45,38.0,83.0,0.81408,2.0,4.714,0.20173
1-125862885,2011-02-15,Y,Tixover House,East Midlands,Rutland,Tixover Grange,Rutland,PE9 3QN,52.604251,-0.553879,Rutland and Melton,"O'Reilly, Michael",Y,Y,,,Y,,,Y,Y,,Y,3,3,E06000017,E02002866,E00069577,48,38.0,78.0,0.89103,5.0,9.3943,0.04246
1-131815562,2011-01-20,Y,Rutland Care Village,East Midlands,Rutland,Huntsmans Drive,Oakham,LE15 6RP,52.672949,-0.738163,Rutland and Melton,"Wood, James",Y,Y,,,Y,,,Y,Y,,,4,4,E06000017,E02002864,E00069617,82,76.0,92.0,0.94258,4.0,5.0282,0.0264
1-265939917,2011-08-02,Y,Oak House Residential Home,East Midlands,Rutland,Pond Lane,Oakham,LE15 7NW,52.720295,-0.629084,Rutland and Melton,"Walker, Leighton",,,Y,,,,,Y,Y,Y,,3,3,E06000017,E02002863,E00069566,25,19.0,76.0,0.79779,3.0,12.0,0.16949
1-268009415,2011-08-01,Y,Aberdeen House,East Midlands,Rutland,20 Stockerston Road,Oakham,LE15 9UD,52.587513,-0.731461,Rutland and Melton,"Kotecha, Rakesh",Y,,Y,,,,,Y,,,,4,4,E06000017,E02002867,E00172625,18,14.0,75.0,0.91514,3.0,18.9758,0.033
1-2879895452,2016-08-29,Y,The Lodge,East Midlands,Rutland,Main Street,Oakham,LE15 7PL,52.736707,-0.685263,Rutland and Melton,"Pigott, Ramsey",,,Y,,,Y,,Y,,,Y,1,1,E06000017,E02002863,E00069558,30,29.0,97.0,0.9642,,,
1-4463960838,2017-11-23,Y,Belton House Retirement Home,East Midlands,Rutland,2 Littleworth Lane,Oakham,LE15 9JZ,52.602002,-0.793871,Rutland and Melton,"Ghai, Sonia",,,Y,,Y,,Y,Y,Y,Y,,8,8,E06000017,E02002867,E00069547,30,17.0,57.0,0.91363,5.0,15.6791,0.08655
1-8814122064,2020-08-27,Y,Oakham Grange,East Midlands,Rutland,Wheatfield Way,Oakham,LE15 7UD,52.681164,-0.744657,Rutland and Melton,"McAnulty, Lesa",Y,Y,,,Y,,,Y,,,Y,3,3,E06000017,E02002864,E00187501,60,46.0,76.0,0.95069,7.0,11.0972,0.01271
1-9732344097,2020-10-21,Y,Crown House Care Home,East Midlands,Rutland,Crown Walk,Oakham,LE15 6BZ,52.669349,-0.727663,Rutland and Melton,*,,,Y,,,,,Y,,,,3,3,E06000017,E02002865,E00187459,21,19.0,90.0,0.93153,3.0,14.2857,0.07616
1-1042689019,2013-11-26,Y,Heathcotes (Carrington Park),East Midlands,Nottingham,2 Clinton Avenue,Nottingham,NG5 1AW,52.971996,-1.155493,Nottingham East,"Kelly, Brendan",,,Y,,,Y,Y,,Y,Y,Y,0,0,E06000018,E02002884,E00069819,8,4.0,52.67293476266648,,,,
1-112552719,2010-12-13,Y,Springfield Care Home,East Midlands,Nottingham,Lawton Drive,Nottingham,NG6 8BL,53.012384,-1.191821,Nottingham North,"Patel, Chandra",,,Y,,Y,,,Y,,,,3,3,E06000018,E02002869,E00070010,40,23.0,57.0,0.9522,3.0,8.0364,0.0439
1-112779616,2011-01-20,Y,Devonshire Manor,East Midlands,Nottingham,2 Devonshire Road,Nottingham,NG5 2EW,52.978276,-1.154092,Nottingham East,"Bamber, Paul",Y,,Y,,,Y,Y,,Y,,Y,3,3,E06000018,E02002882,E00070490,5,3.0,60.0,0.88155,1.0,20.0,0.17591
1-1142951439,2014-01-09,Y,Cockington House,East Midlands,Nottingham,38 Cockington Road,Nottingham,NG8 4BZ,52.956546,-1.239869,Nottingham North,*,,,Y,,,Y,,,,,Y,4,4,E06000018,E02002892,E00069923,6,5.0,79.0,0.98714,0.0,8.3333,0.01499
1-117663787,2010-12-02,Y,Beechdale House Care Home,East Midlands,Nottingham,Beechdale Road,Nottingham,NG8 3EZ,52.966684,-1.205538,Nottingham South,"Modhwadia, Laxman",Y,Y,Y,,Y,,,Y,Y,,,1,1,E06000018,E02002887,E00070277,40,27.0,68.0,0.98909,,,
1-118269753,2011-01-13,Y,Burlington Villa,East Midlands,Nottingham,15 Burlington Villa,Nottingham,NG5 2GR,52.983952,-1.149439,Nottingham East,"Moothia, Naden",,,Y,,,Y,,,,,,2,2,E06000018,E02002874,E00070473,9,8.0,94.0,0.73848,1.0,7.8567,0.33654
1-119757021,2010-12-23,Y,Edenhurst Rest Home,East Midlands,Nottingham,5-11 Demark Grove,Nottingham,NG3 4JG,52.972296,-1.138782,Nottingham East,*,,,Y,,Y,,,Y,,,,3,3,E06000018,E02002882,E00070341,24,24.0,99.0,0.9446,1.0,2.4056,0.03584
1-120634786,2011-01-10,Y,Huws,East Midlands,Nottingham,93 Harlaxton Drive,Nottingham,NG7 1JD,52.949489,-1.167618,Nottingham South,"Bruce, Julie",Y,Y,,,,Y,,,Y,Y,,5,5,E06000018,E02002898,E00187592,14,14.0,97.0,0.94768,1.0,3.9123,0.03324
1-120713148,2011-01-25,Y,Ashleigh House,East Midlands,Nottingham,18-20 Devon Drive,Nottingham,NG5 2EN,52.978756,-1.150777,Nottingham East,*,,,Y,,,,,Y,,,,5,5,E06000018,E02002877,E00070492,24,18.0,74.0,0.91642,1.0,3.4861,0.06859
1-120713174,2011-01-25,Y,Ascot House - Nottingham,East Midlands,Nottingham,30-40 Percival Road,Nottingham,NG5 2EY,52.978982,-1.149625,Nottingham East,*,,,Y,,,,,Y,,,,4,4,E06000018,E02002877,E00070487,20,18.0,89.0,0.90242,1.0,6.2915,0.10323
1-121578778,2011-01-04,Y,Park House,East Midlands,Nottingham,Cinderhill Road,Nottingham,NG6 8SB,52.9899,-1.200685,Nottingham North,"Abbiss, Lorraine",Y,Y,,,Y,,,Y,,,,4,4,E06000018,E02002872,E00070051,68,45.0,67.0,0.84691,20.0,29.3719,0.15091
1-121578792,2011-01-04,Y,Melbourne House,East Midlands,Nottingham,Grannis Drive,Nottingham,NG8 5RU,52.971943,-1.204191,Nottingham South,"Abbiss, Lorraine",Y,Y,,,,,,Y,,,,4,4,E06000018,E02002887,E00070287,48,40.0,84.0,0.74791,8.0,15.9004,0.24378
1-1216612736,2014-02-12,Y,Heathcotes (Woodborough),East Midlands,Nottingham,2 Corporation Oaks,Nottingham,NG3 4JY,52.966324,-1.145479,Nottingham East,"Kelly, Brendan",,,Y,Y,,Y,Y,,Y,,Y,0,0,E06000018,E02002882,E00070350,6,6.0,97.52700251601142,,,,
1-121804054,2011-04-14,Y,Mount Vernon Terrace,East Midlands,Nottingham,23-25 Waverley Street,Nottingham,NG7 4DX,52.962121,-1.161569,Nottingham East,*,,,Y,,,,Y,,,,,5,5,E06000018,E02002889,E00069676,16,13.0,81.0,0.97009,2.0,14.6575,0.0114
1-124012874,2011-02-08,Y,Turning Point - Alfred Minto House Care Home,East Midlands,Nottingham,26-28 Zulu Road,Nottingham,NG7 7DR,52.977801,-1.170842,Nottingham East,"Jhuty, Davinder",,,Y,,,,Y,,,,Y,2,2,E06000018,E02002879,E00069801,10,9.0,90.0,0.94269,1.0,14.1421,0.07975
1-125732908,2011-01-17,Y,Clifton Manor Nursing Home,East Midlands,Nottingham,Rivergreen,Nottingham,NG11 8AW,52.909253,-1.179437,Nottingham South,"Reeves, Mandy",Y,Y,,,Y,,,Y,,,,5,5,E06000018,E02002902,E00070107,30,27.0,89.0,0.91701,4.0,13.0384,0.1266
1-125732925,2011-01-17,Y,Clifton Manor Residential Home,East Midlands,Nottingham,Rivergreen,Nottingham,NG11 8AW,52.909253,-1.179437,Nottingham South,"Reeves, Mandy",,,Y,,Y,,,Y,,,,4,4,E06000018,E02002902,E00070107,47,39.0,84.0,0.94444,7.0,14.5736,0.03118
1-128662380,2011-01-24,Y,Kingfisher Court Care Centre,East Midlands,Nottingham,Sturgeon Avenue,Nottingham,NG11 8HE,52.915823,-1.174078,Nottingham South,"Reeves, Mandy",,,Y,,Y,,,Y,,,,4,4,E06000018,E02002901,E00070117,40,32.0,79.0,0.92533,7.0,18.186,0.03409
1-128953086,2011-01-31,Y,Beechwood,East Midlands,Nottingham,60 Burlington Road,Nottingham,NG5 2GS,52.984233,-1.149865,Nottingham East,"Orford, Matthew",,,Y,,,Y,,,,,,3,3,E06000018,E02002874,E00070473,8,8.0,100.0,0.98851,0.0,0.0,0.01832
1-129460432,2010-12-20,Y,514 Arnold Road,East Midlands,Nottingham,Bestwood,Nottingham,NG5 5HN,52.995399,-1.154995,Nottingham North,"Cannon, Andrew",,,Y,,,Y,,Y,Y,Y,Y,3,3,E06000018,E02002873,E00069901,10,10.0,100.0,0.9187,0.0,0.0,0.05612
1-1305105437,2014-03-14,Y,Acorn House,East Midlands,Nottingham,1 Oak Street,Nottingham,NG5 2AT,52.974117,-1.153191,Nottingham East,"Brown, Diane",,,Y,,Y,Y,,Y,,,,3,3,E06000018,E02002882,E00070496,64,51.0,79.0,0.88951,10.0,15.7288,0.16179
1-131764900,2010-12-06,Y,Gregory Court,East Midlands,Nottingham,Noel Street,Nottingham,NG7 6AJ,52.968615,-1.169782,Nottingham East,"Bygrave, Anne",,,Y,,,,,Y,Y,,Y,5,5,E06000018,E02002885,E00069828,10,8.0,84.0,0.77115,1.0,11.4018,0.21137
1-137749727,2011-03-11,Y,The Firs Nursing Home,East Midlands,Nottingham,700 Mansfield Road,Nottingham,NG5 3FS,52.984292,-1.143072,Nottingham East,"Garrett, Lesley",Y,Y,,,,,,Y,,,Y,0,0,E06000018,E02002877,E00070518,31,28.0,88.75253618237997,,,,
1-140486563,2010-12-03,Y,Hall Park Care Home,East Midlands,Nottingham,Squires Avenue,Nottingham,NG6 8GH,53.008755,-1.198623,Nottingham North,"O'Reilly, Michael",,,Y,,Y,,,Y,,,,7,7,E06000018,E02002869,E00070015,62,46.0,74.0,0.9131,12.0,20.0032,0.13389
1-166022465,2011-02-16,Y,Cherry Trees Resource Centre,East Midlands,Nottingham,Chippenham Road,Nottingham,NG5 5TA,53.003675,-1.149301,Nottingham North,"Haigh, Paul",,,Y,,Y,,,Y,,,,4,4,E06000018,E02006834,E00173479,45,42.0,93.0,0.86365,3.0,6.0178,0.01413
1-166027589,2011-02-16,Y,The Oaks Residential Home,East Midlands,Nottingham,Campbell Street,Nottingham,NG3 1GZ,52.957663,-1.137777,Nottingham East,"Haigh, Paul",,,Y,,Y,,,Y,,,Y,3,3,E06000018,E02002890,E00070459,42,37.0,87.0,0.79124,5.0,11.745,0.19886
1-1707109586,2014-10-06,Y,The Limes,East Midlands,Nottingham,6 Lime Tree Avenue,Nottingham,NG8 6AB,52.982357,-1.196805,Nottingham North,"Jaques, Louisa",,,Y,,,Y,,Y,Y,,Y,4,4,E06000018,E02002878,E00069698,6,4.0,67.0,0.99777,1.0,13.6083,0.00165
1-1759782188,2014-11-21,Y,Heathcotes (Blenheim),East Midlands,Nottingham,Blenheim Mount,Nottingham,NG3 4LA,52.965529,-1.145304,Nottingham East,"Kelly, Brendan",,,Y,,,Y,Y,,Y,Y,Y,0,0,E06000018,E02002882,E00070350,9,8.0,87.09367679932758,,,,
1-2008475515,2015-04-01,Y,4 Claremont Road,East Midlands,Nottingham,4 Claremont Road,Nottingham,NG5 1BH,52.973582,-1.15886,Nottingham East,"De Brito, Gemma",,,Y,,,Y,,Y,,,Y,2,2,E06000018,E02002884,E00069805,12,12.0,100.0,0.9466,0.0,0.0,0.00725
1-2008549284,2015-04-01,Y,14-17 Palmwood Court,East Midlands,Nottingham,"16 Palmwood Court, The Woodlands",Nottingham,NG6 9BZ,52.991332,-1.190635,Nottingham North,"De Brito, Gemma",,,Y,,,,Y,Y,,,Y,2,2,E06000018,E02002871,E00070083,12,12.0,96.0,0.959,1.0,5.8926,0.01029
1-2008594006,2015-04-01,Y,2-4 Watcombe Circus,East Midlands,Nottingham,2-4 Watcombe Circus,Nottingham,NG5 2DT,52.976904,-1.15196,Nottingham East,"De Brito, Gemma",,,Y,,,,Y,Y,,,Y,3,3,E06000018,E02002877,E00070477,12,12.0,97.0,0.92853,1.0,4.8113,0.0742
1-2008594276,2015-04-01,Y,280-282 Wells Road,East Midlands,Nottingham,280-282 The Wells Road,Nottingham,NG3 3AA,52.973168,-1.123992,Nottingham East,"De Brito, Gemma",,,Y,,,Y,,Y,,,Y,0,0,E06000018,E02002883,E00070328,6,5.0,79.15533119323345,,,,
1-2222891610,2015-09-21,Y,The Conifers Rest Home,East Midlands,Nottingham,11-15 Bakerdale Road,Nottingham,NG3 7GJ,52.962032,-1.110863,Nottingham East,"Buxton, Debra",,,Y,,Y,,,Y,,,,2,2,E06000018,E02002891,E00070205,18,18.0,100.0,0.97925,0.0,0.0,0.01658
1-2232775564,2016-02-01,Y,Fairway View,East Midlands,Nottingham,Swale Close,Nottingham,NG6 9LZ,53.000614,-1.183246,Nottingham North,"Boyle, Allison",,,Y,,Y,,,Y,,,,3,3,E06000018,E02002871,E00070056,41,35.0,86.0,0.81617,6.0,14.7017,0.23429
1-2272838202,2015-12-01,Y,Linwood House,East Midlands,Nottingham,1 Mount Hooton Road,Nottingham,NG7 4AY,52.963507,-1.165592,Nottingham East,"Priddle, Margaret",,,Y,,,Y,,Y,,,Y,2,2,E06000018,E02002889,E00069676,13,13.0,100.0,0.93773,0.0,0.0,0.04523
1-2320527018,2015-11-27,Y,Mulberry Court Care Home,East Midlands,Nottingham,61 Darnhall Crescent,Nottingham,NG8 4QA,52.965412,-1.227969,Nottingham North,"Ahmed, Shahzada",Y,Y,,,Y,,,Y,Y,,Y,3,3,E06000018,E02002887,E00069910,43,25.0,58.0,0.97332,12.0,29.0465,0.01003
1-2332051773,2016-04-15,Y,Carrington House Care Home,East Midlands,Nottingham,25 Mayo Road,Nottingham,NG5 1BL,52.973882,-1.157854,Nottingham East,"Kaur, Amendeep",,,Y,,Y,,,Y,Y,,Y,5,5,E06000018,E02002884,E00069803,28,23.0,81.0,0.88411,3.0,9.9103,0.09499
1-233717024,2011-09-16,Y,Highfields Nursing Home,East Midlands,Nottingham,330 Highbury Road,Nottingham,NG6 9AF,52.999308,-1.193478,Nottingham North,"Warren-Gray, Paul",Y,Y,,,Y,,,Y,Y,,,1,1,E06000018,E02002871,E00070068,42,8.0,19.0,0.51211,,,
1-2458327311,2016-02-24,Y,Maple Manor Nursing Home,East Midlands,Nottingham,3-5 Hardy Street,Nottingham,NG7 4BB,52.962793,-1.166335,Nottingham East,"El-Hadi, Randi",Y,Y,,,,Y,,Y,,,Y,0,0,E06000018,E02002889,E00069673,16,14.0,88.90851805723256,,,,
1-262597466,2011-07-04,Y,Levina House,East Midlands,Nottingham,17 Victoria Embankment,Nottingham,NG2 2JY,52.937398,-1.139531,Nottingham South,"O'Connor, Sarah",,,Y,,,Y,,,,,Y,3,3,E06000018,E02006904,E00069966,6,5.0,78.0,0.82102,2.0,38.49,0.28138
1-2632224871,2016-05-09,Y,Clifton View Care Home,East Midlands,Nottingham,67 Widecombe Lane,Nottingham,NG11 9GH,52.898381,-1.181471,Nottingham South,"Ali, Amar",Y,Y,,,Y,,,Y,,,,0,0,E06000018,E02002904,E00070167,76,49.0,64.27051468418877,,,,
1-263932106,2011-07-21,Y,Forest Lodge Rest Home,East Midlands,Nottingham,20 Forest Road East,Nottingham,NG1 4HH,52.963544,-1.160678,Nottingham East,"Khan, Ayaz",,,Y,,Y,,Y,Y,,,,0,0,E06000018,E02002889,E00069676,28,22.0,78.09366493490224,,,,
1-2703261060,2016-06-11,Y,Kingsbury House Limited,East Midlands,Nottingham,103-105 Mansfield Street,Nottingham,NG5 4BH,52.981232,-1.144994,Nottingham East,"Schofield, Andrew",,,Y,,Y,,Y,Y,,,Y,2,2,E06000018,E02002877,E00070483,20,18.0,90.0,0.95132,1.0,7.0711,0.01077
1-2731592703,2016-07-21,Y,Winslow,East Midlands,Nottingham,401 Bestwood Road,Nottingham,NG6 8SS,53.015766,-1.18533,Nottingham North,"Fisher, Katie",Y,Y,,,,Y,Y,,,,Y,3,3,E06000018,E02002869,E00070052,6,6.0,100.0,0.98213,0.0,0.0,0.0
1-2899758222,2016-09-07,Y,Victoria House,East Midlands,Nottingham,19 Victoria Embankment,Nottingham,NG2 2JY,52.937398,-1.139531,Nottingham South,"O'Connor, Sarah",,,Y,,,Y,,,,,Y,1,1,E06000018,E02006904,E00069966,6,6.0,100.0,0.96735,,,
1-3087516929,2016-12-01,Y,Wollaton View Care Home,East Midlands,Nottingham,21 Lambourne Drive,Nottingham,NG8 1GR,52.95865,-1.211027,Nottingham South,"Ali, Amar",,,Y,,Y,,,Y,,,,4,4,E06000018,E02007082,E00070541,46,35.0,77.0,0.94531,11.0,24.167,0.02542
1-320778127,2011-10-31,Y,Acacia Care Centre,East Midlands,Nottingham,12 Sherwood Rise,Nottingham,NG7 6JE,52.972222,-1.15975,Nottingham East,"Hall, Antony",Y,Y,,,Y,,,Y,Y,,Y,3,3,E06000018,E02002884,E00069851,58,24.0,41.0,0.76357,19.0,32.0863,0.27025
1-3310199702,2017-02-07,Y,Alexandra Lodge Care Home,East Midlands,Nottingham,2 Lucknow Drive,Nottingham,NG3 5EU,52.973756,-1.140436,Nottingham East,*,,,Y,,Y,,,Y,,Y,,2,2,E06000018,E02002882,E00070306,19,16.0,84.0,0.95859,1.0,7.4432,0.02045
1-3508656468,2017-03-07,Y,Kingsthorpe View Care Home,East Midlands,Nottingham,Kildare Road,Nottingham,NG3 3AF,52.971504,-1.124723,Nottingham East,"Kotecha, Umesh",Y,Y,,,Y,,Y,Y,Y,Y,Y,7,7,E06000018,E02002883,E00070310,50,32.0,65.0,0.89658,5.0,10.7526,0.20471
1-3802488097,2017-09-04,Y,St Martins,East Midlands,Nottingham,42 St Martins Road,Nottingham,NG8 3AR,52.972182,-1.226761,Nottingham North,"Nepal, Ashwin",,,Y,,Y,,,Y,,,,2,2,E06000018,E02002881,E00069907,21,17.0,81.0,0.91497,1.0,6.7344,0.00375
1-3866306637,2017-06-06,Y,Fairview,East Midlands,Nottingham,Sutherland Road,Nottingham,NG3 7AP,52.963764,-1.115309,Nottingham East,"Orford, Matthew",,,Y,,,Y,,,,,Y,2,2,E06000018,E02002891,E00070200,6,6.0,100.0,0.98253,0.0,0.0,0.0
1-3866402269,2017-06-06,Y,Lynton House,East Midlands,Nottingham,Sutherland Road,Nottingham,NG3 7AP,52.963764,-1.115309,Nottingham East,"Orford, Matthew",,,Y,,,Y,,,,,Y,2,2,E06000018,E02002891,E00070200,3,2.0,83.0,0.98253,1.0,23.5702,0.0
1-3986560133,2017-09-06,Y,Wycar Leys Bulwell,East Midlands,Nottingham,Snape Wood Road,Nottingham,NG6 7GH,53.003161,-1.217342,Nottingham North,"Tydeman, Justin",,,Y,,,Y,Y,Y,Y,Y,Y,0,0,E06000018,E02002872,E00070028,22,17.0,78.3048030821651,,,,
1-419642375,2012-06-15,Y,Peacemills Care Home,East Midlands,Nottingham,132 Perry Road,Nottingham,NG5 3AH,52.983426,-1.157656,Nottingham East,"Fox-Smith, Martin",,,Y,,Y,Y,,Y,Y,,Y,1,1,E06000018,E02002874,E00070519,43,25.0,58.0,0.9877,,,
1-4227838300,2017-09-01,Y,Connect House,East Midlands,Nottingham,Riber Crescent,Nottingham,NG5 1LP,52.991538,-1.173528,Nottingham North,"Akhter, Sagheer",Y,Y,,,Y,Y,Y,Y,Y,Y,Y,1,1,E06000018,E02002875,E00069753,74,14.0,19.0,0.64208,,,
1-425818621,2012-05-22,Y,Lime Lodge,East Midlands,Nottingham,575 Nuthall Road,Nottingham,NG8 6AD,52.983582,-1.197155,Nottingham North,"Jaques, Louisa",,,Y,,,Y,,Y,,,Y,5,5,E06000018,E02002878,E00069698,9,7.0,82.0,0.99871,1.0,6.0858,0.00068
1-434400852,2012-06-13,Y,Wollaton Park Care Home,East Midlands,Nottingham,2A Lambourne Drive,Nottingham,NG8 1GR,52.95865,-1.211027,Nottingham South,"Ali, Amar",Y,Y,,,Y,,Y,Y,Y,,Y,1,1,E06000018,E02007082,E00070541,40,33.0,82.0,0.98754,,,
1-4404879583,2017-10-16,Y,Clarendon Court Care Home,East Midlands,Nottingham,13-15 Clumber Avenue,Nottingham,NG5 1AG,52.970298,-1.155705,Nottingham East,"Akhtar, Jhangir",,,Y,,Y,,,Y,Y,Y,Y,5,5,E06000018,E02002884,E00069819,54,33.0,61.0,0.88812,4.0,6.5473,0.14984
1-4621752722,2018-02-12,Y,Edwin House,East Midlands,Nottingham,Millers Court,Nottingham,NG7 3DP,52.96018,-1.181019,Nottingham South,"Clifton-Brown, Apollos",Y,Y,,,,,Y,Y,,,Y,2,2,E06000018,E02002893,E00070387,63,37.0,59.0,0.84445,8.0,13.4687,0.17784
1-462824183,2012-08-21,Y,Hawthorn Lodge Care Home,East Midlands,Nottingham,Beckhampton Road,Nottingham,NG5 5LF,52.998378,-1.159287,Nottingham North,"Thurlby, Alexandra",,,Y,,Y,,,Y,Y,Y,,1,1,E06000018,E02002873,E00069905,60,47.0,78.0,0.888,,,
1-4658761316,2018-04-30,Y,Belvoir Lodge,East Midlands,Nottingham,243 Edwards Lane,Nottingham,NG5 6EQ,52.994603,-1.153088,Nottingham North,"Heginbotham, Martyn",,,Y,,,Y,,Y,Y,Y,Y,3,3,E06000018,E02002873,E00069873,5,5.0,100.0,0.92778,0.0,0.0,0.09747
1-4659619288,2018-04-30,Y,Oxclose Lodge,East Midlands,Nottingham,231 Edwards Lane,Nottingham,NG5 6EQ,52.994603,-1.153088,Nottingham North,"Heginbotham, Martyn",,,Y,,,Y,,Y,Y,Y,Y,4,4,E06000018,E02002873,E00069873,5,5.0,95.0,0.95326,0.0,10.0,0.09101
1-4675873280,2018-01-08,Y,Beechdale Manor Care Home,East Midlands,Nottingham,40 Beechdale Road,Nottingham,NG8 3AJ,52.972787,-1.217533,Nottingham North,"Khatkar, Jagdeep",Y,Y,,,Y,,,Y,,,Y,9,9,E06000018,E02002881,E00069942,65,47.0,72.0,0.85325,12.0,19.0729,0.15034
1-5103998570,2018-04-19,Y,Hegarty Care,East Midlands,Nottingham,201 University Boulevard,Nottingham,NG9 2GJ,52.932985,-1.204202,Nottingham South,"Swinscoe, Ashley",,,Y,,,,Y,,,,Y,1,1,E06000018,E02007082,E00187511,4,4.0,100.0,0.82319,,,
1-5622304903,2018-12-06,Y,Langdale House Residential Home,East Midlands,Nottingham,Langdale House,Nottingham,NG7 4BP,52.962753,-1.16675,Nottingham East,*,,,Y,,,,Y,Y,,,Y,1,1,E06000018,E02002889,E00069673,12,8.0,67.0,0.97058,,,
1-5626768868,2018-12-06,Y,Langdale Court Residential Home,East Midlands,Nottingham,1 Colville Street,Nottingham,NG1 4HQ,52.963236,-1.153969,Nottingham East,*,,,Y,,,,Y,Y,,,Y,1,1,E06000018,E02002889,E00069659,7,5.0,71.0,0.98213,,,
1-5783396824,2018-10-03,Y,Winterfell Care Home,East Midlands,Nottingham,23-29 Herbert Road,Nottingham,NG5 1BS,52.974472,-1.158617,Nottingham East,"Khan, Raza",,,Y,,Y,,,Y,Y,,Y,4,4,E06000018,E02002884,E00069803,41,25.0,61.0,0.97134,6.0,13.9402,0.00651
1-6086402282,2019-01-28,Y,Gregory House II,East Midlands,Nottingham,391-393,Nottingham,NG5 2DG,52.974705,-1.151169,Nottingham East,*,,,Y,,,,Y,,,,Y,2,2,E06000018,E02002882,E00070496,12,12.0,96.0,0.93639,1.0,5.8926,0.05745
1-6301808037,2019-04-24,Y,19 Barkla Close,East Midlands,Nottingham,19 Barkla Close,Nottingham,NG11 8QH,52.898929,-1.19167,Nottingham South,"Haigh, Paul",,,Y,,,Y,,Y,,,Y,1,1,E06000018,E02002903,E00187512,3,2.0,67.0,0.99811,,,
1-7336874665,2020-02-11,Y,Sunlight Care (Park View),East Midlands,Nottingham,13 Gedling Grove,Nottingham,NG7 4DU,52.961843,-1.162854,Nottingham East,"Davis, Steven",Y,Y,,,,Y,Y,Y,Y,,Y,1,1,E06000018,E02002889,E00069674,14,10.0,71.0,0.95462,,,
1-7847355896,2019-11-18,Y,Wilford View Care Home,East Midlands,Nottingham,1a,Nottingham,NG11 7FB,52.918905,-1.164572,Nottingham South,"Mahmood, Sajaid",,,Y,,Y,,Y,Y,Y,,Y,2,2,E06000018,E02002901,E00070116,83,53.0,64.0,0.96469,11.0,13.631,0.02511
1-879621502,2013-09-04,Y,Heathcotes (Basford),East Midlands,Nottingham,55A Hadbury Road,Nottingham,NG5 1JZ,52.982363,-1.171395,Nottingham East,"Kelly, Brendan",,,Y,,,Y,Y,,Y,Y,Y,0,0,E06000018,E02002879,E00069797,6,4.0,60.36736442173817,,,,
1-949967844,2013-09-18,Y,Heathcotes (Mapperley Lodge),East Midlands,Nottingham,24 Ebers Road,Nottingham,NG3 5DZ,52.972066,-1.14927,Nottingham East,"Kelly, Brendan",,,Y,,,Y,Y,,Y,Y,Y,0,0,E06000018,E02002882,E00070333,7,6.0,89.98529551463801,,,,
1-9624405235,2020-10-01,Y,West Lodge Care Home,East Midlands,Nottingham,238 Hucknall Road,Nottingham,NG5 1FB,52.977807,-1.156365,Nottingham East,"Alishan, Razma",Y,Y,,,Y,,,Y,Y,,,3,3,E06000018,E02002882,E00070494,27,22.0,81.0,0.90807,0.0,0.0,0.11969
1-9827720841,2020-11-30,Y,Sherwood,East Midlands,Nottingham,8 First Avenue,Nottingham,NG7 6JL,52.968603,-1.157795,Nottingham East,"Stokes, Helen",Y,Y,,,,,Y,,,,Y,0,0,E06000018,E02002884,E00069825,18,17.0,94.8462429775124,,,,
1-10075043836,2020-12-21,Y,Thackley Green,East Midlands,North Northamptonshire,Off Lewin Road,Corby,NN18 8JS,52.468785,-0.719112,Corby,"Earnshaw, Anna",Y,Y,,,Y,,,Y,Y,,Y,1,1,E06000061,E02006863,E00169164,51,24.0,47.0,0.93206,,,
1-10075043918,2020-12-21,Y,Spinneyfields,East Midlands,North Northamptonshire,H E Bates Way,Rushden,NN10 9YP,52.29031,-0.609079,Wellingborough,"Earnshaw, Anna",Y,Y,,,Y,,,Y,Y,,Y,0,0,E06000061,E02005636,E00137707,51,39.0,76.43870390031961,,,,
1-10359371722,2021-02-11,Y,Brookside,East Midlands,North Northamptonshire,55 High Street,Corby,NN17 1UU,52.490836,-0.681766,Corby,"Robinson, Rebecca",,,Y,,,Y,,,,,,0,0,E06000061,E02005614,E00137108,1,1.0,95.5757956419289,,,,
1-10484006462,2021-03-05,Y,Avery Park Care Home,East Midlands,North Northamptonshire,231 Rockingham Road,Kettering,NN16 9JB,52.412075,-0.730252,Kettering,"Matthews, Ian",,,Y,,Y,,,Y,Y,Y,Y,1,1,E06000061,E02005642,E00169205,119,33.0,28.0,0.96081,,,
1-105106051,2011-01-27,Y,Laxton Hall,East Midlands,North Northamptonshire,Laxton,Corby,NN17 3AU,52.562773,-0.575057,Corby,"Sabok, Teresa",,,Y,,Y,,,Y,,,,5,5,E06000061,E02005629,E00137558,30,27.0,91.0,0.97079,1.0,3.8006,0.01592
1-105835715,2010-11-04,Y,Brockfield House,East Midlands,North Northamptonshire,Villa Lane,Wellingborough,NN9 6QQ,52.331441,-0.567577,Corby,"Hainsworth-Adams, Julia",Y,Y,,,Y,,Y,,,,,4,4,E06000061,E02005632,E00137722,45,41.0,91.0,0.94454,4.0,8.9581,0.02055
1-109944536,2011-01-06,Y,The Yews,East Midlands,North Northamptonshire,73 Kettering Road,Kettering,NN15 5LP,52.366241,-0.679985,Kettering,*,Y,,Y,,Y,,Y,Y,,,,3,3,E06000061,E02007071,E00137814,13,12.0,90.0,0.9017,2.0,11.7502,0.08389
1-110159349,2011-05-14,Y,K Lodge,East Midlands,North Northamptonshire,50 North End,Rushden,NN10 8JB,52.311319,-0.593736,Wellingborough,"Fonseka, Claude",,,Y,,Y,Y,,Y,Y,Y,Y,7,7,E06000061,E02005635,E00137521,40,32.0,80.0,0.8737,3.0,7.0711,0.11981
1-110178120,2011-01-14,Y,Highfields,East Midlands,North Northamptonshire,53 Park View,Kettering,NN16 9RJ,52.409848,-0.723553,Kettering,*,,,Y,,,Y,,,,,,4,4,E06000061,E02005642,E00137750,6,5.0,83.0,0.93694,0.0,0.0,0.06693
1-112958790,2011-01-11,Y,Five Gables Nursing Home,East Midlands,North Northamptonshire,32 Denford Road,Kettering,NN14 4DF,52.367421,-0.547025,Corby,"McQuinn, Stephen",Y,Y,,,Y,,,Y,,,,6,6,E06000061,E02005632,E00137626,43,30.0,70.0,0.95069,5.0,12.7731,0.03721
1-114074768,2011-01-06,Y,Gabriel Court Limited,East Midlands,North Northamptonshire,17-23 Broadway,Kettering,NN15 6DD,52.393058,-0.724272,Kettering,"Wonfor, Carola",Y,,Y,,Y,,Y,Y,,,,0,0,E06000061,E02005645,E00137925,44,24.0,55.11288269238033,,,,
1-114198898,2010-12-30,Y,Country View Nursing Home,East Midlands,North Northamptonshire,Pipe Lane,Kettering,NN16 9XQ,52.412613,-0.697082,Kettering,"Webb, Brian",Y,Y,,,,,,Y,Y,,,3,3,E06000061,E02005643,E00137998,29,29.0,99.0,0.91655,1.0,1.9909,0.06097
1-114406266,2011-01-17,Y,Beeches Care Home,East Midlands,North Northamptonshire,12 Higham Road,Rushden,NN10 6DZ,52.296146,-0.599291,Wellingborough,*,,,Y,,Y,,,Y,,,,0,0,E06000061,E02005636,E00137658,24,21.0,86.89844651762272,,,,
1-115182909,2011-01-05,Y,Malbary House,East Midlands,North Northamptonshire,45 Carlton Street,Kettering,NN16 8ED,52.403267,-0.733621,Kettering,*,,,Y,,,Y,,Y,,,Y,3,3,E06000061,E02005645,E00137884,6,4.0,72.0,0.99588,1.0,19.245,0.00502
1-115249998,2011-01-13,Y,Rushwell House,East Midlands,North Northamptonshire,116 Wellingborough Road,Rushden,NN10 9TD,52.291255,-0.603888,Wellingborough,"Melo, Isabel",,,Y,,,Y,Y,Y,,,Y,4,4,E06000061,E02005637,E00137668,8,7.0,88.0,0.98473,0.0,0.0,0.01597
1-115288701,2010-12-13,Y,Sunrise Care Home,East Midlands,North Northamptonshire,10 Amen Place,Kettering,NN14 4AU,52.354475,-0.590678,Corby,"Pezzella, Gregory",,,Y,,Y,,,Y,,,,7,7,E06000061,E02005632,E00137743,20,16.0,82.0,0.7022,2.0,11.8523,0.21153
1-115330929,2011-01-18,Y,Raunds Lodge Nursing Home,East Midlands,North Northamptonshire,63 Marshalls Road,Wellingborough,NN9 6EY,52.345345,-0.54358,Corby,"Patel, Chandravadan",Y,Y,,,Y,,,Y,Y,,,4,4,E06000061,E02005633,E00137616,33,29.0,89.0,0.95692,4.0,10.8908,0.04894
1-1156098347,2014-01-09,Y,Redmond House,East Midlands,North Northamptonshire,3 George Hattersley Court,Corby,NN17 1EA,52.498897,-0.690438,Corby,"Cannon, Andrew",,,Y,,,Y,,,Y,,Y,4,4,E06000061,E02005612,E00137165,12,10.0,88.0,0.89532,2.0,14.4338,0.1362
1-116738805,2010-12-17,Y,Tasker House,East Midlands,North Northamptonshire,160 Westfield Road,Wellingborough,NN8 3HX,52.299418,-0.70812,Wellingborough,"Balendra, Thuraisingham",,,Y,,Y,,,Y,,,,3,3,E06000061,E02005698,E00138936,28,25.0,90.0,0.75994,1.0,2.062,0.17179
1-117965748,2010-12-22,Y,Rushden Park,East Midlands,North Northamptonshire,Melloway Road,Rushden,NN10 6XZ,52.291013,-0.619203,Wellingborough,"Ryan, Daniel",Y,Y,,,,,,Y,,,,7,7,E06000061,E02005636,E00137669,68,50.0,74.0,0.8788,10.0,14.5439,0.08725
1-118664158,2010-11-15,Y,Redclyffe Residential Care Home,East Midlands,North Northamptonshire,1 Pightles Terrace,Rushden,NN10 0LN,52.28756,-0.589475,Wellingborough,"Balendra, Thuraisingham",,,Y,,Y,,,Y,,,,4,4,E06000061,E02005637,E00137651,29,25.0,85.0,0.74391,2.0,7.6461,0.13361
1-119176982,2011-03-02,Y,Penrith Drive,East Midlands,North Northamptonshire,55 Penrith Drive,Wellingborough,NN8 3XL,52.307961,-0.716831,Wellingborough,"Cowman, John",,,Y,,,Y,,,,,,4,4,E06000061,E02005696,E00139100,6,6.0,100.0,0.88966,1.0,13.6083,0.20212
1-119186338,2011-03-02,Y,Cottingham Road,East Midlands,North Northamptonshire,399 Cottingham Road,Corby,NN18 0TW,52.493453,-0.730518,Corby,"Cowman, John",,,Y,,,Y,,,,,,3,3,E06000061,E02005615,E00137240,4,4.0,100.0,0.97507,0.0,0.0,0.02258
1-120237755,2011-01-10,Y,Hillcrest,East Midlands,North Northamptonshire,Tebmar Limited,Wellingborough,NN8 5BD,52.309711,-0.700633,Wellingborough,"Orsi, Dawn",,,Y,,,Y,,,,,,2,2,E06000061,E02005694,E00139112,5,5.0,100.0,0.8531,0.0,0.0,0.20508
1-120444753,2010-11-29,Y,SENSE - 129 Neale Avenue,East Midlands,North Northamptonshire,129 Neale Avenue,Kettering,NN16 9HG,52.414274,-0.724043,Kettering,"Horton, Maria Elizabeth",,,Y,,,Y,,,Y,Y,,1,1,E06000061,E02005642,E00137755,6,6.0,100.0,0.99925,,,
1-121628465,2011-01-19,Y,Orchard House Residential Care Home,East Midlands,North Northamptonshire,155 Barton Road,Kettering,NN15 6RT,52.383966,-0.686832,Kettering,"Patel, Anil",,,Y,,Y,,Y,Y,Y,,,5,5,E06000061,E02005648,E00137784,33,23.0,71.0,0.91625,3.0,7.9021,0.06762
1-121881478,2011-01-25,Y,Oakfield (Easton Maudit) Limited,East Midlands,North Northamptonshire,Easton Maudit,Wellingborough,NN29 7NR,52.217933,-0.700663,Wellingborough,"Morrison, Sara",,,Y,,Y,Y,Y,,Y,Y,,5,5,E06000061,E02005701,E00139127,18,17.0,97.0,0.94345,1.0,4.969,0.02138
1-122140958,2010-12-14,Y,Aston House,East Midlands,North Northamptonshire,16 Queensberry Road,Kettering,NN15 7HL,52.393204,-0.729191,Kettering,*,,,Y,Y,,Y,,,Y,Y,Y,4,4,E06000061,E02005645,E00137927,5,5.0,100.0,0.95771,0.0,0.0,0.05404
1-122309790,2011-01-12,Y,Avenue House Nursing and Care Home,East Midlands,North Northamptonshire,173-175 Avenue Road,Rushden,NN10 0SN,52.273029,-0.561062,Wellingborough,"Clark, Christopher",Y,Y,,,Y,,,Y,,,,5,5,E06000061,E02005638,E00137683,45,36.0,80.0,0.93199,4.0,9.0813,0.02953
1-123459772,2011-03-16,Y,The Old Vicarage,East Midlands,North Northamptonshire,Weekly Village,Kettering,NN16 9UP,52.41685,-0.694531,Kettering,"Dove, Julie",Y,Y,,,,,,Y,,,,3,3,E06000061,E02005639,E00137805,38,28.0,73.0,0.89522,2.0,5.4781,0.12782
1-123630928,2010-10-27,Y,Alderwood L.L.A. Limited - Irchester,East Midlands,North Northamptonshire,170 Station Road,Wellingborough,NN29 7EW,52.281824,-0.637783,Wellingborough,"Fish, Linda",,,Y,,,Y,,,,,,4,4,E06000061,E02005701,E00139072,6,6.0,96.0,0.78024,0.0,8.3333,0.18082
1-123630943,2010-10-27,Y,Alderwood L.L.A. Limited - Rushden,East Midlands,North Northamptonshire,302 Wellingborough Road,Wellingborough,NN10 6BB,52.29445,-0.617923,Wellingborough,"Fish, Linda",,,Y,,,Y,,,,,,3,3,E06000061,E02005636,E00137653,5,5.0,100.0,0.7462,0.0,0.0,0.20516
1-124838118,2011-01-10,Y,Castle House,East Midlands,North Northamptonshire,76-78 St. Botolphs Road,Kettering,NN15 6SS,52.383188,-0.698521,Kettering,"Watts, Mark",,,Y,,,Y,,,,,,2,2,E06000061,E02005648,E00137787,10,8.0,85.0,0.96065,1.0,7.0711,0.00573
1-125339973,2010-12-09,Y,Park House Care Home,East Midlands,North Northamptonshire,50 Park Road,Wellingborough,NN8 4QE,52.305877,-0.694497,Wellingborough,"Southall, Natasha",Y,Y,Y,,Y,,,Y,Y,,Y,3,3,E06000061,E02005697,E00139135,42,34.0,80.0,0.83143,9.0,20.8021,0.12976
1-125573725,2010-12-16,Y,St Anns Care Home,East Midlands,North Northamptonshire,12 The Crescent,Kettering,NN15 7HW,52.3925,-0.729711,Kettering,"Rodgers, Rachel",,,Y,,Y,,,Y,Y,,,2,2,E06000061,E02005645,E00137923,39,30.0,76.0,0.74048,11.0,27.1964,0.31204
1-126240230,2010-11-25,Y,Bilton Court,East Midlands,North Northamptonshire,Windermere Drive,Wellingborough,NN8 3FR,52.305917,-0.717025,Wellingborough,"Martin, Robert",,,Y,,Y,,,Y,,,,4,4,E06000061,E02005696,E00139082,47,40.0,86.0,0.88793,3.0,6.383,0.0323
1-126607468,2011-04-11,Y,Rose Cottage Woodford,East Midlands,North Northamptonshire,99a High Street,Kettering,NN14 4HE,52.383315,-0.582164,Corby,"McLoughlin, Richard",,,Y,,Y,,,Y,,,,3,3,E06000061,E02005632,E00137744,10,6.0,63.0,0.95619,2.0,20.8167,0.04437
1-126639438,2011-01-24,Y,Manor House Residential Home,East Midlands,North Northamptonshire,58-60 Main Street,Market Harborough,LE16 8YU,52.501142,-0.762882,Corby,"Pancholi, Kiran",Y,,Y,,Y,,,Y,Y,,,1,1,E06000061,E02005612,E00137223,22,19.0,86.0,0.98607,,,
1-127549170,2010-11-26,Y,Southleigh,East Midlands,North Northamptonshire,31 London Road,Kettering,NN16 0EF,52.397834,-0.725017,Kettering,"Heginbotham, Martyn",,,Y,,,Y,,,Y,,,5,5,E06000061,E02005644,E00137916,15,12.0,77.0,0.8932,2.0,14.6059,0.13812
1-127549185,2010-11-26,Y,Northleigh,East Midlands,North Northamptonshire,187 Rockingham Road,Kettering,NN16 9JA,52.409063,-0.729133,Kettering,"Heginbotham, Martyn",,,Y,,,Y,,,,,,2,2,E06000061,E02005645,E00137887,12,6.0,54.0,0.99525,5.0,41.2479,0.00587
1-127681951,2011-01-30,Y,Highbury Residential Care Home,East Midlands,North Northamptonshire,Highbury,Rushden,NN10 9XQ,52.291391,-0.614631,Wellingborough,*,,,Y,,Y,Y,Y,,Y,Y,Y,5,5,E06000061,E02005636,E00137667,8,7.0,90.0,0.90905,1.0,13.6931,0.08487
1-127681971,2011-01-30,Y,The Conifers Residential Care Home,East Midlands,North Northamptonshire,The Conifers,Rushden,NN10 9HA,52.280582,-0.603006,Wellingborough,*,,,Y,,,Y,Y,,Y,Y,Y,6,6,E06000061,E02005638,E00137678,10,8.0,83.0,0.8649,1.0,10.328,0.18917
1-129459912,2010-12-20,Y,Welland House - Occupation Road,East Midlands,North Northamptonshire,1 George Hattersley Court,Corby,NN17 1EA,52.498897,-0.690438,Corby,"Cannon, Andrew",,,Y,,,Y,,Y,Y,Y,Y,2,2,E06000061,E02005612,E00137165,12,10.0,79.0,0.87053,1.0,5.8926,0.13692
1-132647899,2011-01-21,Y,Bannigans,East Midlands,North Northamptonshire,19 High Street,Corby,NN17 1UX,52.490382,-0.684667,Corby,"Morgan, Edward",,,Y,,,Y,Y,,,,Y,2,2,E06000061,E02005614,E00137109,4,4.0,100.0,0.90117,0.0,0.0,0.07682
1-132647945,2011-01-21,Y,Blossoms,East Midlands,North Northamptonshire,20 Swans Pool Parade,Wellingborough,NN8 2BZ,52.297805,-0.690658,Wellingborough,"Morgan, Edward",,,Y,,,Y,,,,,Y,3,3,E06000061,E02005697,E00139140,6,6.0,100.0,0.96302,0.0,0.0,0.06074
1-132648065,2011-01-21,Y,Gretton House,East Midlands,North Northamptonshire,3 High Street,Corby,NN17 3DE,52.538239,-0.67585,Corby,"Morgan, Edward",,,Y,,,Y,Y,,,,Y,5,5,E06000061,E02005612,E00137214,20,17.0,85.0,0.86543,2.0,7.9057,0.13308
1-132660106,2011-01-21,Y,Haydock House,East Midlands,North Northamptonshire,89 Rockingham Road,Kettering,NN16 9HX,52.405859,-0.727461,Kettering,"Morgan, Edward",,,Y,,,Y,Y,,,,Y,1,1,E06000061,E02005644,E00137871,8,6.0,75.0,0.99547,,,
1-132660122,2011-01-21,Y,Heatherington House,East Midlands,North Northamptonshire,5 London Road,Kettering,NN16 0EF,52.397834,-0.725017,Kettering,"Morgan, Edward",,,Y,,,Y,Y,,,,Y,1,1,E06000061,E02005644,E00137916,8,7.0,88.0,0.87062,,,
1-132660138,2011-01-21,Y,The Heathers,East Midlands,North Northamptonshire,76 Rockingham Road,Kettering,NN16 9AA,52.405763,-0.726611,Kettering,"Morgan, Edward",,,Y,,Y,Y,,,,,Y,4,4,E06000061,E02005644,E00137871,12,9.0,77.0,0.93015,1.0,7.9786,0.05297
1-132660154,2011-01-21,Y,Heather Holmes Care Home,East Midlands,North Northamptonshire,64 Rushton Road,Kettering,NN14 2QD,52.442606,-0.807852,Kettering,"Morgan, Edward",,,Y,,,Y,,,,,Y,0,0,E06000061,E02005640,E00137891,12,9.0,76.42367339911642,,,,
1-132660214,2011-01-21,Y,Holland House,East Midlands,North Northamptonshire,21 High Street,Corby,NN17 1UX,52.490382,-0.684667,Corby,"Morgan, Edward",,,Y,,,Y,Y,,,,Y,3,3,E06000061,E02005614,E00137109,4,3.0,83.0,0.9191,1.0,14.4338,0.13569
1-132660230,2011-01-21,Y,Parvale House,East Midlands,North Northamptonshire,223 Rockingham Road,Kettering,NN16 9JB,52.412075,-0.730252,Kettering,"Morgan, Edward",,,Y,,,Y,Y,,,,Y,1,1,E06000061,E02005642,E00169205,6,6.0,100.0,0.99547,,,
1-132660246,2011-01-21,Y,Perrywood House,East Midlands,North Northamptonshire,78 Rockingham Road,Kettering,NN16 9AA,52.405763,-0.726611,Kettering,"Morgan, Edward",,,Y,,,Y,Y,,,,Y,3,3,E06000061,E02005644,E00137871,7,6.0,90.0,0.88515,1.0,8.2479,0.11701
1-132660292,2011-01-21,Y,Smythe House,East Midlands,North Northamptonshire,72 St Peters Avenue,Kettering,NN16 0HB,52.397249,-0.72155,Kettering,"Morgan, Edward",,,Y,,,Y,Y,,,,Y,1,1,E06000061,E02005644,E00137919,7,7.0,100.0,0.89413,,,
1-132660323,2011-01-21,Y,Consensus Support Services Limited - 121 Station Road,East Midlands,North Northamptonshire,121 Station Road,Kettering,NN15 5PA,52.36539,-0.686737,Kettering,"Morgan, Edward",Y,Y,,,,Y,,,Y,,Y,2,2,E06000061,E02007071,E00137811,11,10.0,86.0,0.8959,1.0,6.4282,0.03468
1-133845190,2010-12-17,Y,Victoria House,East Midlands,North Northamptonshire,77 Victoria Road,Rushden,NN10 0AS,52.293567,-0.596381,Wellingborough,"Scanlon, Liam",,,Y,,Y,,Y,Y,,,,2,2,E06000061,E02005637,E00137637,47,36.0,78.0,0.97036,5.0,10.5314,0.01352
1-133856208,2010-12-17,Y,Abbott House - Oundle,East Midlands,North Northamptonshire,Glapthorn Road,Oundle,PE8 4JA,52.485583,-0.472297,Corby,"Scanlon, Liam",,,Y,,Y,,,Y,,,,3,3,E06000061,E02005630,E00137579,40,34.0,86.0,0.94938,3.0,7.6376,0.03333
1-133856223,2010-12-17,Y,Ashfield House - Raunds,East Midlands,North Northamptonshire,Ashfield Avenue,Wellingborough,NN9 6DX,52.342506,-0.540884,Corby,"Scanlon, Liam",,,Y,,Y,,Y,Y,,,,4,4,E06000061,E02005633,E00137621,40,34.0,86.0,0.96298,4.0,9.6555,0.01984
1-133856256,2010-12-17,Y,Lancum House,East Midlands,North Northamptonshire,Bush Close,Wellingborough,NN8 3GL,52.304404,-0.705276,Wellingborough,"Scanlon, Liam",,,Y,,Y,,,Y,,,,4,4,E06000061,E02005698,E00138940,43,43.0,100.0,0.85827,20.0,46.3174,0.11016
1-133856271,2010-12-17,Y,Sandalwood Court,East Midlands,North Northamptonshire,Butland Road,Corby,NN18 8QA,52.474307,-0.701768,Corby,"Scanlon, Liam",,,Y,,Y,,,Y,,,,4,4,E06000061,E02006863,E00169176,60,44.0,74.0,0.93335,3.0,5.3359,0.03949
1-133856286,2010-12-17,Y,Thorndale,East Midlands,North Northamptonshire,Malham Drive,Kettering,NN16 9FS,52.413213,-0.734101,Kettering,"Scanlon, Liam",,,Y,,Y,,,Y,,,,0,0,E06000061,E02005642,E00169225,60,35.0,57.89127341926073,,,,
1-134620849,2010-12-23,Y,Heath Rise,East Midlands,North Northamptonshire,4 Heath Rise,Northampton,NN8 5QN,52.31199,-0.715749,Wellingborough,"Barnett, Hannah",,,Y,,,Y,,,,,,4,4,E06000061,E02005694,E00139116,4,4.0,94.0,0.84531,0.0,12.5,0.13133
1-135893724,2010-11-30,Y,Claremont Parkway,East Midlands,North Northamptonshire,Holdenby,Kettering,NN15 6XE,52.376587,-0.717607,Kettering,"O'Reilly, Michael",Y,Y,,,Y,,,Y,,,Y,7,7,E06000061,E02005647,E00138022,66,49.0,74.0,0.84874,8.0,12.7883,0.17266
1-136255444,2010-11-24,Y,Aspen House,East Midlands,North Northamptonshire,277 Wellingborough Road,Rushden,NN10 9XN,52.293746,-0.612343,Wellingborough,"Tydeman, Justin",,,Y,,,Y,Y,,Y,,,7,7,E06000061,E02005636,E00137661,10,9.0,87.0,0.94695,1.0,9.5119,0.05378
1-138186227,2011-01-07,Y,Great Glens Facility,East Midlands,North Northamptonshire,149-151 Midland Road,Wellingborough,NN8 1NB,52.30106,-0.684959,Wellingborough,"Foulds, Darryl",Y,,Y,,,,Y,,,,Y,5,5,E06000061,E02005695,E00138966,22,19.0,87.0,0.74209,1.0,3.803,0.12318
1-139108020,2010-12-10,Y,Highmead House,East Midlands,North Northamptonshire,153 Finedon Road,Wellingborough,NN9 5TY,52.329227,-0.618674,Corby,*,,,Y,,Y,,,Y,,,,5,5,E06000061,E02005634,E00137528,32,29.0,90.0,0.89256,3.0,8.6715,0.0874
1-140316248,2011-01-11,Y,Avens Limited,East Midlands,North Northamptonshire,39 Denford Road,Kettering,NN14 4DF,52.367421,-0.547025,Corby,"Andrews, Christopher",,,Y,,,Y,,,Y,,Y,2,2,E06000061,E02005632,E00137626,14,14.0,96.0,0.96463,1.0,5.0508,0.02004
1-140562106,2010-12-16,Y,Beaumont Nursing Home,East Midlands,North Northamptonshire,8 Gipsy Lane,Kettering,NN16 8TY,52.396693,-0.740188,Kettering,"James, Joanne",Y,Y,,,,,,Y,,,,3,3,E06000061,E02005645,E00137937,28,23.0,83.0,0.95549,7.0,25.8364,0.01413
1-1488606082,2014-07-03,Y,Southwood House,East Midlands,North Northamptonshire,44-48 Doddington Road,Wellingborough,NN8 2JH,52.295512,-0.693042,Wellingborough,"Keetley, Sara",,,Y,,,,,,Y,,,4,4,E06000061,E02005699,E00138995,14,12.0,82.0,0.84755,1.0,7.1429,0.1629
1-159572343,2011-03-03,Y,Agape Annexe,East Midlands,North Northamptonshire,191 Havelock Street,Kettering,NN16 9QB,52.407375,-0.719361,Kettering,*,,,Y,,,Y,,,,,Y,5,5,E06000061,E02005644,E00137888,4,3.0,85.0,0.90297,1.0,22.3607,0.0876
1-1846516700,2014-12-22,Y,Duke's Court Care Home,East Midlands,North Northamptonshire,159 Northampton Road,Wellingborough,NN8 3PN,52.295286,-0.713402,Wellingborough,"Matthews, Ian",,,Y,,Y,,Y,Y,Y,Y,Y,5,5,E06000061,E02005697,E00139145,60,54.0,89.0,0.94515,4.0,6.0782,0.02836
1-1960465231,2015-03-16,Y,Together Nest Lane,East Midlands,North Northamptonshire,1 Nest Lane,Northampton,NN8 4AU,52.311785,-0.686534,Wellingborough,"Thompson-Turvey, Sarah",,,Y,,,,Y,,,,Y,1,1,E06000061,E02005693,E00139054,8,3.0,38.0,0.82746,,,
1-1972590905,2015-04-17,Y,Alderwood L.L.A. Limited - Irchester 2,East Midlands,North Northamptonshire,168 Station Road,Wellingborough,NN29 7EW,52.281824,-0.637783,Wellingborough,"Fish, Linda",,,Y,Y,,Y,,,,,Y,2,2,E06000061,E02005701,E00139072,4,3.0,75.0,0.79591,0.0,0.0,0.26335
1-211179270,2011-03-13,Y,Alderwood L.L.A. Limited - Hayway,East Midlands,North Northamptonshire,49 Hayway,Rushden,NN10 6AG,52.29808,-0.601238,Wellingborough,"Fish, Linda",,,Y,,,Y,,,,,Y,3,3,E06000061,E02005636,E00137652,2,2.0,100.0,0.7462,0.0,0.0,0.20516
1-2146696420,2015-07-30,Y,Rockingham House,East Midlands,North Northamptonshire,19 London Road,Kettering,NN16 0EF,52.397834,-0.725017,Kettering,"Watts, Mark",,,Y,,,Y,,,,,Y,3,3,E06000061,E02005644,E00137916,4,3.0,83.0,0.96645,1.0,14.4338,0.05708
1-2320790510,2015-11-30,Y,Alderwood L.L.A. Limited - The Chestnuts,East Midlands,North Northamptonshire,296 Bedford Road,Rushden,NN10 0SE,52.263517,-0.573665,Wellingborough,"Fish, Linda",,,Y,,,Y,,,,,Y,3,3,E06000061,E02005638,E00137685,6,6.0,100.0,0.99311,0.0,0.0,0.00952
1-2418754383,2016-01-29,Y,Creative Support - Avonlea,East Midlands,North Northamptonshire,34 Finedon Road,Wellingborough,NN8 4EB,52.307012,-0.688186,Wellingborough,"Leigh, Colette",,,Y,,,Y,,,,,,2,2,E06000061,E02005695,E00138971,6,6.0,100.0,0.99876,0.0,0.0,0.00091
1-2418754445,2016-01-29,Y,Creative Support - Willowtree House,East Midlands,North Northamptonshire,7 Poplar Street,Wellingborough,NN8 4PL,52.305615,-0.691938,Wellingborough,"Leigh, Colette",,,Y,,,Y,,,,,,2,2,E06000061,E02005697,E00139151,6,5.0,83.0,0.88566,0.0,0.0,0.16086
1-2418754579,2016-01-29,Y,Creative Support - The Chestnuts,East Midlands,North Northamptonshire,1 Poplar Street,Wellingborough,NN8 4PL,52.305615,-0.691938,Wellingborough,"Leigh, Colette",,,Y,,,Y,,,,,,2,2,E06000061,E02005697,E00139151,5,4.0,70.0,0.99876,1.0,14.1421,0.00091
1-2468668309,2016-02-11,Y,The Shrubbery,East Midlands,North Northamptonshire,66 College Street,Rushden,NN10 8DZ,52.308078,-0.592622,Wellingborough,"Hanspaul, Sutinder",,,Y,,Y,,Y,Y,Y,,,2,2,E06000061,E02005635,E00137525,45,38.0,83.0,0.96286,2.0,4.714,0.00868
1-2526359560,2016-03-14,Y,Glenmoor House Care Home,East Midlands,North Northamptonshire,25 Rockingham Road,Corby,NN17 1AD,52.4953,-0.686302,Corby,"Matthews, Ian",Y,Y,,,Y,,Y,Y,Y,Y,Y,0,0,E06000061,E02005614,E00137118,59,29.0,49.477788253282334,,,,
1-252788641,2011-06-12,Y,Freestones Residential Care Home,East Midlands,North Northamptonshire,85 Finedon Road,Wellingborough,NN9 5TY,52.329227,-0.618674,Corby,*,,,Y,,Y,,,Y,Y,,,3,3,E06000061,E02005634,E00137528,20,18.0,92.0,0.95002,1.0,5.7735,0.02002
1-257596691,2011-07-04,Y,Kenroyal Nursing Home,East Midlands,North Northamptonshire,6 Oxford Street,Wellingborough,NN8 4JD,52.300167,-0.698507,Wellingborough,*,Y,Y,,,Y,,,Y,Y,,,6,6,E06000061,E02005697,E00189179,64,61.0,95.0,0.90823,4.0,5.9839,0.0564
1-2698168310,2016-07-01,Y,Cheaney Court Care Home,East Midlands,North Northamptonshire,2 Harrington Road,Kettering,NN14 2NH,52.442944,-0.826129,Kettering,"Farebrother, Colin",Y,Y,,,Y,,,Y,,,,4,4,E06000061,E02005640,E00137828,65,60.0,92.0,0.7602,3.0,4.865,0.14498
1-2702556541,2016-06-10,Y,The Ferns,East Midlands,North Northamptonshire,43 Marshalls Road,Wellingborough,NN9 6ET,52.344743,-0.539225,Corby,"Andrews, Christopher",,,Y,,Y,Y,Y,Y,Y,,Y,3,3,E06000061,E02005633,E00137618,10,9.0,90.0,0.95509,1.0,10.0,0.06347
1-2708720649,2016-07-08,Y,Kettonby House,East Midlands,North Northamptonshire,9 Kettonby Gardens,Kettering,NN15 6BT,52.388563,-0.728972,Kettering,"Aplin, Mark",,,Y,,,Y,,,,Y,Y,0,0,E06000061,E02005647,E00137930,5,5.0,97.40561237258056,,,,
1-2789728729,2016-07-21,Y,Alderwood L.L.A. Limited - Cransley,East Midlands,North Northamptonshire,63 Loddington Road,Kettering,NN14 1PY,52.384839,-0.783474,Kettering,"Fish, Linda",,,Y,Y,,Y,,,,,Y,3,3,E06000061,E02007070,E00169214,6,6.0,100.0,0.85822,0.0,0.0,0.22859
1-2835785659,2016-11-09,Y,Manor Field,East Midlands,North Northamptonshire,Bridge Street,Corby,NN17 3HR,52.497651,-0.636618,Corby,"Cresswell, Rebekah",,,Y,Y,,Y,Y,Y,,,Y,0,0,E06000061,E02005614,E00189053,5,5.0,99.89173509161792,,,,
1-2855239848,2016-09-01,Y,Darsdale Home,East Midlands,North Northamptonshire,Chelveston Road,Wellingborough,NN9 6DA,52.335537,-0.545854,Corby,"Eliot, Marie",,,Y,,Y,Y,Y,Y,Y,Y,,10,10,E06000061,E02005633,E00137603,30,26.0,87.0,0.85921,2.0,8.1347,0.15733
1-285971241,2011-07-27,Y,Elm Bank Care Home,East Midlands,North Northamptonshire,81-83 Northampton Road,Kettering,NN15 7JZ,52.395444,-0.737695,Kettering,"O'Reilly, Michael",,,Y,,Y,,,Y,Y,,Y,5,5,E06000061,E02005645,E00137937,115,92.0,80.0,0.98373,13.0,10.906,0.01511
1-2913026529,2016-11-28,Y,Kingly Terrace,East Midlands,North Northamptonshire,2 Essex Road,Rushden,NN10 0LG,52.286969,-0.591971,Wellingborough,"Chrystal, Sharon",,,Y,,,,Y,Y,Y,,Y,1,1,E06000061,E02005637,E00137651,8,8.0,100.0,0.98213,,,
1-291967496,2011-06-01,Y,Kingswood House,East Midlands,North Northamptonshire,Hollington Road,Wellingborough,NN9 6NH,52.342919,-0.535703,Corby,"Patel, Nishit",,,Y,,Y,,,Y,Y,,,4,4,E06000061,E02005633,E00137609,26,18.0,70.0,0.96401,1.0,4.8396,0.01855
1-298221410,2011-10-05,Y,2 Windsor Avenue,East Midlands,North Northamptonshire,Desborough,Kettering,NN14 2SS,52.435348,-0.829832,Kettering,"Morgan, Edward",,,Y,,,,,,Y,,Y,2,2,E06000061,E02005640,E00137820,5,5.0,100.0,0.97507,0.0,0.0,0.0344
1-2995515930,2017-01-31,Y,Acacia Lodge Care Home,East Midlands,North Northamptonshire,15 Wellingborough Road,Wellingborough,NN9 5RE,52.321479,-0.621175,Corby,"Hall, Antony",Y,Y,,,Y,,,Y,Y,,Y,4,4,E06000061,E02005634,E00172245,40,30.0,76.0,0.87577,6.0,16.1374,0.07622
1-306308347,2011-10-27,Y,78 Polwell Lane,East Midlands,North Northamptonshire,Barton Seagrave,Kettering,NN15 6UB,52.378051,-0.696645,Kettering,"Morgan, Edward",,,Y,,,Y,,,,,Y,2,2,E06000061,E02005648,E00189009,5,5.0,100.0,0.96602,0.0,0.0,0.04721
1-3245780642,2017-02-03,Y,Heathcotes (Ashbrook House),East Midlands,North Northamptonshire,3 Poplar Street,Wellingborough,NN8 4PL,52.305615,-0.691938,Wellingborough,"Kelly, Brendan",,,Y,,,Y,,Y,,,Y,2,2,E06000061,E02005697,E00139151,6,4.0,67.0,0.98269,1.0,23.5702,0.02318
1-3245885444,2017-02-03,Y,Heathcotes (Park View),East Midlands,North Northamptonshire,10 Westfield Road,Wellingborough,NN8 3JT,52.303891,-0.701505,Wellingborough,"Kelly, Brendan",,,Y,,,Y,,Y,,,,4,4,E06000061,E02005697,E00139153,5,4.0,80.0,0.9904,1.0,23.094,0.01714
1-385660607,2012-04-12,Y,Nene House,East Midlands,North Northamptonshire,1 Sackville Street,Kettering,NN14 4NZ,52.397661,-0.533245,Corby,"Watts, Mark",,,Y,,,Y,,,,,Y,3,3,E06000061,E02005631,E00172248,4,4.0,92.0,0.92365,1.0,14.4338,0.13009
1-390415142,2012-03-06,Y,Wildacre,East Midlands,North Northamptonshire,Raunds Road,Chelveston,NN9 6AB,52.318287,-0.546904,Wellingborough,"Sanderson, Julian",,,Y,,Y,Y,,Y,,,Y,2,2,E06000061,E02005635,E00137507,10,9.0,90.0,0.9774,1.0,14.1421,0.01538
1-3956920187,2017-07-06,Y,Alderwood LLA Ltd Addington Road,East Midlands,North Northamptonshire,264 Addington Road,Wellingborough,NN9 5UT,52.339437,-0.598832,Corby,"Fish, Linda",,,Y,,,Y,,,,,Y,1,1,E06000061,E02005634,E00137549,4,4.0,100.0,0.60969,,,
1-4013201340,2017-10-26,Y,Wicksteed Court Care Home,East Midlands,North Northamptonshire,79-83 London Road,Kettering,NN15 7PH,52.393055,-0.722009,Kettering,"Mistry, Dipesh",,,Y,,Y,,,Y,,,,7,7,E06000061,E02005647,E00189002,25,14.0,55.0,0.96546,4.0,14.3162,0.04081
1-419573805,2012-05-25,Y,Rookery Cottage,East Midlands,North Northamptonshire,5 Church Way,Kettering,NN14 1JS,52.402796,-0.774204,Kettering,*,,,Y,,Y,,,Y,,,,4,4,E06000061,E02007070,E00137959,13,12.0,92.0,0.9476,1.0,10.8786,0.06026
1-4201736311,2017-10-05,Y,Polebrook Nursing Home,East Midlands,North Northamptonshire,Morgans Close,Peterborough,PE8 5LU,52.472488,-0.423311,Corby,"Hinde, Susan",Y,Y,,,Y,,Y,Y,Y,,,6,6,E06000061,E02005630,E00137489,52,47.0,91.0,0.82389,4.0,6.8172,0.16831
1-4201736366,2017-10-05,Y,Shirelodge Nursing Home,East Midlands,North Northamptonshire,281 Rockingham Road,Corby,NN17 2AE,52.506286,-0.705086,Corby,"Hinde, Susan",Y,Y,,,Y,,Y,Y,Y,,,6,6,E06000061,E02005613,E00137224,54,42.0,78.0,0.8802,8.0,14.2685,0.15148
1-4336041666,2017-10-09,Y,Midland Care Home,East Midlands,North Northamptonshire,125-129 Midland Road,Wellingborough,NN8 1NB,52.30106,-0.684959,Wellingborough,"Sehmi, Tej",Y,Y,,,Y,,Y,,Y,Y,,6,6,E06000061,E02005695,E00138966,66,40.0,60.0,0.92236,20.0,30.6757,0.04867
1-4463992067,2017-11-02,Y,Glenkindie Lodge Residential Care Home,East Midlands,North Northamptonshire,27 Harborough Road,Kettering,NN14 2QX,52.443857,-0.822074,Kettering,"Gunawardena, Eranga",,,Y,,Y,,Y,,Y,Y,,8,8,E06000061,E02005640,E00137824,33,22.0,68.0,0.88246,5.0,16.2734,0.06823
1-462823652,2012-08-21,Y,Ashley Court Care Home,East Midlands,North Northamptonshire,Reservoir Road,Kettering,NN16 9QT,52.410347,-0.725641,Kettering,"Thurlby, Alexandra",,,Y,,Y,,,Y,Y,Y,,5,5,E06000061,E02005642,E00137757,38,34.0,89.0,0.92008,2.0,5.7051,0.05879
1-462855676,2012-08-21,Y,Linden Manor,East Midlands,North Northamptonshire,159 Midland Road,Wellingborough,NN8 1NF,52.301738,-0.682079,Wellingborough,"Thurlby, Alexandra",,,Y,,Y,,,Y,Y,Y,,2,2,E06000061,E02005695,E00189184,28,20.0,73.0,0.96161,2.0,7.5761,0.01239
1-462866058,2012-08-21,Y,Westlands Care Home,East Midlands,North Northamptonshire,48 Oxford Street,Wellingborough,NN8 4JH,52.300905,-0.698146,Wellingborough,"Thurlby, Alexandra",,,Y,,Y,,Y,Y,Y,Y,Y,7,7,E06000061,E02005697,E00189179,28,21.0,76.0,0.94107,3.0,12.4939,0.02353
1-473572013,2012-09-24,Y,Wendleberrie House,East Midlands,North Northamptonshire,3 The Avenue,Wellingborough,NN8 4ET,52.306627,-0.693199,Wellingborough,"Featherstone, Kieron",,,Y,,Y,,Y,Y,Y,,,4,4,E06000061,E02005697,E00139151,15,11.0,75.0,0.9341,3.0,18.3586,0.07601
1-4776153387,2018-01-30,Y,Clanfield Residential Care Home,East Midlands,North Northamptonshire,3 Toll Bar Road,Kettering,NN14 3LH,52.397527,-0.551578,Corby,*,,,Y,,Y,,,Y,Y,,,1,1,E06000061,E02005631,E00137495,30,25.0,83.0,0.96581,,,
1-5114749136,2018-04-19,Y,Pine Lodge,East Midlands,North Northamptonshire,Motala Close,Corby,NN18 9EJ,52.470959,-0.733977,Corby,"Earnshaw, Anna",,,Y,Y,,Y,Y,,Y,Y,,1,1,E06000061,E02006862,E00137102,14,4.0,29.0,0.99811,,,
1-5383092560,2018-07-20,Y,Lataya House,East Midlands,North Northamptonshire,86 Wymington Road,Rushden,NN10 9LA,52.280005,-0.599844,Wellingborough,*,,,Y,Y,,Y,,,,,Y,3,3,E06000061,E02005638,E00137679,6,3.0,56.0,0.76854,1.0,19.245,0.16217
1-544721242,2012-12-19,Y,Seagrave House Care Home,East Midlands,North Northamptonshire,Occupation Road,Corby,NN17 1EH,52.499223,-0.6914,Corby,"Matthews, Ian",,Y,,,Y,,,Y,Y,,,4,4,E06000061,E02005612,E00137165,84,73.0,87.0,0.92114,13.0,15.1328,0.11189
1-6087163981,2019-02-28,Y,Burghley,East Midlands,North Northamptonshire,17 Burghley Street,Kettering,NN16 9LQ,52.410709,-0.720058,Kettering,"Melo, Isabel",,,Y,,,Y,Y,Y,,,Y,1,1,E06000061,E02005642,E00137748,6,3.0,50.0,0.88238,,,
1-6177704877,2019-02-01,Y,Elegance of Kettering,East Midlands,North Northamptonshire,68 Rockingham Road,Kettering,NN16 8JU,52.404935,-0.726488,Kettering,*,Y,Y,,,Y,,,Y,Y,,,2,2,E06000061,E02005644,E00137871,19,8.0,42.0,0.66897,10.0,52.1026,0.26427
1-6399586409,2019-02-08,Y,Westhill Park Care Home,East Midlands,North Northamptonshire,1 Chataway Drive,Kettering,NN15 7FF,52.396543,-0.746644,Kettering,"Kinsey, Peter",,,Y,,Y,,,Y,,,,3,3,E06000061,E02005645,E00189189,66,54.0,82.0,0.87689,10.0,14.4536,0.10183
1-6526431699,2019-04-09,Y,Lilly House,East Midlands,North Northamptonshire,234 Barton Road,Kettering,NN15 6RZ,52.378577,-0.685655,Kettering,*,,,Y,Y,,Y,,,,,Y,1,1,E06000061,E02005648,E00189151,4,4.0,100.0,0.6611,,,
1-6875207501,2019-05-15,Y,Burton Oaks,East Midlands,North Northamptonshire,119 Station Road,Kettering,NN15 5PA,52.36539,-0.686737,Kettering,"Sudera, Suresh",,,Y,,Y,,Y,Y,Y,Y,Y,2,2,E06000061,E02007071,E00137811,28,20.0,73.0,0.96228,1.0,2.5254,0.02881
1-687876881,2013-06-03,Y,Grangefield Residential Care Home,East Midlands,North Northamptonshire,60 Northampton Road,Northampton,NN6 0HE,52.268905,-0.756856,Daventry,"Odedra, Nikul",,,Y,,Y,,,Y,,,,5,5,E06000061,E02005700,E00189174,23,18.0,79.0,0.95931,1.0,5.6689,0.02765
1-7258071724,2019-10-11,Y,Alderwood L.L.A. Limited - Dybdale Crescent,East Midlands,North Northamptonshire,1 Dybdale Crescent,Wellingborough,NN8 5EX,52.30579,-0.707011,Wellingborough,"Fish, Linda",,,Y,Y,,Y,,Y,,,Y,2,2,E06000061,E02005694,E00139114,5,4.0,70.0,0.77606,1.0,14.1421,0.21226
1-7311346879,2019-11-21,Y,Higham House Nursing Home,East Midlands,North Northamptonshire,87 Higham Road,Rushden,NN10 6DG,52.29792,-0.599102,Wellingborough,"Konduru, Suresh",Y,Y,,,Y,,,Y,,,,8,8,E06000061,E02005636,E00137652,30,17.0,57.0,0.84402,9.0,29.7843,0.19302
1-7545928020,2019-11-04,Y,Beech Close,East Midlands,North Northamptonshire,"Beech Close, Lower Street",Kettering,NN14 2XQ,52.438886,-0.821265,Kettering,"Earnshaw, Anna",,,Y,,Y,,Y,Y,Y,Y,,1,1,E06000061,E02005640,E00137900,42,20.0,48.0,0.96397,,,
1-7640910799,2019-10-23,Y,Hillside Homes,East Midlands,North Northamptonshire,2 Denford Way,Wellingborough,NN8 5UB,52.315968,-0.714519,Wellingborough,"Abraham, Tomy",,,Y,,,Y,Y,,Y,Y,Y,1,1,E06000061,E02005694,E00139107,5,3.0,60.0,0.99547,,,
1-8521315007,2020-03-30,Y,Brookside Care Home,East Midlands,North Northamptonshire,Brookside Care Homes,Market Harborough,LE16 8LQ,52.450775,-0.875366,Kettering,"Whittington, Helen",,,Y,,Y,,,Y,,,,1,1,E06000061,E02005639,E00138007,18,12.0,67.0,0.95173,,,
1-9146290416,2020-07-08,Y,Weston Villa,East Midlands,North Northamptonshire,179-183 Rockingham Road,Kettering,NN16 9JA,52.409063,-0.729133,Kettering,"Morgan, Edward",,,Y,,,Y,,Y,,,Y,5,5,E06000061,E02005645,E00137887,8,6.0,78.0,0.93847,2.0,31.1247,0.12282
1-9580783869,2020-10-13,Y,Meadow View Care Home,East Midlands,North Northamptonshire,80 High Street,Wellingborough,NN29 7AB,52.284413,-0.643582,Wellingborough,"Patel, Farooq",Y,Y,,,Y,,,Y,Y,Y,Y,0,0,E06000061,E02005701,E00139059,53,50.0,95.18607613499027,,,,
1-9921188208,2021-01-06,Y,Pathfields Lodge,East Midlands,North Northamptonshire,290 Station Road,Wellingborough,NN29 7EY,52.286237,-0.624439,Wellingborough,"Boote, Alison",Y,Y,,,,,,Y,Y,,Y,3,3,E06000061,E02005701,E00139059,48,31.0,65.0,0.86101,1.0,2.0833,0.05413
1-10075043788,2020-12-21,Y,Turn Furlong,East Midlands,West Northamptonshire,Off Rookery Lane,Northampton,NN2 8BZ,52.271887,-0.912314,Northampton North,"Earnshaw, Anna",Y,Y,,,Y,,,Y,Y,,Y,0,0,E06000062,E02005652,E00138116,51,32.0,62.3866310713486,,,,
1-10075043878,2020-12-21,Y,Longlands,East Midlands,West Northamptonshire,London Road,Daventry,NN11 4DY,52.25204,-1.160866,Daventry,"Earnshaw, Anna",Y,Y,,,Y,,,Y,Y,,Y,2,2,E06000062,E02005625,E00137277,51,38.0,74.0,0.9527,5.0,9.7054,0.05038
1-105849874,2010-11-19,Y,Clare House Residential Home,East Midlands,West Northamptonshire,12 Whittlebury Road,Towcester,NN12 8UD,52.092223,-1.019931,South Northamptonshire,"Popat, Atul",,,Y,,Y,,,Y,,,,3,3,E06000062,E02005687,E00138863,25,20.0,81.0,0.86666,1.0,4.6188,0.00486
1-110711467,2011-01-17,Y,Christchurch Court - 2 Christchurch Road,East Midlands,West Northamptonshire,Abington,Northampton,NN1 5LL,52.243858,-0.869998,Northampton North,"John, Nicky",Y,Y,Y,,,,Y,Y,Y,Y,Y,0,0,E06000062,E02005671,E00138025,13,13.0,98.93465481080553,,,,
1-110711486,2011-01-17,Y,Christchurch Court - 4 Christchurch Road,East Midlands,West Northamptonshire,Abington,Northampton,NN1 5LL,52.243858,-0.869998,Northampton North,"John, Nicky",Y,Y,,Y,,,Y,Y,Y,Y,Y,0,0,E06000062,E02005671,E00138025,17,8.0,45.37850545038204,,,,
1-111667462,2010-12-16,Y,Oaklodge Care Home,East Midlands,West Northamptonshire,2 Peveril Road,Northampton,NN5 6JW,52.245526,-0.946032,Northampton South,"Desai, Daksha",,,Y,,Y,,,Y,,,,0,0,E06000062,E02005668,E00138445,36,27.0,75.29710103528868,,,,
1-112032284,2010-12-20,Y,Merrifield House Residential Care Home,East Midlands,West Northamptonshire,90 High Street,Northampton,NN4 6JR,52.203705,-0.888093,South Northamptonshire,"Sooben, Radha",,,Y,,Y,,Y,Y,,,,4,4,E06000062,E02005680,E00189037,62,46.0,74.0,0.90297,7.0,11.2036,0.10019
1-112080818,2011-01-11,Y,Margaret's Rest Home,East Midlands,West Northamptonshire,30-32 Kingsley Road,Northampton,NN2 7BL,52.251874,-0.881895,Northampton North,"Robinson, Donella",,,Y,,Y,,,Y,Y,,,6,6,E06000062,E02005664,E00138312,27,25.0,94.0,0.91825,2.0,7.2829,0.04755
1-113020838,2010-12-14,Y,Living Life (UK) Limited t/a the Banyan Tree - 53 Bostock Avenue,East Midlands,West Northamptonshire,Abington,Northampton,NN1 4LN,52.244204,-0.877693,Northampton North,"Andrews, Lorraine",,,Y,,,Y,Y,,,,Y,1,1,E06000062,E02005671,E00138051,4,3.0,75.0,0.90085,,,
1-113529659,2010-12-10,Y,Boughton Lodge Care Home,East Midlands,West Northamptonshire,105 Boughton Green Road,Northampton,NN2 7SU,52.26799,-0.896378,Northampton North,"Chehal, Mohinderpal",,,Y,,Y,,,Y,,,,0,0,E06000062,E02005652,E00138100,19,15.0,79.84150955982713,,,,
1-113547494,2011-03-07,Y,St Michaels House,East Midlands,West Northamptonshire,1-3 St Michaels Avenue,Northampton,NN1 4JQ,52.245399,-0.882394,Northampton South,*,,,Y,,,,Y,Y,,,Y,6,6,E06000062,E02005674,E00138492,13,10.0,78.0,0.90698,1.0,8.9927,0.1301
1-114180802,2011-01-17,Y,Tabs@42,East Midlands,West Northamptonshire,42 Stimpson Avenue,Northampton,NN1 4LP,52.242993,-0.876142,Northampton North,"Sweeney, Julie",,,Y,Y,,Y,,,Y,,Y,1,1,E06000062,E02005671,E00138026,5,2.0,40.0,0.99811,,,
1-114571819,2011-01-21,Y,Symphony House Nursing Home,East Midlands,West Northamptonshire,43-45 Queens Park Parade,Northampton,NN2 6LP,52.255269,-0.900327,Northampton North,"Robinson, Anita",Y,Y,,,,,,Y,Y,,,6,6,E06000062,E02005657,E00138343,25,24.0,94.0,0.98267,1.0,3.3466,0.004
1-114998788,2011-01-27,Y,St Giles Charity Estates,East Midlands,West Northamptonshire,Nicholas Rothwell House,Northampton,NN2 8LR,52.272144,-0.902475,Northampton North,"Garrard, Loraine",,,Y,,,,,Y,Y,,,2,2,E06000062,E02005652,E00138088,20,18.0,90.0,0.92148,3.0,14.1421,0.00246
