Code,Name,Primary Role Name,Postcode,Is Operated By - Code,latitude,longitude,msoa
RTH12,Abingdon Community Hospital,NHS TRUST SITE,OX141AG,RTH,51.670023,-1.301891,E02005983
RW5AV,Accrington Victoria Hospital,NHS TRUST SITE,BB56AS,RW5,53.759584,-2.366921,E02005215
RX224,Acre Day Hospital,NHS TRUST SITE,BN113NJ,RX2,50.809533,-0.382784,E02006631
RR856,Airedale General Hospital,NHS TRUST SITE,BD206TE,RR8,53.896081,-1.956366,E02006945
RGR65,Aldeburgh Community Hospital,NHS TRUST SITE,IP155ES,RGR,52.152262,1.595543,E02006290
RBS06,Alderhey Childrens Hospital At Manor Farm Primary Care Resource Centre,NHS TRUST SITE,L360UB,RBS,53.404553,-2.831049,E02001341
RBS01,Alderhey Childrens Hospital At The Halewood Centre,NHS TRUST SITE,L269UH,RBS,53.359024,-2.82558,E02001346
RBS05,Alderhey Childrens Hospital At Tower Hill Primary Care Resource Centre,NHS TRUST SITE,L331XT,RBS,53.495201,-2.88656,E02001327
RBS04,Alderhey Childrens Hospital At Whiston Primary Care Resource Centre,NHS TRUST SITE,L353SX,RBS,53.415642,-2.800887,E02001339
RDY22,Alderney Hospital,NHS TRUST SITE,BH124NB,RDY,50.749698,-1.940973,E02003195
RWP01,Alexandra Hospital,NHS TRUST SITE,B987UB,RWP,52.279774,-1.912127,E02006729
RJN38,Alexandra Hospital,NHS TRUST SITE,SK82PX,RJN,53.397264,-2.215828,E02001208
RV917,Alfred Bean Hospital,NHS TRUST SITE,YO255JR,RV9,54.012164,-0.423232,E02006891
RGDAH,Alpha Hospital Bury,NHS TRUST SITE,BL82BS,RGD,53.587136,-2.316737,E02001027
RN503,Alton Hospital Acute Services,NHS TRUST SITE,GU341RJ,RN5,51.140744,-0.98982,E02004699
RWW07,Altrincham General Hospital,NHS TRUST SITE,WA141PE,RWW,53.38652,-2.352998,E02001283
RT2CM,Altrincham Hospital,NHS TRUST SITE,WA142RE,RT2,53.385121,-2.351829,E02001283
RX2F3,Amberstone Hospital,NHS TRUST SITE,BN274HU,RX2,50.881826,0.275547,E02004420
RXQ51,Amersham Hospital,NHS TRUST SITE,HP70JD,RXQ,51.663005,-0.621408,E02003682
R1C14,Amulree Day Hospital,NHS TRUST SITE,PO36AD,R1C,50.800122,-1.063932,E02003540
RNZ59,Andover War Memorial Hospital,NHS TRUST SITE,SP103LB,RNZ,51.215737,-1.494692,E02004817
RET30,Arrow Park Hospital,NHS TRUST SITE,CH495PE,RET,53.36964,-3.096815,E02001491
RX2P3,Arundal Hospital Lodge,NHS TRUST SITE,BN180AB,RX2,50.854475,-0.565259,E02006542
Q1K4X,Aset Hospital,NHS TRUST SITE,L357LS,RM3,53.425421,-2.779612,E02001335
RA952,Ashburton And Buckfastleigh Hospital,NHS TRUST SITE,TQ137AP,RA9,50.519348,-3.74854,E02004217
RXH18,Ashdown Nuffield Hospital,NHS TRUST SITE,RH161UD,RXH,51.008356,-0.106181,E02006612
RK5FK,Ashfield Community Hospital,NHS TRUST SITE,NG177AB,RK5,53.100956,-1.246664,E02005826
RTK02,Ashford Hospital,NHS TRUST SITE,TW153AA,RTK,51.444022,-0.472813,E02006405
RTFDL,Ashington Hospital,NHS TRUST SITE,NE630RZ,RTF,55.181521,-1.56912,E02005735
RTK55,Ashtead Hospital,NHS TRUST SITE,KT212SB,RTK,51.304339,-0.303292,E02006362
RW1YH,Ashurst Hospital,NHS TRUST SITE,SO407AR,RW1,50.892134,-1.522292,E02004784
RW404,Ashworth Hospital,NHS TRUST SITE,L311HW,RW4,53.518669,-2.915374,E02001446
RX3AT,Auckland Park Hospital,NHS TRUST SITE,DL146AE,RX3,54.654838,-1.680756,E02004353
RTVA8,Avenue Day Hospital,NHS TRUST SITE,WN71HS,RTV,53.504428,-2.512253,E02001317
RH857,Axminster Hospital,NHS TRUST SITE,EX135DU,RH8,50.783892,-2.996268,E02004133
RY8DE,Babington Hospital,NHS TRUST SITE,DE561WH,RY8,53.018944,-1.485847,E02004038
RF426,Baddow Hospital,NHS TRUST SITE,CM28FR,RF4,51.707904,0.501773,E02004498
RATAP,Barking Hospital,NHS TRUST SITE,IG119LX,RAT,51.538564,0.098727,E02000012
RQY05,Barnes Hospital,NHS TRUST SITE,SW148SU,RQY,51.467092,-0.256518,E02000786
RAL26,Barnet Hospital,NHS TRUST SITE,EN53DJ,RAL,51.650726,-0.214152,E02000027
RHQBN,Barnsley District General Hospital,NHS TRUST SITE,S752EP,RHQ,53.559132,-1.499493,E02001520
RFRAA,Barnsley Hospitals,NHS TRUST SITE,S752PS,RFR,53.559855,-1.500617,E02001520
RVJ86,Barrow Hospital,NHS TRUST SITE,BS483SF,RVJ,51.418261,-2.668055,E02003075
T5J5E,Barts Hospital At Home,NHS TRUST SITE,E11FR,R1H,51.518702,-0.060138,E02000880
E9G8N,Barts Vaccine Centre Hospital,NHS TRUST SITE,E20HL,R1H,51.526438,-0.053739,E02000874
RF420,Basildon Hospital,NHS TRUST SITE,SS165NL,RF4,51.557679,0.450587,E02004443
RHQNN,Bassetlaw Hospital,NHS TRUST SITE,S810BD,RHQ,53.316574,-1.110284,E02006903
RVJJ7,Bath Mineral Hospital,NHS TRUST SITE,BA11RN,RVJ,51.382341,-2.362111,E02002991
RWX98,Bath Road Day Hospital,NHS TRUST SITE,RG16HH,RWX,51.450239,-0.983928,E02003401
RWX77,Battle Hospital,NHS TRUST SITE,RG301AG,RWX,51.457111,-0.996614,E02003395
RT2C3,Bealey Community Hospital,NHS TRUST SITE,M262QD,RT2,53.565754,-2.309285,E02001033
RMC78,Beardwood Hospital,NHS TRUST SITE,BB27AE,RMC,53.755038,-2.513177,E02002624
RMC37,Beaumont Hospital,NHS TRUST SITE,BL64LA,RMC,53.581505,-2.499304,E02001003
RGP73,Beccles & District Hospital,NHS TRUST SITE,NR349NQ,RGP,52.454149,1.562352,E02006311
RWF22,Benenden Hospital,NHS TRUST SITE,TN174AX,RWF,51.086649,0.6161,E02005175
RX458,Bensham Hospital,NHS TRUST SITE,NE84YL,RX4,54.944957,-1.614973,E02001688
RTQ81,Berkeley Hospital,NHS TRUST SITE,GL139AD,RTQ,51.692006,-2.4585,E02004662
RDU17,Berkshire Independent Hospital,NHS TRUST SITE,RG16UZ,RDU,51.44455,-0.988313,E02003401
RP1V4,Berrywood Hospital,NHS TRUST SITE,NN56UD,RP1,52.246773,-0.9592,E02007072
RX2M4,Bexhill Community Hospital,NHS TRUST SITE,TN402DZ,RX2,50.850706,0.475497,E02004399
RTH27,Bicester Community Hospital,NHS TRUST SITE,OX266HT,RTH,51.896191,-1.158078,E02005935
RMY09,Bickley Day Hospital,NHS TRUST SITE,NR172QE,RMY,52.517762,1.017401,E02005513
A2A4G,Bideford Hospital,NHS TRUST SITE,EX393AG,RH8,51.017812,-4.212783,E02004222
R1L91,Biggleswade Hospital,NHS TRUST SITE,SG180EL,R1L,52.100321,-0.24686,E02003604
RWK1Q,Biggleswade Hospital Spring House,NHS TRUST SITE,SG180EJ,RWK,52.096653,-0.250522,E02003604
RCF23,Bingley Hospital,NHS TRUST SITE,BD164HD,RCF,53.850045,-1.826722,E02002197
RT264,Birchill Hospital,NHS TRUST SITE,OL129QB,RT2,53.640264,-2.121386,E02001135
RTH39,Birmingham Childrens Hospital,NHS TRUST SITE,B46NW,RTH,52.484244,-1.893383,E02001876
RRK06,Birmingham City Hospital,NHS TRUST SITE,B187QH,RRK,52.488627,-1.932507,E02001879
RYW21,Birmingham Dental Hospital,NHS TRUST SITE,B46NN,RYW,52.485639,-1.89525,E02001876
RQ370,Birmingham Womens Hospital,NHS TRUST SITE,B152TG,RQ3,52.45323,-1.942905,E02001913
RTRBA,Bishop Auckland General Hospital,NHS TRUST SITE,DL146AD,RTR,54.655848,-1.678547,E02004353
RXL08,Bispham Hospital Rehabilitation Unit,NHS TRUST SITE,FY20FN,RXL,53.858223,-3.021462,E02002634
RJ252,Blackheath Hospital,NHS TRUST SITE,SE39UD,RJ2,51.463474,0.006265,E02000661
RXN08,Blackpool Victoria Hospital,NHS TRUST SITE,FY38NR,RXN,53.820675,-3.016275,E02002641
RNS9M,Blakelands Hospital,NHS TRUST SITE,MK145HR,RNS,52.074424,-0.742698,E02003463
RBD20,Blandford Community Hospital,NHS TRUST SITE,DT117DD,RBD,50.86307,-2.167984,E02004261
RTHG2,Bletchley Community Hospital,NHS TRUST SITE,MK36EN,RTH,51.997414,-0.747638,E02003489
RBK80,Bloxwich Hospital,NHS TRUST SITE,WS32JJ,RBK,52.613749,-2.004845,E02002117
RTF13,Blyth Community Hospital,NHS TRUST SITE,NE241DX,RTF,55.127873,-1.514936,E02005710
RHMH5,Bmi Sarum Road Hospital,NHS TRUST SITE,SO225HA,RHM,51.060714,-1.33909,E02004833
L6C6L,Bmi St.. Edmunds Hospital,NHS TRUST SITE,IP332AA,RGR,52.240078,0.719386,E02006278
RBK85,Bmi The Priory Hospital,NHS TRUST SITE,B57UG,RBK,52.456429,-1.911423,E02001905
RBD0A,Bmi The Winterbourne Hospital,NHS TRUST SITE,DT12DR,RBD,50.701017,-2.441867,E02004278
RJ866,Bodmin Hospital,NHS TRUST SITE,PL312QT,RJ8,50.468805,-4.741983,E02003942
RHU19,Bognor Regis War Memorial Hospital,NHS TRUST SITE,PO229PP,RHU,50.793365,-0.675418,E02006555
RJ815,Bolitho Hospital,NHS TRUST SITE,TR184NY,RJ8,50.111395,-5.548568,E02003951
RY8NT,Bolsover Hospital,NHS TRUST SITE,S446DH,RY8,53.231547,-1.282515,E02004049
RCB16,Bootham Park Hospital,NHS TRUST SITE,YO307BY,RCB,53.968072,-1.0856,E02002784
RDY01,Boscombe Community Hospital,NHS TRUST SITE,BH14JQ,RDY,50.729266,-1.841473,E02003190
RNZ55,Bournemouth Nuffield Hospital,NHS TRUST SITE,BH11RW,RNZ,50.730406,-1.870932,E02003188
RBZ2A,Bovey Tracey Hospital,NHS TRUST SITE,TQ139HJ,RBZ,50.597992,-3.676332,E02004204
RXA19,Bowmere Hospital,NHS TRUST SITE,CH21BQ,RXA,53.211544,-2.898825,E02003797
A3M3L,Brackley Comm Hospital,NHS TRUST SITE,NN136QZ,RP1,52.038067,-1.137701,E02005689
RP1M2,Brackley Cottage Hospital,NHS TRUST SITE,NN137DA,RP1,52.030921,-1.143131,E02005690
D8Z8K,Bradford Teaching Hospitals Nhs Foundation Trust,NHS TRUST SITE,BD96RJ,RAE,53.80598,-1.794697,E02002219
RREHI,Bradwell Hospital,NHS TRUST SITE,ST57NL,RRE,53.041578,-2.242055,E02006163
RAJ48,Braintree Community Hospital,NHS TRUST SITE,CM72AL,RAJ,51.878904,0.541061,E02004454
RJC56,Bramcote Hospital,NHS TRUST SITE,CV116QL,RJC,52.499997,-1.415554,E02006485
RNNCP,Brampton Hospital,NHS TRUST SITE,CA81TX,RNN,54.939842,-2.726293,E02003988
RATRM,Brentwood Community Hospital,NHS TRUST SITE,CM158DR,RAT,51.623555,0.316428,E02004468
RRF64,Bridgewater Hospital,NHS TRUST SITE,M155AT,RRF,53.45974,-2.245483,E02001063
RPGCR,Bridgeways Day Hospital,NHS TRUST SITE,BR28JA,RPG,51.387666,0.042616,E02000152
RXWMB,Bridgnorth Hospital,NHS TRUST SITE,WV164EU,RXW,52.537897,-2.421502,E02006012
A5T3C,Bridgwater Hospital,NHS TRUST SITE,TA64GU,RH5,51.140557,-2.974132,E02006070
RV928,Bridlington & District Hospital,NHS TRUST SITE,YO164QP,RV9,54.086552,-0.215754,E02002686
Q8I1N,Bridport Community Hospital,NHS TRUST SITE,DT65DR,R0D,50.741594,-2.769929,E02004275
RX2M5,Brighton General Hospital,NHS TRUST SITE,BN23EW,RX2,50.831176,-0.114497,E02003515
RA708,Bristol Eye Hospital,NHS TRUST SITE,BS12LX,RA7,51.458436,-2.594546,E02006951
RA703,Bristol Homeopathic Hospital,NHS TRUST SITE,BS66JU,RA7,51.46212,-2.603777,E02006951
RA723,Bristol Royal Hospital For Children,NHS TRUST SITE,BS28BJ,RA7,51.457748,-2.597329,E02006951
A5V9E,Brixham Hospital,NHS TRUST SITE,TQ59HW,RA9,50.389444,-3.513823,E02003171
RBN59,Broadgreen Hospital,NHS TRUST SITE,L143LB,RBN,53.411151,-2.897989,E02001372
RWXJP,Broadmoor Hospital,NHS TRUST SITE,RG457EG,RWX,51.369086,-0.781,E02003364
RX3XP,Brompton House Day Hospital,NHS TRUST SITE,DL61EA,RX3,54.344748,-1.432193,E02007042
RLQ03,Bromyard Community Hospital,NHS TRUST SITE,HR74QN,RLQ,52.186335,-2.506908,E02002909
RTE81,Bronllys Hospital,NHS TRUST SITE,LD30LS,RTE,52.010245,-3.261822,W02000111
RT11A,Brookfields Hospital,NHS TRUST SITE,CB13DF,RT1,52.197,0.15138,E02003727
RYG96,Brooklands Hospital,NHS TRUST SITE,B377HL,RYG,52.4712,-1.744102,E02002089
RDEP3,Broomfield Hospital,NHS TRUST SITE,CM17ET,RDE,51.774654,0.465993,E02004486
RXQ61,Buckingham Hospital,NHS TRUST SITE,MK181NU,RXQ,52.001593,-0.985664,E02003653
RXYAR,Buckland Hospital,NHS TRUST SITE,CT170HD,RXY,51.132061,1.292413,E02005051
RBZ85,Budleigh Salterton Hospital,NHS TRUST SITE,EX96HF,RBZ,50.631592,-3.320519,E02004145
RTE82,Builth Wells Cottage Hospital,NHS TRUST SITE,LD23HE,RTE,52.147292,-3.411406,W02000110
RHQCR,Bupa Cromwell Hospital,NHS TRUST SITE,SW50TU,RHQ,51.495107,-0.191361,E02000589
RHW25,Bupa Dunedin Hospital,NHS TRUST SITE,RG16NS,RHW,51.45022,-0.986821,E02003401
RVJ24,Burden Neurological Hospital,NHS TRUST SITE,BS161LE,RVJ,51.496597,-2.528419,E02007067
A5T6J,Burnham On Sea Hospital,NHS TRUST SITE,TA81ED,RH5,51.238794,-2.993884,E02006064
RXN05,Burnley General Hospital,NHS TRUST SITE,BB102PQ,RXN,53.810424,-2.227879,E02005177
A1G1T,Burton Hospital,NHS TRUST SITE,DE130RB,RTG,52.817775,-1.656384,E02006137
RA4C6,Butleigh Hospital,NHS TRUST SITE,BA68TF,RA4,51.093489,-2.685068,E02006059
RFSAC,Buxton Hospital,NHS TRUST SITE,SK179NJ,RFS,53.248141,-1.908288,E02004103
Q4Z4C,Calderdale Royal Hospital,NHS TRUST SITE,HX30PW,RAE,53.704821,-1.857509,E02002264
E5J1C,Calderstones Hospital,NHS TRUST SITE,BB79PE,RW5,53.829706,-2.423673,E02005276
RVNEQ,Callington Road Hospital,NHS TRUST SITE,BS45BJ,RVN,51.431265,-2.557555,E02003054
RJ817,Camborne Redruth Community Hospital,NHS TRUST SITE,TR153ER,RJ8,50.229381,-5.244376,E02003922
L2A5X,Cambridge University Hospitals Nhs Foundation Trust,NHS TRUST SITE,CB20AU,RGT,52.174508,0.138199,E02003731
RRE14,Cannock Chase Hospital,NHS TRUST SITE,WS115XY,RRE,52.693241,-2.030614,E02006128
RDEP1,Capio Oaks Hospital,NHS TRUST SITE,CO45XR,RDE,51.906301,0.894979,E02007057
RDEP4,Capio Springfield Hospital,NHS TRUST SITE,CM17GU,RDE,51.753372,0.484598,E02004488
RTR27,Carter Bequest Primary Care Hospital,NHS TRUST SITE,TS55NH,RTR,54.554625,-1.249261,E02002504
RKL48,Cassel Hospital,NHS TRUST SITE,TW107JF,RKL,51.432912,-0.3081,E02000795
RR862,Castle Hill Hospital,NHS TRUST SITE,HU165JQ,RR8,53.776733,-0.444985,E02002705
RCF30,Castleberg Hospital,NHS TRUST SITE,BD240BN,RCF,54.069558,-2.292211,E02005744
RXG18,Castleford & Normanton District Hospital,NHS TRUST SITE,WF105LT,RXG,53.719003,-1.37096,E02002441
RTP47,Caterham Dene Hospital Outpatients,NHS TRUST SITE,CR35RA,RTP,51.283627,-0.085202,E02006432
RWJ11,Cavendish Hospital,NHS TRUST SITE,SK176TE,RWJ,53.262442,-1.921255,E02004102
R1K02,Central Middlesex Hospital,NHS TRUST SITE,NW107NS,R1K,51.530936,-0.269161,E02000119
RXQ64,Chalfont Hospital,NHS TRUST SITE,SL99DR,RXQ,51.607409,-0.561811,E02003686
RH587,Chantry House Day Hospital,NHS TRUST SITE,BA111EY,RH5,51.228624,-2.327506,E02006050
RR819,Chapel Allerton Hospital,NHS TRUST SITE,LS74SA,RR8,53.822636,-1.52981,E02002371
RH5F2,Chard Hospital,NHS TRUST SITE,TA201NF,RH5,50.874996,-2.952373,E02006097
RYJ81,Charing Cross Hospital,NHS TRUST SITE,W68RF,RYJ,51.487045,-0.219935,E02000387
RHQCC,Charles Clifford Dental Hospital,NHS TRUST SITE,S102SZ,RHQ,53.379795,-1.49378,E02001640
RTQ2A,Charlton Lane Hospital,NHS TRUST SITE,GL539DZ,RTQ,51.881059,-2.073674,E02004614
RAJ53,Chartwell Private Hospital,NHS TRUST SITE,SS92SQ,RAJ,51.548005,0.637339,E02003286
RN507,Chase Acute Outpatients Hospital,NHS TRUST SITE,GU350YZ,RN5,51.106167,-0.862048,E02004702
RRP02,Chase Farm Hospital,NHS TRUST SITE,EN28JL,RRP,51.666528,-0.104009,E02000286
RLY14,Cheadle Hospital,NHS TRUST SITE,ST101NT,RLY,52.986038,-1.990766,E02006214
RWJ89,Cheadle Royal Hospital,NHS TRUST SITE,SK83DG,RWJ,53.374935,-2.221487,E02001222
RDECE,Chelmsford & Essex Hospital,NHS TRUST SITE,CM20QH,RDE,51.730935,0.470897,E02006979
RQM06,Chelsea & Westminster Hospital,NHS TRUST SITE,SW109NH,RQM,51.484308,-0.181644,E02000596
RPA85,Chelsfield Park Hospital,NHS TRUST SITE,BR67RG,RPA,51.358468,0.130847,E02000163
H7M9U,Cheltenham General Hospital Elective Surgical Hub,NHS TRUST SITE,GL537AN,RTE,51.89212,-2.071883,E02004608
RX464,Cherry Knowle Hospital,NHS TRUST SITE,SR20NB,RX4,54.863934,-1.36932,E02001818
RXQ25,Chesham Hospital,NHS TRUST SITE,HP51PJ,RXQ,51.700814,-0.606331,E02003679
RQWGC,Cheshunt Community Hospital,NHS TRUST SITE,EN88XN,RQW,51.699226,-0.033221,E02004852
RHQCH,Chesterfield & North Derbyshire Royal Hospital,NHS TRUST SITE,S445BL,RHQ,53.236214,-1.400051,E02004066
Y9F2N,Cheswold Park Hospital,NHS TRUST SITE,DN58AR,RXG,53.52786,-1.149294,E02001559
RXQ91,Chiltern Hospital,NHS TRUST SITE,HP160EN,RXQ,51.690533,-0.693669,E02003680
R1HK2,Chingford Hospital,NHS TRUST SITE,E46UN,R1H,51.620089,-0.00105,E02000898
RN333,Chippenham Community Hospital,NHS TRUST SITE,SN152AJ,RN3,51.452539,-2.126709,E02006654
RNUCJ,Chipping Norton Community Hospital,NHS TRUST SITE,OX75FA,RNU,51.945593,-1.535071,E02005993
RW5HD,Chorley & South Ribble District General Hospital,NHS TRUST SITE,PR71PP,RW5,53.665775,-2.636599,E02005194
RNZ15,Christchurch Hospital,NHS TRUST SITE,BH232JX,RNZ,50.745165,-1.790155,E02004237
RDEBA,Chuft Baddow Hospital,NHS TRUST SITE,CM28HN,RDE,51.707783,0.502389,E02004498
RWX58,Church Hill House Hospital,NHS TRUST SITE,RG127FR,RWX,51.400749,-0.759831,E02003358
RTH02,Churchill Hospital,NHS TRUST SITE,OX37LE,RTH,51.750332,-1.214709,E02005949
RWXNV,Churchill Hospital Oxford,NHS TRUST SITE,OX43LX,RWX,51.733249,-1.212712,E02005954
RTE23,Cirencester Hospital,NHS TRUST SITE,GL71UY,RTE,51.712383,-1.975463,E02004621
RDEE2,Clacton And District Hospital,NHS TRUST SITE,CO151LH,RDE,51.786083,1.148173,E02004589
RDU06,Clare Park Bupa Hospital,NHS TRUST SITE,GU105XX,RDU,51.225128,-0.847488,E02004760
RHQAA,Claremont Hospital,NHS TRUST SITE,S105UB,RHQ,53.375454,-1.536039,E02001643
RBL20,Clatterbridge Hospital,NHS TRUST SITE,CH634JY,RBL,53.332283,-3.025848,E02001504
A4Y2M,Clay Cross Hospital,NHS TRUST SITE,S459NZ,RY8,53.167933,-1.407227,E02004116
R1K68,Clayponds Hospital,NHS TRUST SITE,W54RN,R1K,51.495087,-0.298884,E02000276
O5V4D,Clementine Churchill Hospital,NHS TRUST SITE,HA13RX,RQM,51.564966,-0.332709,E02000461
RVJ04,Clevedon Hospital,NHS TRUST SITE,BS216BS,RVJ,51.43789,-2.845895,E02003069
RXL06,Clifton Hospital,NHS TRUST SITE,FY81PB,RXL,53.744359,-3.007247,E02005210
RXL73,Clitheroe Hospital,NHS TRUST SITE,BB74JX,RXL,53.885283,-2.366014,E02005271
RW41E,Clock View Hospital,NHS TRUST SITE,L91EP,RW4,53.451064,-2.969018,E02001352
RWELC,Coalville Community Hospital,NHS TRUST SITE,LE674DE,RWE,52.722883,-1.349847,E02005405
RTF2D,Cobalt Hospital,NHS TRUST SITE,NE270BY,RTF,55.024056,-1.510464,E02001748
RA255,Cobham Community Hospital,NHS TRUST SITE,KT111HT,RA2,51.334521,-0.408553,E02006333
RAX70,Cobham Hospital,NHS TRUST SITE,KT111HS,RAX,51.335443,-0.408219,E02006333
RNNCB,Cockermouth Hospital,NHS TRUST SITE,CA139HT,RNN,54.667192,-3.358501,E02003971
RP410,Colchester General Hospital,NHS TRUST SITE,CO45JL,RP4,51.910164,0.899182,E02007057
A3N3P,Colman Hospital,NHS TRUST SITE,NR22PJ,RY3,52.620275,1.268826,E02005592
RV989,Coltman Street Day Hospital,NHS TRUST SITE,HU32SG,RV9,53.741335,-0.362015,E02002681
M4E0N,Community Hospitals Lchs,NHS TRUST SITE,LN57JH,RY5,53.226467,-0.52415,E02005447
RYW02,Community Unit 29 At Heartlands Hospital,NHS TRUST SITE,B95SS,RYW,52.480218,-1.829966,E02001892
RJN63,Congleton War Memorial Hospital,NHS TRUST SITE,CW123AR,RJN,53.158025,-2.202675,E02003818
RX2M1,Conquest Hospital,NHS TRUST SITE,TN377RD,RX2,50.885167,0.56727,E02004369
RNA04,Corbett Hospital,NHS TRUST SITE,DY84JB,RNA,52.465406,-2.146398,E02002030
RP1N8,Corby Community Hospital,NHS TRUST SITE,NN172UN,RP1,52.491306,-0.710755,E02005615
RCF26,Coronation Hospital,NHS TRUST SITE,LS298TG,RCF,53.923204,-1.813674,E02002183
RVJ21,Cossham Hospital,NHS TRUST SITE,BS151LF,RVJ,51.468887,-2.51612,E02003029
RJR05,Countess Of Chester Hospital,NHS TRUST SITE,CH21UL,RJR,53.2088,-2.897884,E02003797
RXX1T,Cranleigh Hospital,NHS TRUST SITE,GU68AU,RXX,51.141647,-0.489888,E02006451
RXX28,Cranleigh Village Hospital,NHS TRUST SITE,GU68AE,RXX,51.140612,-0.487062,E02006451
RBZ88,Crediton Hospital,NHS TRUST SITE,EX173NH,RBZ,50.792373,-3.674126,E02004174
A5Q9Q,Crewkerne Hospital,NHS TRUST SITE,TA188BG,RH5,50.879978,-2.79788,E02006095
RMY77,Cromer Hospital,NHS TRUST SITE,NR270BQ,RMY,52.923787,1.310057,E02005572
RX3NX,Cross Lane Hospital The Lodge,NHS TRUST SITE,YO126DN,RX3,54.296061,-0.424989,E02005799
RPA76,Crowborough Hospital,NHS TRUST SITE,TN61HB,RPA,51.051445,0.157459,E02004406
RXCLD,Crowborough War Memorial Hospital,NHS TRUST SITE,TN61HF,RXC,51.050122,0.153973,E02004406
RGT2H,Cuh At Brookfields Hospital,NHS TRUST SITE,CB13NL,RGT,52.196927,0.149986,E02003727
RGDTL,Cygnet Hospital Beckton,NHS TRUST SITE,E66ZB,RGD,51.513472,0.0649,E02000746
RGDCY,Cygnet Hospital Bierley,NHS TRUST SITE,BD46AD,RGD,53.768503,-1.732116,E02002239
L4S0G,Cygnet Hospital Harrow,NHS TRUST SITE,HA13JL,RXX,51.567091,-0.337984,E02000461
P3P8S,Cygnet Hospital Maidstone,NHS TRUST SITE,ME145FT,RXX,51.286548,0.556711,E02005072
K5E9C,Cygnet Hospital Woking,NHS TRUST SITE,GU212QS,RXX,51.314751,-0.615592,E02006462
S6D0D,Cygnet Hospital Wolverhampton,NHS TRUST SITE,WV111UH,RW4,52.59799,-2.088916,E02002163
RGDCW,Cygnet Hospital Wyke,NHS TRUST SITE,BD128LR,RGD,53.728504,-1.774582,E02002243
RP1J6,Danetre Hospital,NHS TRUST SITE,NN114DY,RP1,52.25204,-1.160866,E02005625
RXY10,Darent Valley Hospital,NHS TRUST SITE,DA28DA,RXY,51.434952,0.258645,E02005035
RXPDA,Darlington Memorial Hospital,NHS TRUST SITE,DL36HX,RXP,54.530374,-1.563733,E02007058
RA955,Dartmouth Hospital,NHS TRUST SITE,TQ69BD,RA9,50.35029,-3.577672,E02004195
RA956,Dawlish Hospital,NHS TRUST SITE,EX79DH,RA9,50.580583,-3.474788,E02004206
RWRF5,Day Hospital,NHS TRUST SITE,WD63PJ,RWR,51.653669,-0.281822,E02004905
RTE02,Delancey Hospital,NHS TRUST SITE,GL539DT,RTE,51.878307,-2.076378,E02004614
RHW26,Dellwood Hospital,NHS TRUST SITE,RG302DX,RHW,51.447542,-1.001745,E02003403
RTQ73,Denmark Road Day Hospital,NHS TRUST SITE,GL13HZ,RTQ,51.870712,-2.232124,E02004637
RRKE2,Dental Hospital,NHS TRUST SITE,B57EG,RRK,52.449991,-1.914476,E02001905
A3K2A,Dental Hospital,NHS TRUST SITE,NE24AZ,RTD,54.981501,-1.622718,E02007099
RM106,Dereham Hospital,NHS TRUST SITE,NR192EX,RM1,52.690016,0.945704,E02005505
RK950,Derriford Hospital,NHS TRUST SITE,PL68DH,RK9,50.41672,-4.113684,E02003126
RN330,Devizes Community Hospital,NHS TRUST SITE,SN101EF,RN3,51.354581,-1.99323,E02006638
RXF10,Dewsbury & District Hospital,NHS TRUST SITE,WF134HS,RXF,53.702252,-1.651877,E02002286
RR857,Diana Princess Of Wales Hospital,NHS TRUST SITE,DN332BA,RR8,53.544882,-0.096233,E02002741
RTH24,Didcot Community Hospital,NHS TRUST SITE,OX110AG,RTH,51.604427,-1.260127,E02005967
RTE31,Dilke Memorial Hospital,NHS TRUST SITE,GL143HX,RTE,51.811207,-2.519863,E02004629
RT1GD,Doddington Hospital,NHS TRUST SITE,PE150UG,RT1,52.499892,0.055847,E02003751
J4J6C,Dolan Park Hospital,NHS TRUST SITE,B601LY,RLQ,52.333442,-2.002685,E02006709
RFRDR,Doncaster & Bassetlaw Hospitals,NHS TRUST SITE,DN25LT,RFR,53.530805,-1.108942,E02001556
RFRDG,Doncaster Gate Hospital,NHS TRUST SITE,S651DA,RFR,53.429997,-1.352431,E02001594
RVR30,Dorking General Hospital,NHS TRUST SITE,RH42AA,RVR,51.225789,-0.332941,E02006371
RBK36,Dorothy Pattison Hospital,NHS TRUST SITE,WS29XH,RBK,52.582148,-2.002431,E02002140
I7M3Y,Dorset County Hospital Outpatient Therapies Centre,NHS TRUST SITE,DT29RL,RBD,50.751635,-2.456533,E02004272
RX297,Dove Day Hospital,NHS TRUST SITE,RH117DH,RX2,51.1166,-0.197375,E02006581
RXM18,Dovedale Day Hospital,NHS TRUST SITE,DE12XX,RXM,52.914045,-1.466787,E02002813
R1AFT,Droitwich Spa Private Hospital,NHS TRUST SITE,WR98DN,R1A,52.265532,-2.150881,E02006750
RXTMD,Drug Rehab Requirement Hospital Prescriber,NHS TRUST SITE,B191BP,RXT,52.501212,-1.92052,E02001865
RX460,Dryden Road Day Hospital,NHS TRUST SITE,NE95BY,RX4,54.947852,-1.596133,E02006842
RTR09,Duchess Of Kent Hospital,NHS TRUST SITE,DL94DF,RTR,54.374236,-1.707919,E02005785
REFY2,Duchy Hospital,NHS TRUST SITE,TR13UP,REF,50.267934,-5.093566,E02003909
RCB63,Duchy Nuffield Hospital,NHS TRUST SITE,HG20HF,RCB,53.98757,-1.547812,E02005779
R1LDP,Dukes Priory Hospital,NHS TRUST SITE,CM17SJ,R1L,51.743179,0.487761,E02004491
RDU18,Dunedin Hospital,NHS TRUST SITE,RG16NQ,RDU,51.450463,-0.985808,E02003401
RR7ER,Dunston Hill Hospital,NHS TRUST SITE,NE119QT,RR7,54.946392,-1.659468,E02001694
RXPDC,Durham Community Hospital,NHS TRUST SITE,DH15AJ,RXP,54.790739,-1.592412,E02004309
RWH03,E&N Herts Activity At Whht Hospitals,NHS TRUST SITE,HP24AD,RWH,51.750846,-0.468578,E02004870
R1KCH,Ealing Hospital Child Health,NHS TRUST SITE,W55TL,R1K,51.511661,-0.312555,E02000269
RX3LR,East Cleveland Hospital,NHS TRUST SITE,TS122FF,RX3,54.565266,-0.936357,E02002524
RXTM6,East Drug Intervention Programme Hospital Prescriber,NHS TRUST SITE,B263NX,RXT,52.45127,-1.780356,E02001907
RWKAX,East Ham Memorial Hospital,NHS TRUST SITE,E78QR,RWK,51.539588,0.04536,E02000723
RXX35,East Surrey Hospital,NHS TRUST SITE,RH15RH,RXX,51.219194,-0.162009,E02006388
RXH36,Eastbourne District General Hospital,NHS TRUST SITE,BN212UD,RXH,50.786969,0.271108,E02004363
RXH44,Eastman Dental Hospital,NHS TRUST SITE,WC1X8LD,RXH,51.525832,-0.117036,E02007115
RAE4H,Eccleshill Community Hospital,NHS TRUST SITE,BD100JE,RAE,53.823092,-1.712131,E02002209
RWF06,Edenbridge War Memorial Hospital,NHS TRUST SITE,TN85DA,RWF,51.190348,0.066664,E02005100
RRP01,Edgware Hospital,NHS TRUST SITE,HA80AD,RRP,51.606478,-0.271248,E02000047
RJ803,Edward Hain Hospital,NHS TRUST SITE,TR262BS,RJ8,50.207542,-5.479117,E02003943
A1C7L,Ellen Badger Hospital,NHS TRUST SITE,CV364AX,RJC,52.066858,-1.622551,E02006518
RJR60,Ellesmere Port Hospital,NHS TRUST SITE,CH656SG,RJR,53.267777,-2.91104,E02003848
R1CM8,Elmleigh Hospital,NHS TRUST SITE,PO92JJ,R1C,50.856522,-0.975584,E02004775
RHU16,Emsworth Hospital,NHS TRUST SITE,PO107DD,RHU,50.848392,-0.937393,E02004774
RXX36,Epsom General Hospital,NHS TRUST SITE,KT187EG,RXX,51.325518,-0.273231,E02006342
RN7ED,Erith & District Hospital,NHS TRUST SITE,DA83EE,RN7,51.477113,0.166643,E02000069
RXH22,Esperance Private Hospital,NHS TRUST SITE,BN213BG,RXH,50.766115,0.287016,E02004366
RP411,Essex County Hospital,NHS TRUST SITE,CO33NB,RP4,51.887073,0.889135,E02004518
RXL71,Euxton Hall Hospital,NHS TRUST SITE,PR76DY,RXL,53.660948,-2.676313,E02005193
RWP03,Evesham Community Hospital,NHS TRUST SITE,WR111JT,RWP,52.08627,-1.948676,E02006764
RH884,Exeter Nuffield Hospital,NHS TRUST SITE,EX24UG,RH8,50.71631,-3.511285,E02004157
RH858,Exmouth Hospital,NHS TRUST SITE,EX82JN,RH8,50.620545,-3.401608,E02004148
R0A3M,Eye Hospital Outpatients,NHS TRUST SITE,M139WH,R0A,53.462317,-2.228915,E02001062
RT265,Fairfield General Hospital,NHS TRUST SITE,BL97TD,RT2,53.600439,-2.25562,E02001025
RRF68,Fairfield Hospital,NHS TRUST SITE,WA117RS,RRF,53.484549,-2.750074,E02001406
RTE24,Fairford Hospital,NHS TRUST SITE,GL74BB,RTE,51.708112,-1.778181,E02004623
RJ842,Falmouth Hospital,NHS TRUST SITE,TR112JA,RJ8,50.155684,-5.086142,E02003917
RHU62,Fareham Community Hospital,NHS TRUST SITE,SO317DQ,RHU,50.871526,-1.27362,E02004727
RNUCM,Faringdon Day Hospital,NHS TRUST SITE,SN78DS,RNU,51.65654,-1.58831,E02005986
U7P1U,Farmfield Hospital,NHS TRUST SITE,RH60BN,RXX,51.16637,-0.201971,E02006374
RXX29,Farnham Hospital,NHS TRUST SITE,GU99QL,RXX,51.220491,-0.784642,E02006441
RXX22,Farnham Road Hospital,NHS TRUST SITE,GU27LX,RXX,51.235093,-0.584465,E02006358
RWF13,Faversham Cottage Hospital,NHS TRUST SITE,ME138PS,RWF,51.314553,0.887822,E02005129
RN7FM,Fawkham Manor Hospital,NHS TRUST SITE,DA38ND,RN7,51.372485,0.28557,E02005093
RGR67,Felixstowe Community Hospital,NHS TRUST SITE,IP117HJ,RGR,51.963766,1.35594,E02006301
RHM20,Fenwick Hospital,NHS TRUST SITE,SO437NG,RHM,50.879177,-1.583822,E02004785
RXG10,Fieldhead Hospital,NHS TRUST SITE,WF13SP,RXG,53.69734,-1.494054,E02002443
A3C9C,Fielding Palmer Hospital,NHS TRUST SITE,LE174DZ,RWE,52.457853,-1.1978,E02005376
RRP27,Finchley Memorial Hospital,NHS TRUST SITE,N120JE,RRP,51.60546,-0.176595,E02000050
RWKCA,"First Ave, Day Hospital",NHS TRUST SITE,E138AP,RWK,51.526383,0.021701,E02000739
RCX07,Fitzwilliam Private Hospital,NHS TRUST SITE,PE39AQ,RCX,52.576469,-0.297549,E02003251
RXX27,Fleet Hospital,NHS TRUST SITE,GU514LZ,RXX,51.287555,-0.84868,E02004758
RXL64,Fleetwood Hospital,NHS TRUST SITE,FY76BE,RXL,53.926196,-3.009339,E02005319
O1Q2M,Fordcombe Hospital,NHS TRUST SITE,TN30RD,RWF,51.134513,0.188146,E02005167
RNZ04,Fordingbridge Hospital,NHS TRUST SITE,SP61JD,RNZ,50.928078,-1.793204,E02004779
RWVGA,Forensic Services Langdon Hospital,NHS TRUST SITE,EX70NR,RWV,50.599669,-3.468178,E02004205
Y4W1S,Forest Of Dean Community Hospital,NHS TRUST SITE,GL143HY,RTQ,51.832843,-2.508315,E02004629
RXT21,Former Womens Hospital,NHS TRUST SITE,B114JP,RXT,52.450895,-1.866555,E02007039
RX3KI,Foss Park Hospital,NHS TRUST SITE,YO318TA,RX3,53.976566,-1.077403,E02002781
REFX7,Fowey Hospital,NHS TRUST SITE,PL231EE,REF,50.338498,-4.639222,E02003960
RWV98,Franklyn Community Hospital,NHS TRUST SITE,EX29HS,RWV,50.712399,-3.549433,E02004160
RVJ20,Frenchay Hospital,NHS TRUST SITE,BS161JE,RVJ,51.49627,-2.521557,E02007067
RCBTX,Friarage Hospital,NHS TRUST SITE,DL61JG,RCB,54.342331,-1.430534,E02007043
RXPFR,Friary Hospital,NHS TRUST SITE,DL104UJ,RXP,54.404898,-1.738342,E02005783
RXX21,Frimley Park Hospital,NHS TRUST SITE,GU167UJ,RXX,51.319666,-0.742029,E02006425
A0H3E,Frome Community Hospital,NHS TRUST SITE,BA112FH,RH5,51.237318,-2.311568,E02006049
RT113,Fulbourn Hospital,NHS TRUST SITE,CB215EF,RT1,52.184505,0.188329,E02003785
RNNFH,Furness General Hospital,NHS TRUST SITE,LA144LF,RNN,54.136395,-3.207899,E02003979
RXH66,Gatwick Park Hospital,NHS TRUST SITE,RH60BB,RXH,51.167684,-0.183397,E02006374
RLT01,George Eliot Hospital,NHS TRUST SITE,CV107DJ,RLT,52.51258,-1.478439,E02006482
RET33,Glan Clwd Hospital,NHS TRUST SITE,LL185UJ,RET,53.271755,-3.496345,W02000050
RWEAE,Glenfield Hospital,NHS TRUST SITE,LE39QP,RWE,52.654362,-1.180018,E02002830
RVJ60,Glenside Hospital,NHS TRUST SITE,BS161DD,RVJ,51.484959,-2.542916,E02003023
RVJ14,Gloucester House/ Dorian Day Hospital,NHS TRUST SITE,BS70XN,RVJ,51.493671,-2.587989,E02003015
RTE06,Gloucestershire Hospitals Nhs Trust Hq,NHS TRUST SITE,GL537AG,RTE,51.89105,-2.070522,E02004613
RTQ03,Gloucestershire Royal Hospital,NHS TRUST SITE,GL13NN,RTQ,51.866379,-2.232073,E02004637
RQ305,Good Hope Hospital,NHS TRUST SITE,B757RR,RQ3,52.567366,-1.812043,E02001832
RATGM,Goodmayes Hospital,NHS TRUST SITE,IG38XJ,RAT,51.577993,0.110488,E02000772
RV943,Goole & District Hospital,NHS TRUST SITE,DN146RX,RV9,53.715463,-0.874932,E02002720
RXH27,Goring Hall Hospital,NHS TRUST SITE,BN125AT,RXH,50.811389,-0.431833,E02006633
RBK03,Goscote Hospital,NHS TRUST SITE,WS31SJ,RBK,52.61379,-1.978226,E02002122
RX2Y8,Gosport War Memorial Hospital,NHS TRUST SITE,PO123PR,RX2,50.792449,-1.148037,E02004749
RX4K3,Grange Park Clinic Monkmouth Hospital Sunderland Locality,NHS TRUST SITE,SR51NB,RX4,54.924547,-1.386785,E02001795
RWDLP,Grantham & District Hospital,NHS TRUST SITE,NG318DG,RWD,52.921087,-0.640714,E02005478
H3P9T,Gravesham Community Hospital,NHS TRUST SITE,DA110DG,RVV,51.443183,0.365644,E02005056
RATGD,Grays Court Community Hospital,NHS TRUST SITE,RM109SR,RAT,51.538977,0.157336,E02000015
RP401,Great Ormond Street Hospital Central London Site,NHS TRUST SITE,WC1N3JH,RP4,51.52221,-0.119924,E02000192
C4H9H,Greater Lancashire Hospitals,NHS TRUST SITE,PR25BW,RXN,53.786429,-2.647808,E02005259
RVN6A,Green Lane Hospital,NHS TRUST SITE,SN105DS,RVN,51.33915,-1.981303,E02006638
RJR0D,Grosvenor Nuffield Hospital,NHS TRUST SITE,CH47QP,RJR,53.176342,-2.895261,E02003807
RCF32,Grove Convalescent Hospital,NHS TRUST SITE,LS299LU,RCF,53.923669,-1.824179,E02002184
A7D0H,Gstt @ Cleveland Clinic London Hospital,NHS TRUST SITE,SW1X7HY,RJ1,51.499263,-0.14892,E02000978
X2X7Z,Gstt @ Eltham Community Hospital,NHS TRUST SITE,SE95DQ,RJ1,51.449946,0.053714,E02000340
Y7V9O,Gstt @ West Valley Hospital,NHS TRUST SITE,CR02RD,RJ1,51.379541,-0.101436,E02000213
RNA02,Guest Hospital,NHS TRUST SITE,DY14SE,RNA,52.519082,-2.072625,E02002005
RA217,Guildford Nuffield Hospital,NHS TRUST SITE,GU27RF,RA2,51.241652,-0.612558,E02006355
RYG60,Gulson Hospital,NHS TRUST SITE,CV12HR,RYG,52.405587,-1.498605,E02001985
RKL35,Gunnersbury Day Hospital,NHS TRUST SITE,W30DF,RKL,51.521352,-0.265589,E02000252
RJ100,Guys And St. Thomas Hospitals,NHS TRUST SITE,SE19RT,RJ1,51.503331,-0.086771,E02000812
RYJ85,Gynaecology And Fertility Queen Charlottes Hospital,NHS TRUST SITE,W120HS,RYJ,51.51742,-0.234721,E02000372
RAL80,Hadley Wood Hospital,NHS TRUST SITE,EN55TS,RAL,51.654137,-0.198828,E02000024
RDEEK,Halstead Hospital,NHS TRUST SITE,CO92DL,RDE,51.948094,0.637952,E02004449
RTV14,Halton General Hospital,NHS TRUST SITE,WA72DA,RTV,53.323266,-2.694681,E02002588
RWW99,Halton Hospital Captain Sir Tom Moore Building,NHS TRUST SITE,WA72HH,RWW,53.321857,-2.695394,E02002588
RTFDU,Haltwhistle War Memorial Hospital,NHS TRUST SITE,NE499AJ,RTF,54.970106,-2.462935,E02005728
RVJ02,Ham Green Hospital,NHS TRUST SITE,BS200HH,RVJ,51.477331,-2.675211,E02003068
D7L9I,"Hamble House, St. James Hospital Site",NHS TRUST SITE,PO48FE,R1C,50.796107,-1.045439,E02003540
A6E0E,Harefield Hospital,NHS TRUST SITE,UB96JH,RJ1,51.606732,-0.482747,E02000496
RALHA,Harpenden Memorial Hospital,NHS TRUST SITE,AL54TA,RAL,51.819052,-0.352959,E02004925
RWR96,Harperbury Hospital,NHS TRUST SITE,WD79HQ,RWR,51.702199,-0.305562,E02004942
RLY88,Harplands Hospital,NHS TRUST SITE,ST46RR,RLY,53.00054,-2.210831,E02002968
RR855,Harrogate District Hospital,NHS TRUST SITE,HG27SX,RR8,53.993807,-1.517573,E02005773
RMYMR,Hartismere Hospital,NHS TRUST SITE,IP237BH,RMY,52.323269,1.140236,E02006261
RW40A,Hartley Hospital,NHS TRUST SITE,PR86PL,RW4,53.640182,-2.983572,E02001436
RXX26,Haslemere Hospital,NHS TRUST SITE,GU272BJ,RXX,51.091746,-0.708282,E02006454
RHU17,Havant War Memorial Hospital,NHS TRUST SITE,PO91NG,RHU,50.854326,-0.989896,E02006822
RWF09,Hawkhurst Hospital,NHS TRUST SITE,TN184PU,RWF,51.048845,0.489017,E02005175
RJE07,Haywood Hospital,NHS TRUST SITE,ST67AG,RJE,53.056944,-2.191413,E02002956
RCDXK,Hbss St. James University Hospital,NHS TRUST SITE,LS97TF,RCD,53.806869,-1.520359,E02002393
RY844,Heanor Memorial Hospital 2,NHS TRUST SITE,DE757EA,RY8,53.010069,-1.34764,E02004041
RHW30,Heatherwood Hospital,NHS TRUST SITE,SL58AA,RHW,51.410166,-0.687352,E02003437
RH802,Heavitree Hospital,NHS TRUST SITE,EX12ED,RH8,50.724387,-3.514024,E02004156
RMY01,Hellesdon Hospital,NHS TRUST SITE,NR65BE,RMY,52.659531,1.250872,E02005529
REF86,Helston Hospital,NHS TRUST SITE,TR138DR,REF,50.091946,-5.264928,E02003928
RQY06,Henderson Hospital,NHS TRUST SITE,SM25LT,RQY,51.349828,-0.198763,E02006836
RDY12,Herbert Hospital,NHS TRUST SITE,BH48EW,RDY,50.716727,-1.904421,E02006885
RTE83,Hereford County Hospital,NHS TRUST SITE,HR12ER,RTE,52.057013,-2.705709,E02002916
RWH23,Hertford County Hospital,NHS TRUST SITE,SG141LP,RWH,51.796491,-0.088509,E02004894
RWR26,Herts And Essex Hospital,NHS TRUST SITE,CM235JH,RWR,51.865482,0.174321,E02004882
RX471,Hexham General Hospital,NHS TRUST SITE,NE461QJ,RX4,54.970372,-2.095702,E02005730
RHANM,Highbury Hospital,NHS TRUST SITE,NG69DR,RHA,52.993059,-1.191851,E02002871
RXT28,Highcroft Hospital,NHS TRUST SITE,B236AL,RXT,52.519439,-1.855192,E02001857
RWW46,Highfield Hospital,NHS TRUST SITE,WA87DJ,RWW,53.374051,-2.735534,E02002578
RF4HG,Highgate Private Hospital,NHS TRUST SITE,N64DJ,RF4,51.577167,-0.155888,E02000426
RV3AN,Hillingdon Hospital,NHS TRUST SITE,UB83NN,RV3,51.526077,-0.461175,E02000510
RGT76,Hinchingbrooke Hospital,NHS TRUST SITE,PE296NT,RGT,52.33335,-0.202679,E02003764
RLT50,Hinckley & District Hospital,NHS TRUST SITE,LE101AG,RLT,52.539751,-1.368258,E02005386
S7L7S,Hinckley And Bosworth Community Hospital,NHS TRUST SITE,LE103FR,RWE,52.561022,-1.370037,E02005385
RXTM9,Hob Drug Intervention Programme Hospital Prescriber,NHS TRUST SITE,B13RA,RXT,52.482634,-1.913766,E02006898
RWDLK,Holbeach Hospital,NHS TRUST SITE,PE128AQ,RWD,52.81689,0.002513,E02005466
RTV34,Hollins Park Hospital Older Persons,NHS TRUST SITE,WA28WA,RTV,53.429516,-2.606862,E02002592
RAJ54,Holly House Private Hospital,NHS TRUST SITE,IG95HX,RAJ,51.624512,0.032013,E02004541
RWY11,Holmevalley Memorial Hospital,NHS TRUST SITE,HD93TS,RWY,53.578715,-1.784425,E02002328
A1Y7Q,Holsworthy Hospital,NHS TRUST SITE,EX226JQ,RH8,50.81832,-4.349661,E02004227
RA262,Holycross Hospital,NHS TRUST SITE,GU271NQ,RA2,51.090618,-0.736366,E02006455
RXYH7,Homeopathic Hospital,NHS TRUST SITE,TN11JU,RXY,51.132036,0.259754,E02005169
RQXM1,Homerton University Hospital,NHS TRUST SITE,E96SR,RQX,51.550634,-0.046099,E02000363
RH854,Honiton Hospital,NHS TRUST SITE,EX142DE,RH8,50.794926,-3.186577,E02004130
RY584,Horncastle War Memorial Hospital,NHS TRUST SITE,LN95DX,RY5,53.21022,-0.114361,E02005434
RV904,Hornsea Cottage Hospital,NHS TRUST SITE,HU181LP,RV9,53.915277,-0.16825,E02002695
RPC30,Horsham Hospital,NHS TRUST SITE,RH122DR,RPC,51.069888,-0.323827,E02006593
RHW28,Horton Hospital,NHS TRUST SITE,OX169AL,RHW,52.053489,-1.336883,E02005927
RGT97,Hospital,NHS TRUST SITE,CB249EL,RGT,52.244764,0.113364,E02003780
R0L5U,Hospital At Home,NHS TRUST SITE,OX39DX,RTH,51.762877,-1.216404,E02005945
RRVRH,Hospital For Tropical Diseases,NHS TRUST SITE,WC1E6JD,RRV,51.523158,-0.13541,E02000191
RWV94,Hospital Lane,NHS TRUST SITE,EX13PQ,RWV,50.73179,-3.482394,E02004155
RKB03,Hospital Of St. Cross,NHS TRUST SITE,CV225PX,RKB,52.365275,-1.259031,E02006500
V1Z2W,Hospital Of St. John And St. Elizabeth,NHS TRUST SITE,NW89NH,RYX,51.533473,-0.175461,E02000960
R1LCM,Hospital Road Health Centre,NHS TRUST SITE,CO33HJ,R1L,51.887092,0.890197,E02004518
RMYNE,Hospital Road Site,NHS TRUST SITE,IP333NR,RMY,52.240454,0.708554,E02006279
V2X8Z,Hospital@Home,NHS TRUST SITE,TA12PX,RH5,51.014082,-3.067996,E02006104
RA228,Hrh Princess Christians Hospital,NHS TRUST SITE,SL45AD,RA2,51.479905,-0.612772,E02003432
RXP63,Hundens Lane Day Hospital,NHS TRUST SITE,DL11JE,RXP,54.524867,-1.537572,E02002567
R1CA9,Huntercombe Manor Hospital,NHS TRUST SITE,SL60PQ,R1C,51.518794,-0.65911,E02003693
RHM33,Hythe Hospital,NHS TRUST SITE,SO454ZB,RHM,50.858581,-1.402913,E02004787
RT115,Ida Darwin Hospital,NHS TRUST SITE,CB215EE,RT1,52.185594,0.200379,E02003785
A2A2M,Ilfracombe Hospital,NHS TRUST SITE,EX348JF,RH8,51.204514,-4.12442,E02004177
RY8RH,Ilkeston Community Hospital,NHS TRUST SITE,DE78LN,RY8,52.988092,-1.320818,E02006828
RWYC6,Ilkley Coronation Hospital,NHS TRUST SITE,LS298TH,RWY,53.923558,-1.816048,E02002183
E5E1O,Ipswich Hospital Elective Surgical Hub,NHS TRUST SITE,IP45PD,RDE,52.056849,1.197915,E02006253
RNQ52,Isebrook Hospital,NHS TRUST SITE,NN81LP,RNQ,52.29767,-0.683359,E02005695
RMY83,James Paget Hospital,NHS TRUST SITE,NR316LA,RMY,52.561672,1.71798,E02005548
RXT34,John Black Day Hospital,NHS TRUST SITE,B377JB,RXT,52.469562,-1.739254,E02002089
RWDAS,John Coupland Hospital,NHS TRUST SITE,DN212TJ,RWD,53.411846,-0.784791,E02005495
RHW12,John Radcliffe Hospital,NHS TRUST SITE,OX39DU,RHW,51.763867,-1.219773,E02005945
RWDLD,Johnson Hospital,NHS TRUST SITE,PE113DT,RWD,52.801469,-0.15089,E02005469
RMY02,Julian Hospital,NHS TRUST SITE,NR23TD,RMY,52.633009,1.262597,E02005589
RY335,Kelling Hospital,NHS TRUST SITE,NR256QA,RY3,52.914476,1.116042,E02005573
RXG82,Kendray Hospital,NHS TRUST SITE,S703RD,RXG,53.546954,-1.454617,E02001523
RVVKC,Kent & Canterbury Hospital,NHS TRUST SITE,CT13NG,RVV,51.266589,1.087083,E02005025
RXY09,Kent & Sussex Hospital,NHS TRUST SITE,TN48AT,RXY,51.135499,0.259737,E02005169
RNQ51,Kettering General Hospital,NHS TRUST SITE,NN168UZ,RNQ,52.402783,-0.741293,E02005645
RWP31,Kidderminster Hospital,NHS TRUST SITE,DY116RJ,RWP,52.386056,-2.261161,E02006774
Z4O9E,King Edward V11 Hospital,NHS TRUST SITE,W1G6AA,RQM,51.520778,-0.150325,E02000970
RA222,King Edward Vii Hospital,NHS TRUST SITE,GU290BJ,RA2,51.016962,-0.74442,E02006564
RHW03,King Edward Vii Hospital,NHS TRUST SITE,SL43DP,RHW,51.473543,-0.614707,E02003435
RP413,King George Hospital,NHS TRUST SITE,IG38XG,RP4,51.571265,0.111547,E02000772
RJZ01,Kings College Hospital,NHS TRUST SITE,SE59RS,RJZ,51.468077,-0.093916,E02000631
K4C9B,Kings Mill Hospital,NHS TRUST SITE,NG33AA,RHA,52.973168,-1.123992,E02002883
RX1BC,Kings Mill Hospital Site,NHS TRUST SITE,NG174JL,RX1,53.134573,-1.233579,E02005822
RDY02,Kings Park Hospital,NHS TRUST SITE,BH76JF,RDY,50.731593,-1.833361,E02003182
RAX86,Kingston Hospital Out,NHS TRUST SITE,KT198AG,RAX,51.334192,-0.266306,E02006342
RXM14,Kingsway Hospital,NHS TRUST SITE,DE223LZ,RXM,52.91807,-1.512351,E02002812
X3E8K,Kinvara Hospital,NHS TRUST SITE,S652AJ,RHQ,53.42804,-1.34623,E02001594
RLQWT,Knighton Community Hospital,NHS TRUST SITE,LD71DF,RLQ,52.342012,-3.049536,W02000107
RJN68,Knutsford & District Community Hospital,NHS TRUST SITE,WA160BT,RJN,53.302017,-2.378603,E02003863
RTR28,Lambert Memorial Community Hospital,NHS TRUST SITE,YO71LU,RTR,54.23168,-1.342391,E02005757
RX3CL,Lanchester Road Hospital,NHS TRUST SITE,DH15RD,RX3,54.800429,-1.612241,E02004310
RX2P0,Langley Green Hospital,NHS TRUST SITE,RH117SE,RX2,51.13084,-0.191546,E02006575
RYX94,Langley House Community Hospital,NHS TRUST SITE,WD259FG,RYX,51.683651,-0.391206,E02004970
RJ870,Launceston Hospital,NHS TRUST SITE,PL159JD,RJ8,50.628374,-4.359805,E02003935
RJC46,Leamington Spa Hospital,NHS TRUST SITE,CV346SR,RJC,52.268556,-1.540406,E02006530
RXX37,Leatherhead Hospital,NHS TRUST SITE,KT228SD,RXX,51.295052,-0.320287,E02006365
RR802,Leeds Dental Hospital,NHS TRUST SITE,LS29LU,RR8,53.803374,-1.555716,E02002392
RJN55,Leek Moorlands Hospital,NHS TRUST SITE,ST135BQ,RJN,53.102789,-2.009712,E02006204
RWE03,Leicester General Hospital Urology Department,NHS TRUST SITE,LE54PW,RWE,52.629926,-1.081764,E02002845
E5O6X,Leigh Moss Hospital,NHS TRUST SITE,L145NX,RW4,53.416405,-2.892653,E02001372
RXAD6,Leighton Hospital,NHS TRUST SITE,CW12LZ,RXA,53.097848,-2.445088,E02003830
RLQ06,Leominster Community Hospital,NHS TRUST SITE,HR68JH,RLQ,52.222181,-2.739374,E02002907
A0V8Y,Lewes Victoria Hospital,NHS TRUST SITE,BN71PE,RYR,50.875156,-0.005532,E02004383
RWRG7,Lexden Hospital,NHS TRUST SITE,CO34DB,RWR,51.891099,0.855032,E02004514
RWDDA,Lincoln County Hospital,NHS TRUST SITE,LN25QY,RWD,53.233575,-0.519635,E02005444
C9K7A,Lincoln Hospital,NHS TRUST SITE,LN21QU,RX1,53.238106,-0.533101,E02005444
RHANN,Lings Bar Hospital,NHS TRUST SITE,NG26PR,RHA,52.922565,-1.099816,E02005911
RK920,Liskeard Community Hospital,NHS TRUST SITE,PL143XD,RK9,50.461585,-4.450981,E02003895
RWR34,Lister Hospital,NHS TRUST SITE,SG14AB,RWR,51.924611,-0.212726,E02004945
RWRF3,Little Plumstead Hospital,NHS TRUST SITE,NR135EW,RWR,52.646496,1.409584,E02005527
RBQHQ,Liverpool Heart And Chest Hospital Nhs Trust Hq,NHS TRUST SITE,L143PE,RBQ,53.411151,-2.897989,E02001372
REP01,Liverpool Womens Hospital,NHS TRUST SITE,L87SS,REP,53.398461,-2.960077,E02001377
RLQ11,Llandrindod Wells Hospital,NHS TRUST SITE,LD15HF,RLQ,52.242118,-3.377453,W02000109
RRV88,London Independent Hospital,NHS TRUST SITE,E14NL,RRV,51.520402,-0.046744,E02000879
RXMF4,London Road Community Hospital,NHS TRUST SITE,DE12QY,RXM,52.914332,-1.468643,E02002813
RW5AQ,Longridge Community Hospital,NHS TRUST SITE,PR33WQ,RW5,53.832154,-2.607686,E02005275
RJE06,Longton Hospital,NHS TRUST SITE,ST34QX,RJE,52.977948,-2.122332,E02002979
RWELL,Loughborough Hospital,NHS TRUST SITE,LE115JY,RWE,52.773291,-1.225946,E02005347
RJL49,Louth County Hospital,NHS TRUST SITE,LN110EU,RJL,53.37101,-0.008582,E02005426
RGP72,Lowestoft Hospital,NHS TRUST SITE,NR321PT,RGP,52.479632,1.752935,E02006305
RXWML,Ludlow Hospital,NHS TRUST SITE,SY81QX,RXW,52.373652,-2.714448,E02006045
RC971,Luton & Dunstable Hospital,NHS TRUST SITE,LU40DZ,RC9,51.894152,-0.474405,E02003270
A2D2A,Lydney Hospital,NHS TRUST SITE,GL155JE,RTQ,51.727315,-2.536896,E02004634
RHM38,Lymington Hospital,NHS TRUST SITE,SO418QD,RHM,50.769099,-1.545476,E02004797
RXT40,Lyndon Day Hospital & South Resource Centre,NHS TRUST SITE,B928PW,RXT,52.442703,-1.78571,E02002092
RGD0A,Lynfield Mount Hospital,NHS TRUST SITE,BD96DP,RGD,53.809728,-1.805354,E02002212
RW5GD,Lytham Hospital,NHS TRUST SITE,FY85EE,RW5,53.738478,-2.947329,E02005211
RJN71,Macclesfield District General Hospital,NHS TRUST SITE,SK103BL,RJN,53.262321,-2.141074,E02003869
RGDEA,Malham House Day Hospital,NHS TRUST SITE,LS29LN,RGD,53.804078,-1.558852,E02002392
RCD1A,Malton Community Hospital,NHS TRUST SITE,YO177NG,RCD,54.137245,-0.806547,E02007045
R1ADC,Malvern Community Hospital,NHS TRUST SITE,WR141EX,R1A,52.123848,-2.322859,E02006713
R0A01,Manchester University Hospital Nhs Ft,NHS TRUST SITE,M139WL,R0A,53.462436,-2.227711,E02001062
RTH90,Manor Hospital,NHS TRUST SITE,OX37RP,RTH,51.760443,-1.215533,E02005945
RBK02,Manor Hospital,NHS TRUST SITE,WS29PS,RBK,52.58233,-1.998924,E02002135
RVJ23,Manor Park Hospital,NHS TRUST SITE,BS162EW,RVJ,51.483145,-2.538833,E02003024
RHABL,Mansfield Community Hospital,NHS TRUST SITE,NG185QJ,RHA,53.141379,-1.206279,E02005887
RRE0K,"Market Drayton Cmht, Cottage Hospital",NHS TRUST SITE,TF93DQ,RRE,52.90176,-2.487914,E02006018
RWELK,Market Harborough And District Hospital,NHS TRUST SITE,LE169DD,RWE,52.477312,-0.927178,E02005374
A5N4M,Marlow Hospital,NHS TRUST SITE,SL71DJ,RXQ,51.573569,-0.77043,E02003718
RNNCJ,Mary Hewetson Cottage Hospital,NHS TRUST SITE,CA125PH,RNN,54.6067,-3.139824,E02003976
RNNCA,Maryport Hospital,NHS TRUST SITE,CA158EJ,RNN,54.707019,-3.495034,E02003969
RP1E9,Mayfair Day Hospital,NHS TRUST SITE,NN157HP,RP1,52.394007,-0.728022,E02005645
RATDK,Mayflower Community Hospital,NHS TRUST SITE,CM129SA,RAT,51.622488,0.400649,E02004427
RTVH8,Meadow Park Independent Hospital,NHS TRUST SITE,CH661LL,RTV,53.288868,-2.92352,E02003843
RHANJ,Meadowbank Day Hospital,NHS TRUST SITE,NG22DF,RHA,52.942657,-1.149906,E02006905
RVVMD,Medway Hospital,NHS TRUST SITE,ME75NY,RVV,51.379862,0.542062,E02003325
RN332,Melksham Community Hospital,NHS TRUST SITE,SN127NZ,RN3,51.367131,-2.131543,E02006680
RPGAG,Memorial Hospital,NHS TRUST SITE,SE183RG,RPG,51.468576,0.064111,E02000332
RP7FQ,Mental Health Long Term Rehabilitation & Day Hospital,NHS TRUST SITE,LN11FS,RP7,53.244029,-0.556905,E02005444
RW402,Mersey Care Nhs Trust At Aintree Hospital,NHS TRUST SITE,L97AL,RW4,53.466323,-2.931104,E02001351
I3W1A,Midland Metropolitan University Hospital,NHS TRUST SITE,B662QT,RXK,52.490713,-1.949691,E02006943
RWK28,Mile End Hospital,NHS TRUST SITE,E14DG,RWK,51.525048,-0.042206,E02000873
RA224,Milford Hospital,NHS TRUST SITE,GU71UF,RA2,51.167895,-0.625399,E02006450
RHM59,Milford On Sea War Memorial Hospital,NHS TRUST SITE,SO410PG,RHM,50.722429,-1.589518,E02004801
RX213,Mill View Hospital,NHS TRUST SITE,BN37HY,RX2,50.842041,-0.189766,E02003503
RTXKM,Millom Hospital,NHS TRUST SITE,LA184BY,RTX,54.20894,-3.268021,E02004007
RD816,Milton Keynes Hospital,NHS TRUST SITE,MK65LD,RD8,52.026384,-0.73576,E02003476
A5T0F,Minehead Comm Hospital,NHS TRUST SITE,TA246DF,RH5,51.200109,-3.461912,E02006114
RL105,Mold Community Hospital,NHS TRUST SITE,CH71XG,RL1,53.169771,-3.147795,W02000073
RAX07,Molesey Hospital,NHS TRUST SITE,KT82LU,RAX,51.397531,-0.372542,E02006319
RX450,Monkton Hall Hospital,NHS TRUST SITE,NE325NN,RX4,54.966623,-1.501276,E02001782
RLQ07,Monmouth General Hospital,NHS TRUST SITE,NP253HG,RLQ,51.818088,-2.713052,W02000339
RHQMH,Montagu Hospital,NHS TRUST SITE,S640AZ,RHQ,53.499814,-1.284946,E02001569
RTE22,Moore Cottage Hospital,NHS TRUST SITE,GL542AZ,RTE,51.886317,-1.75678,E02004617
RP622,Moorfields Community Eye Clinic Bedford Hospital,NHS TRUST SITE,MK402NT,RP6,52.141913,-0.45979,E02003624
RP616,Moorfields Eye Centre At Bedford Hospital,NHS TRUST SITE,MK429DJ,RP6,52.128265,-0.472495,E02003630
RP608,Moorfields Eye Centre At Croydon University Hospital,NHS TRUST SITE,CR77YE,RP6,51.389128,-0.108758,E02000208
RP610,Moorfields Eye Centre At Ealing Hospital,NHS TRUST SITE,UB13HW,RP6,51.507606,-0.345495,E02000266
RP606,Moorfields Eye Centre At Northwick Park Hospital,NHS TRUST SITE,HA13UJ,RP6,51.575407,-0.322037,E02000100
RP604,Moorfields Eye Centre At St. Georges Hospital,NHS TRUST SITE,SW170QT,RP6,51.426682,-0.175694,E02000956
RP601,Moorfields Eye Hospital,NHS TRUST SITE,EC1V2PD,RP6,51.527246,-0.089889,E02000576
RP605,Moorfields Eye Unit At Potters Bar Hospital Community Hospital,NHS TRUST SITE,EN62RY,RP6,51.687184,-0.177519,E02004898
RHM16,Moorgreen Hospital,NHS TRUST SITE,SO303JB,RHM,50.92864,-1.323376,E02004720
RTQ86,Moreton In Marsh Hospital,NHS TRUST SITE,GL560BS,RTQ,51.992299,-1.704764,E02004616
RBZ89,Moretonhampstead Hospital,NHS TRUST SITE,TQ138LN,RBZ,50.661475,-3.765981,E02004203
RATDP,Morland Road Day Hospital,NHS TRUST SITE,RM109HU,RAT,51.535187,0.152111,E02000021
RX474,Morpeth Cottage Hospital,NHS TRUST SITE,NE612BT,RX4,55.158354,-1.691879,E02005724
RYW23,Moseley Hall Hospital,NHS TRUST SITE,B138JL,RYW,52.445923,-1.892891,E02001918
RW438,Mossley Hill Hospital,NHS TRUST SITE,L188BU,RW4,53.380405,-2.925545,E02001394
RTK51,Mount Alvernia Hospital,NHS TRUST SITE,GU13LX,RTK,51.235746,-0.564219,E02006356
RK901,Mount Gould Hospital,NHS TRUST SITE,PL47QD,RK9,50.37838,-4.112782,E02003142
RA982,Mount Stuart Hospital,NHS TRUST SITE,TQ14UP,RA9,50.475093,-3.541757,E02003157
RWG01,Mount Vernon Hospital,NHS TRUST SITE,HA62RN,RWG,51.614923,-0.445823,E02000494
RXG84,Mount Vernon Hospital,NHS TRUST SITE,S704DP,RXG,53.537012,-1.472445,E02001529
RH5A8,Musgrove Park Hospital,NHS TRUST SITE,TA15DA,RH5,51.011569,-3.121702,E02006109
RRVNQ,National Hospital For Neurology & Neurosurgery,NHS TRUST SITE,WC1N3BG,RRV,51.522171,-0.122001,E02000193
RQY42,Nelson Hospital,NHS TRUST SITE,SW208DA,RQY,51.40983,-0.2102,E02000699
RX214,Nevill Hospital,NHS TRUST SITE,BN37JW,RX2,50.841566,-0.192185,E02003503
RYWT3,New Birmingham Dental Hospital,NHS TRUST SITE,B57SA,RYW,52.4518,-1.912271,E02001905
RT1FC,New Cottages Day Hospital,NHS TRUST SITE,CB61DN,RT1,52.413145,0.275488,E02003734
RL403,New Cross Hospital,NHS TRUST SITE,WV100QP,RL4,52.599722,-2.095555,E02002163
RXP35,New Richardson Hospital,NHS TRUST SITE,DL128HT,RXP,54.545708,-1.916153,E02007022
RTQAB,New Tewkesbury Community Hospital,NHS TRUST SITE,GL205QJ,RTQ,51.992807,-2.149509,E02004667
RAX58,New Victoria Hospital,NHS TRUST SITE,KT27EG,RAX,51.415694,-0.254289,E02000599
RX1HP,Newark Hospital Site,NHS TRUST SITE,NG244DE,RX1,53.067508,-0.806161,E02005901
RX4E6,Newcastle General Hospital,NHS TRUST SITE,NE46BE,RX4,54.976238,-1.644546,E02001729
RTD13,Newcastle Hospitals @ Cramlington,NHS TRUST SITE,NE236UT,RTD,55.085202,-1.590145,E02005715
W1J5B,Newcastle Hospitals @ Metro Centre,NHS TRUST SITE,NE119YR,RTD,54.956483,-1.668908,E02001690
R1HNH,Newham General Hospital,NHS TRUST SITE,E138SL,R1H,51.522776,0.034717,E02000741
RX2J9,Newhaven Hillrise Day Hospital,NHS TRUST SITE,BN99HH,RX2,50.791692,0.041639,E02004387
RY8NA,Newholme Hospital,NHS TRUST SITE,DE451AD,RY8,53.218791,-1.67234,E02007029
RGR44,Newmarket Community Hospital,NHS TRUST SITE,CB87JG,RGR,52.250892,0.399994,E02006243
RJ807,Newquay Hospital,NHS TRUST SITE,TR71RQ,RJ8,50.411057,-5.07421,E02003955
RK913,Newton Abbot Community Hospital,NHS TRUST SITE,TQ122TS,RK9,50.539359,-3.612255,E02004212
RWV37,Newton Abbot Hospital,NHS TRUST SITE,TQ124PT,RWV,50.528653,-3.60801,E02004215
RTV46,Newton Community Hospital,NHS TRUST SITE,WA128RB,RTV,53.445979,-2.635267,E02001420
RL107,Newtown Hospital,NHS TRUST SITE,SY162DW,RL1,52.521377,-3.31417,W02000104
RRKE6,Nhs Nightingale Hospital Birmingham,NHS TRUST SITE,B401NT,RRK,52.453063,-1.720052,E02002089
RH8K6,Nhs Nightingale Hospital Exeter,NHS TRUST SITE,EX27JG,RH8,50.724639,-3.464586,E02004159
R1H0A,Nhs Nightingale Hospital London,NHS TRUST SITE,E161XL,R1H,51.508134,0.028646,E02000749
R5T3F,Nhs Nightingale Hospital Manchester,NHS TRUST SITE,M34LP,RBN,53.476333,-2.248832,E02006917
RTDHN,Nhs Nightingale Hospital North East,NHS TRUST SITE,NE360BB,RTD,54.929108,-1.480686,E02001797
R0A90,Nhs Nightingale Hospital North West,NHS TRUST SITE,M23GX,R0A,53.476203,-2.247281,E02006917
RW5QB,Nhs Nightingale Hospital Preston,NHS TRUST SITE,PR12HE,RW5,53.761338,-2.707384,E02005264
RR805,Nhs Nightingale Hospital Yorkshire And The Humber,NHS TRUST SITE,HG15LA,RR8,53.996848,-1.541365,E02005775
RJZ06,Nightingale Hospital Bristol,NHS TRUST SITE,BS161ZG,RJZ,51.503299,-2.549272,E02007066
RM102,Norfolk & Norwich University Hospital,NHS TRUST SITE,NR47UY,RM1,52.617567,1.221195,E02005598
O6K7U,Norfolk And Norwich University Hospital,NHS TRUST SITE,NR47UQ,RM1,52.619818,1.218789,E02005598
RCX66,North Cambridgeshire Hospital,NHS TRUST SITE,PE133AB,RCX,52.664936,0.163913,E02003743
A2E5F,North Cotswolds Hospital,NHS TRUST SITE,GL560DS,RTQ,51.983554,-1.705957,E02004616
RTR53,North Cumbria University Hospital,NHS TRUST SITE,CA27HY,RTR,54.896504,-2.957796,E02003994
RH880,North Devon District Hospital,NHS TRUST SITE,EX314JB,RH8,51.092169,-4.050431,E02004181
RVRJ8,North Downs Hospital,NHS TRUST SITE,CR36DP,RVR,51.273556,-0.079153,E02006431
RXTM3,North Drug Intervention Programme Hospital Prescriber,NHS TRUST SITE,B448NA,RXT,52.53461,-1.897152,E02001845
RNZ58,North Hampshire Hospital,NHS TRUST SITE,RG249NA,RNZ,51.280633,-1.109918,E02004684
R2F2U,North Manchester General Hospital,NHS TRUST SITE,M139WU,R0A,53.463522,-2.22761,E02001062
RW602,North Manchester General Hospital,NHS TRUST SITE,M85RB,RW6,53.517882,-2.229502,E02001050
RRP36,North Middlesex Hospital,NHS TRUST SITE,N181QX,RRP,51.613094,-0.07375,E02006793
RXT53,North Resource Centre & Day Hospital,NHS TRUST SITE,B377RW,RXT,52.471602,-1.739242,E02002089
RX4A6,North Tyneside General Hospital,NHS TRUST SITE,NE298NH,RX4,55.025241,-1.46734,E02001750
RM107,North Walsham Cottage Hospital,NHS TRUST SITE,NR289AP,RM1,52.814008,1.387604,E02007033
RNS01,Northampton General Hospital,NHS TRUST SITE,NN15BD,RNS,52.236068,-0.883829,E02005674
RXT54,Northcroft Hospital,NHS TRUST SITE,B236DW,RXT,52.52317,-1.855828,E02001857
RCU03,Northern General Hospital,NHS TRUST SITE,S57AU,RCU,53.409821,-1.455965,E02001630
A3N6A,Northgate Hospital,NHS TRUST SITE,NR301BU,RMY,52.616934,1.730032,E02005541
G7Y0P,"Northgate Hospital, Cntw Foundation Trust",NHS TRUST SITE,NE613BP,RTF,55.184911,-1.711886,E02005722
RTF86,Northumbria Specialist Emergency Care Hospital,NHS TRUST SITE,NE236NZ,RTF,55.074089,-1.569492,E02005718
RY312,Norwich Community Hospital,NHS TRUST SITE,NR23TU,RY3,52.633947,1.262489,E02005589
RHALB,Nottingham City Hospital,NHS TRUST SITE,NG51PB,RHA,52.991254,-1.158424,E02002874
RX1RA,Nottingham University Hospitals Nhs Trust,NHS TRUST SITE,NG72UH,RX1,52.943799,-1.185957,E02002898
E3B7Q,Nottingham Woodthorpe Hospital,NHS TRUST SITE,NG53FZ,RX1,52.990481,-1.138629,E02005873
RA704,Nuffield Health Bristol Hospital,NHS TRUST SITE,BS81BN,RA7,51.453605,-2.615998,E02003041
RGT98,Nuffield Health Cambridge Hospital,NHS TRUST SITE,CB28AF,RGT,52.190043,0.123963,E02007087
RYR23,Nuffield Health Chichester Hospital,NHS TRUST SITE,PO196WB,RYR,50.847978,-0.780027,E02006568
O0A1Z,Nuffield Health Leeds Hospital,NHS TRUST SITE,LS13EB,RHQ,53.800655,-1.554272,E02006875
RLQWX,Nuffield Health Shrewsbury Hospital,NHS TRUST SITE,SY39DP,RLQ,52.692253,-2.771455,E02006037
G2T5N,Nuffield Health Wessex Hospital,NHS TRUST SITE,SO532DW,RYR,50.9945,-1.362959,E02004712
RAJ49,Nuffield Hospital,NHS TRUST SITE,CM158EH,RAJ,51.623337,0.312848,E02004468
RDENF,Nuffield Hospital,NHS TRUST SITE,IP45SW,RDE,52.047521,1.228931,E02006297
RL408,Nuffield Hospital,NHS TRUST SITE,WV68LE,RL4,52.593461,-2.171537,E02002162
RTDAM,Nuffield Hospital Newcastle Upon Tyne,NHS TRUST SITE,NE21JP,RTD,54.986613,-1.605293,E02001724
RTR64,Nuffield Tees Hospital,NHS TRUST SITE,TS201PX,RTR,54.593996,-1.331957,E02002540
RJC1V,Nuffield Warwickshire Hospital,NHS TRUST SITE,CV326RW,RJC,52.308959,-1.54335,E02006523
RGDPV,Nurses Home Meanwood Park Hospital,NHS TRUST SITE,LS64QD,RGD,53.840013,-1.559158,E02002354
RRF72,Oaklands Hospital,NHS TRUST SITE,M68AQ,RRF,53.492297,-2.321064,E02001177
RW11F,Odiham Cottage Hospital,NHS TRUST SITE,RG291NE,RW1,51.251781,-0.939803,E02004761
RWV13,Okehampton Community Hospital,NHS TRUST SITE,EX201PN,RWV,50.741913,-3.997201,E02004230
RAJ1W,Old Church Hospital,NHS TRUST SITE,RM79BH,RAJ,51.574857,0.177911,E02000476
RQY54,Old Hospital Close,NHS TRUST SITE,SW128SR,RQY,51.442821,-0.163449,E02000951
RXEA2,Older Peoples Day Hospital,NHS TRUST SITE,DN48QP,RXE,53.494832,-1.145978,E02001566
RPA90,One Ashford Hospital,NHS TRUST SITE,TN240YS,RPA,51.142225,0.910924,E02005001
O4C8N,One Hatfield Hospital,NHS TRUST SITE,AL109UA,RLQ,51.770813,-0.235553,E02004989
W1R4F,Optegra Manchester Hospital,NHS TRUST SITE,M202EY,RWY,53.430096,-2.249948,E02001083
RHM0P,Optegra Solent Eye Hospital,NHS TRUST SITE,PO157AD,RHM,50.878121,-1.244396,E02004841
RA20V,Optegra Surrey Eye Hospital,NHS TRUST SITE,GU27YF,RA2,51.241157,-0.61326,E02006355
H5Q1V,Optegra Yorkshire Hospital,NHS TRUST SITE,BD100RD,RWY,53.832393,-1.710376,E02002201
RVY02,Ormskirk & District General Hospital,NHS TRUST SITE,L392AZ,RVY,53.564616,-2.871252,E02005310
RJ130,Orpington Hospital,NHS TRUST SITE,BR69JU,RJ1,51.362502,0.09515,E02000161
RAJ20,Orsett Hospital,NHS TRUST SITE,RM163EU,RAJ,51.509495,0.366283,E02003299
RBZ81,Ottery St. Mary Hospital,NHS TRUST SITE,EX111DN,RBZ,50.750113,-3.291574,E02004136
RTH13,Oxford City Community Hospital,NHS TRUST SITE,OX37JU,RTH,51.749654,-1.214213,E02005949
S3I7I,Oxford University Hospitals Nhs Trust,NHS TRUST SITE,OX42PG,RTH,51.729674,-1.184906,E02007021
RTP07,Oxted & Limpsfield Hospital,NHS TRUST SITE,RH80LP,RTP,51.263975,-0.012111,E02006433
RXQ92,Paddocks Hospital,NHS TRUST SITE,HP270JS,RXQ,51.729437,-0.824559,E02003696
A5V8M,Paignton Hospital,NHS TRUST SITE,TQ33AG,RA9,50.437137,-3.5688,E02003167
RX449,Palmer Community Hospital,NHS TRUST SITE,NE323UX,RX4,54.980657,-1.491977,E02001774
RHQPK,Park Hill Hospital,NHS TRUST SITE,DN25TH,RHQ,53.530364,-1.111618,E02001556
RJN67,Parkside Hospital,NHS TRUST SITE,SK103JF,RJN,53.262944,-2.153744,E02003867
RAX59,Parkside Hospital,NHS TRUST SITE,SW195NX,RAX,51.435762,-0.223584,E02000690
RGP82,Patrick Stead Hospital,NHS TRUST SITE,IP198HP,RGP,52.34806,1.507338,E02006316
RN3C3,Paulton Memorial Hospital,NHS TRUST SITE,BS397SB,RN3,51.298674,-2.493295,E02003007
RNNBG,Pcas Alston Hospital,NHS TRUST SITE,CA93QX,RNN,54.810206,-2.439835,E02004008
RXR50,Pendle Community Hospital,NHS TRUST SITE,BB99SZ,RXR,53.836817,-2.213345,E02005248
RKL34,Penny Sangham Day Hospital,NHS TRUST SITE,UB24EU,RKL,51.503043,-0.379996,E02000275
RTR26,Penrith Hospital,NHS TRUST SITE,CA118HX,RTR,54.656994,-2.743275,E02004010
R1ACW,Pershore Hospital,NHS TRUST SITE,WR101PS,R1A,52.114052,-2.077775,E02006759
RGN80,Peterborough City Hospital,NHS TRUST SITE,PE39GZ,RGN,52.583921,-0.279386,E02003251
RGN42,Peterborough District Hospital,NHS TRUST SITE,PE36DA,RGN,52.57324,-0.255455,E02003252
RVWSX,Peterlee Community Hospital,NHS TRUST SITE,SR85UQ,RVW,54.754067,-1.333039,E02004329
RW170,Petersfield Hospital,NHS TRUST SITE,GU323LB,RW1,51.003885,-0.942399,E02004708
RFRP2,"Photopheresis Service, Leeds Teaching Hospitals",NHS TRUST SITE,LS13EX,RFR,53.801445,-1.551744,E02006875
RN740,Physio Livingstone Community Hospital,NHS TRUST SITE,DA11SA,RN7,51.442226,0.226798,E02005035
RJL79,Pilgrim Hospital,NHS TRUST SITE,PE219QS,RJL,52.991125,-0.009968,E02005419
RR864,Pinderfields General Hospital,NHS TRUST SITE,WF14DG,RR8,53.692418,-1.488555,E02002454
RK968,Plymouth Nuffield Hospital,NHS TRUST SITE,PL68BG,RK9,50.418667,-4.114461,E02003126
REF26,Poltair Hospital,NHS TRUST SITE,TR208SR,REF,50.131662,-5.559865,E02003947
RD300,Poole General Hospital,NHS TRUST SITE,BH152JB,RD3,50.721987,-1.973117,E02003208
RBD08,Portland Hospital,NHS TRUST SITE,DT51AX,RBD,50.565817,-2.444822,E02004288
E1K7J,Practise Plus Group Hospital,NHS TRUST SITE,S434XE,RFR,53.281526,-1.282219,E02004045
RX3GH,Prescribing Guisborough Pc Hospital Older Persons Service,NHS TRUST SITE,TS146HZ,RX3,54.538835,-1.052162,E02002532
RX3HQ,Prescribing St. Lukes Hospital Rehab,NHS TRUST SITE,TS43AF,RX3,54.555732,-1.217681,E02002506
RWF05,Preston Hall Hospital,NHS TRUST SITE,ME207NJ,RWF,51.295643,0.480541,E02005153
L9R6Q,Prestwich Hospital,NHS TRUST SITE,M253BL,RXV,53.536749,-2.291465,E02001040
R0B1A,Primrose Hill Hospital,NHS TRUST SITE,NE325HA,R0B,54.967655,-1.485721,E02001784
RRJ31,Prince Of Wales Community Hospital,NHS TRUST SITE,B610BB,RRJ,52.344136,-2.055662,E02006703
RQWG4,Princess Alexandra Private Hospital,NHS TRUST SITE,CM201QX,RQW,51.771529,0.085457,E02004547
RHM12,Princess Anne Hospital,NHS TRUST SITE,SO165YA,RHM,50.935257,-1.434863,E02003550
RTK50,Princess Margaret Hospital,NHS TRUST SITE,SL43SJ,RTK,51.474696,-0.61028,E02003435
RJL51,Princess Royal Hospital,NHS TRUST SITE,HU89HE,RJL,53.776382,-0.279778,E02002661
RX233,Princess Royal Hospital,NHS TRUST SITE,RH164EX,RX2,50.991095,-0.090282,E02006614
RLQ19,Princess Royal Hospital,NHS TRUST SITE,TF16TF,RLQ,52.712107,-2.511491,E02002934
RJ132,Princess Royal University Hospital,NHS TRUST SITE,BR68ND,RJ1,51.366243,0.059146,E02000162
RTFDE,Priory Day Hospital,NHS TRUST SITE,NE290SF,RTF,55.011193,-1.456596,E02001759
RF4PH,Private Hospitals,NHS TRUST SITE,RM30PU,RF4,51.591379,0.233133,E02000470
RWX51,Prospect Park Hospital,NHS TRUST SITE,RG304EJ,RWX,51.449145,-1.014748,E02003403
RX41G,Prudhoe Hospital Team C,NHS TRUST SITE,NE425PB,RX4,54.94983,-1.841328,E02005731
Z3M8V,Purley Hospital,NHS TRUST SITE,CR82YL,RJ6,51.34074,-0.114466,E02000230
A9Z7S,Qe Surgery At Freeman Hospital,NHS TRUST SITE,NE77DN,RR7,55.002783,-1.593392,E02001714
RNZ23,Queen Alexandra Hospital,NHS TRUST SITE,PO63LY,RNZ,50.850297,-1.069932,E02003525
RTHH6,Queen Elizabeth Hospital,NHS TRUST SITE,B152GW,RTH,52.453198,-1.93847,E02001913
RR7EN,Queen Elizabeth Hospital,NHS TRUST SITE,NE96SX,RR7,54.93938,-1.580781,E02001697
RM114,Queen Elizabeth Hospital,NHS TRUST SITE,PE304ET,RM1,52.75663,0.446694,E02005560
RJ231,Queen Elizabeth Hospital,NHS TRUST SITE,SE184QH,RJ2,51.478193,0.050043,E02000327
RRK15,Queen Elizabeth Hospital Birmingham,NHS TRUST SITE,B152WB,RRK,52.450146,-1.941776,E02001913
RWR35,Queen Elizabeth Ii Hospital,NHS TRUST SITE,AL74HQ,RWR,51.783371,-0.188611,E02004987
RXT62,Queen Elizabeth Psychiatric Hospital,NHS TRUST SITE,B152QZ,RXT,52.450614,-1.941923,E02001913
RXY18,Queen Elizabeth The Queen Mother Hospital,NHS TRUST SITE,CT94AN,RXY,51.378053,1.389385,E02005135
RJ230,Queen Marys Hospital,NHS TRUST SITE,DA146LT,RJ2,51.419041,0.101687,E02000091
RVRA2,"Queen Marys Hospital, Roehampton",NHS TRUST SITE,SW155PN,RVR,51.45555,-0.241729,E02000938
RW5LC,Queen Victoria Hospital,NHS TRUST SITE,LA45QG,RW5,54.072877,-2.858631,E02005226
A4P3T,Queen Victoria Hospital,NHS TRUST SITE,RH193DZ,RPC,51.135073,-0.0029,E02006604
RVV56,Queen Victoria Memorial Hospital Womens Health,NHS TRUST SITE,CT66EB,RVV,51.367885,1.142881,E02005011
RATQH,Queens Hospital,NHS TRUST SITE,RM70AG,RAT,51.568647,0.179031,E02000480
RHA04,Rampton Hospital,NHS TRUST SITE,DN220PD,RHA,53.290647,-0.838941,E02005849
W1K1B,Ramsay Fulwood Hall Hospital,NHS TRUST SITE,PR29SZ,RXN,53.786317,-2.684036,E02005256
D9D3P,Ramsey Buckshawe Hospital,NHS TRUST SITE,PR77NA,RXN,53.686791,-2.672515,E02005302
RW401,Rathbone Hospital,NHS TRUST SITE,L134AW,RW4,53.407566,-2.915589,E02001378
RAX60,Ravenscourt Park Hospital,NHS TRUST SITE,W60TN,RAX,51.496407,-0.241454,E02000379
RTR18,Redcar Primary Care Hospital,NHS TRUST SITE,TS104NW,RTR,54.600591,-1.069722,E02002519
RP1F9,Redcliffe Day Hospital,NHS TRUST SITE,NN85AH,RP1,52.306714,-0.703095,E02005694
RRF60,Renacres Hospital,NHS TRUST SITE,L398SE,RRF,53.600127,-2.950697,E02005306
RHAAC,Retford Hospital,NHS TRUST SITE,DN227XF,RHA,53.325451,-0.950634,E02005839
RW5EF,Ribbleton Hospital,NHS TRUST SITE,PR26LS,RW5,53.771644,-2.657594,E02005261
RX35N,Richardson Hospital,NHS TRUST SITE,DL128ET,RX3,54.546607,-1.917558,E02007022
RW5LA,Ridge Lea Hospital,NHS TRUST SITE,LA13JT,RW5,54.049275,-2.779361,E02005233
RH589,Ridley Day Hospital,NHS TRUST SITE,BA99DQ,RH5,51.058753,-2.418169,E02006079
RXMA7,Ripley Hospital,NHS TRUST SITE,DE53HE,RXM,53.046983,-1.412407,E02004034
RCD02,Ripon And District Community Hospital,NHS TRUST SITE,HG42PR,RCD,54.135436,-1.527195,E02005762
RGT1V,Rivers Hospital,NHS TRUST SITE,CM210HH,RGT,51.807096,0.130457,E02004888
RWEWW,Rmh Day Hospital,NHS TRUST SITE,LE156NT,RWE,52.670802,-0.737539,E02002864
RL131,Robert Jones & Agnes Hunt Orthopaedic Hospital,NHS TRUST SITE,SY107AG,RL1,52.884212,-3.032685,E02006023
RX2H3,Roborough Day Hospital,NHS TRUST SITE,BN213XA,RX2,50.773731,0.283218,E02004363
RAJ46,Rochford Hospital,NHS TRUST SITE,SS41RB,RAJ,51.583955,0.702782,E02004569
RVJ35,Rockwell Day Hospital,NHS TRUST SITE,BS110TA,RVJ,51.506006,-2.649343,E02003014
RDERD,Roding Hospital,NHS TRUST SITE,IG45PZ,RDE,51.587154,0.043064,E02006925
RHM31,Romsey Hospital,NHS TRUST SITE,SO517ZA,RHM,50.992065,-1.481992,E02004823
RGT32,Rosie Hospital,NHS TRUST SITE,CB20QQ,RGT,52.173741,0.139114,E02003731
A2M6H,Ross Community Hospital,NHS TRUST SITE,HR95AD,RLQ,51.91256,-2.583402,E02002926
RXL09,Rossall Hospital Rehabilitation Unit,NHS TRUST SITE,FY78JH,RXL,53.901094,-3.04479,E02005321
RTFEF,Rothbury Community Hospital,NHS TRUST SITE,NE657RW,RTF,55.306771,-1.913915,E02005705
RHQRT,Rotherham District General Hospital,NHS TRUST SITE,S602UD,RHQ,53.413972,-1.34288,E02001600
RV3A3,Roundwood Day Hospital,NHS TRUST SITE,NW102HH,RV3,51.544717,-0.236838,E02000116
R1ADA,Rowan House Emi Facility & Day Hospital,NHS TRUST SITE,WR141JE,R1A,52.125913,-2.320654,E02006713
RJE92,Rowley Hall Hospital,NHS TRUST SITE,ST179AQ,RJE,52.794778,-2.126281,E02006199
RXK10,Rowley Regis Hospital,NHS TRUST SITE,B658DA,RXK,52.480712,-2.052074,E02002075
RV355,Roxbourne Hospital,NHS TRUST SITE,HA20UE,RV3,51.56732,-0.363104,E02000460
RTV2F,Royal Albert Edward Hospital,NHS TRUST SITE,WN12NN,RTV,53.55774,-2.629091,E02001292
A0V1J,Royal Alexandra Hospital,NHS TRUST SITE,BN25BE,RYR,50.819468,-0.118177,E02003521
RXR20,Royal Blackburn Hospital,NHS TRUST SITE,BB23HH,RXR,53.73556,-2.462716,E02002625
RMC01,Royal Bolton Hospital,NHS TRUST SITE,BL40JR,RMC,53.553957,-2.429894,E02001012
RD312,Royal Bournemouth Hospital,NHS TRUST SITE,BH77DW,RD3,50.747482,-1.82052,E02003182
A5Q7N,Royal Brompton Hospital,NHS TRUST SITE,SW36NP,RJ1,51.489743,-0.170855,E02000595
RTGFG,Royal Derby Hospital,NHS TRUST SITE,DE223NE,RTG,52.910425,-1.513523,E02002812
RH801,Royal Devon & Exeter Hospital,NHS TRUST SITE,EX25DW,RH8,50.716703,-3.50668,E02004161
RP420,Royal Free Hospital,NHS TRUST SITE,NW32QG,RP4,51.553224,-0.165324,E02000173
RHQHH,Royal Hallamshire Hospital,NHS TRUST SITE,S102JF,RHQ,53.378355,-1.493331,E02001640
RNZ57,Royal Hampshire County Hospital,NHS TRUST SITE,SO225DG,RNZ,51.061706,-1.32917,E02004835
RHM19,Royal Hospital Haslar Peripheral Clinic,NHS TRUST SITE,PO122AA,RHM,50.786018,-1.124646,E02004750
RBN57,Royal Liverpool Childrens Hospital,NHS TRUST SITE,L122AP,RBN,53.421263,-2.897795,E02001372
H3B7S,Royal Liverpool Dental Hospital,NHS TRUST SITE,L35PS,RBQ,53.408922,-2.967022,E02001377
REP17,Royal Liverpool University Hospital,NHS TRUST SITE,L78XP,REP,53.409506,-2.964809,E02001377
RVRD9,Royal Marsden Hospital,NHS TRUST SITE,SM25PT,RVR,51.343477,-0.191089,E02000861
RRVP5,Royal National Ent And Eastman Dental Hospitals,NHS TRUST SITE,WC1E6DG,RRV,51.521683,-0.133542,E02000191
RAN02,Royal National Orthopaedic Hospital,NHS TRUST SITE,W1W5AQ,RAN,51.52331,-0.143289,E02000972
RAN03,Royal National Orthopaedic Hospital At Spire Bushey,NHS TRUST SITE,WD231RD,RAN,51.637339,-0.331732,E02004908
RAL16,"Royal National Throat, Nose & Ear Hospital",NHS TRUST SITE,WC1X8DA,RAL,51.529203,-0.119189,E02007115
RT203,Royal Oldham Hospital Mental Health Services,NHS TRUST SITE,OL12PN,RT2,53.550382,-2.129113,E02001113
RRJ05,Royal Orthopaedic Hospital,NHS TRUST SITE,B312AP,RRJ,52.420088,-1.96116,E02001939
RGM21,Royal Papworth Hospital,NHS TRUST SITE,CB20AY,RGM,52.173522,0.136046,E02003731
RGM13,Royal Papworth Hospital,NHS TRUST SITE,PE296XY,RGM,52.344926,-0.197256,E02003762
RW5EE,Royal Preston Hospital,NHS TRUST SITE,PR29HT,RW5,53.791521,-2.706842,E02005256
RXWMS,Royal Shrewsbury Hospital,NHS TRUST SITE,SY38XQ,RXW,52.709274,-2.793689,E02006034
RHMTC,Royal South Hants Hospital Treatment Centre,NHS TRUST SITE,SO140YG,RHM,50.912389,-1.397076,E02003570
RJE01,Royal Stoke University Hospital,NHS TRUST SITE,ST46QG,RJE,53.003262,-2.211798,E02002968
RXX24,Royal Surrey County Hospital,NHS TRUST SITE,GU27XX,RXX,51.241016,-0.607463,E02006355
RD130,Royal United Hospital,NHS TRUST SITE,BA13NG,RD1,51.391665,-2.391218,E02002992
RD183,Royal United Hospital Peasedown,NHS TRUST SITE,BA28SG,RD1,51.312224,-2.414415,E02003006
RVV03,Royal Victoria Hospital,NHS TRUST SITE,CT195BN,RVV,51.086144,1.171551,E02005107
RGT49,Royston Hospital,NHS TRUST SITE,SG89EN,RGT,52.04153,-0.022385,E02004910
RTK48,Runnymede Hospital,NHS TRUST SITE,KT160RQ,RTK,51.377975,-0.524124,E02006400
R1L20,Runwell Hospital,NHS TRUST SITE,SS117XX,R1L,51.633013,0.543374,E02004505
RP1F4,Rushden Hospital,NHS TRUST SITE,NN109JS,RP1,52.283173,-0.595566,E02005638
M7L2T,Russells Hall Hospital Elective Surgical Hub,NHS TRUST SITE,DY12HQ,RNA,52.502944,-2.118518,E02002012
RTR12,Rutson Hospital,NHS TRUST SITE,DL78EN,RTR,54.341415,-1.43453,E02007042
RX2C0,Rye Memorial Hospital,NHS TRUST SITE,TN317UD,RX2,50.9619,0.731169,E02004393
RHQRC,Ryegate Childrens Hospital,NHS TRUST SITE,S105DD,RHQ,53.378284,-1.510815,E02001640
RXPRY,Ryhope General Hospital,NHS TRUST SITE,SR20LS,RXP,54.866509,-1.3635,E02001818
RGT50,Saffron Walden Community Hospital,NHS TRUST SITE,CB113HY,RGT,52.0236,0.256305,E02004592
RMC10,Salford Royal Hospital,NHS TRUST SITE,M68HD,RMC,53.487545,-2.323424,E02001177
RHU26,Salisbury District Hospital,NHS TRUST SITE,SP28BJ,RHU,51.043946,-1.789823,E02006672
RYJ06,Samaritan Hospital For Women,NHS TRUST SITE,NW15JD,RYJ,51.522838,-0.151539,E02000970
RREPG,Samuel Johnson Hospital,NHS TRUST SITE,WS136EF,RRE,52.685937,-1.81547,E02006150
RCX08,Sandringham Private Hospital,NHS TRUST SITE,PE304HJ,RCX,52.757843,0.447177,E02005560
RXK01,Sandwell General Hospital,NHS TRUST SITE,B714HJ,RXK,52.528091,-1.988866,E02002059
RN313,Savernake Hospital,NHS TRUST SITE,SN83HL,RN3,51.415406,-1.704914,E02006636
RR854,Scarborough Hospital,NHS TRUST SITE,YO126QL,RR8,54.281708,-0.434753,E02005803
RFSAD,Scarsdale Hospital,NHS TRUST SITE,S417PF,RFS,53.239008,-1.430923,E02004064
N8M6D,Schoen Hospital London,NHS TRUST SITE,W1U2SB,R1L,51.516582,-0.150005,E02000970
RH809,Scott Hospital,NHS TRUST SITE,PL22PQ,RH8,50.390649,-4.161893,E02003134
RR858,Scunthorpe General Hospital,NHS TRUST SITE,DN157BH,RR8,53.587582,-0.667599,E02002757
RR814,Seacroft Hospital,NHS TRUST SITE,LS146UH,RR8,53.80659,-1.470904,E02002390
RX2F2,Seaford Day Hospital,NHS TRUST SITE,BN251SS,RX2,50.774415,0.107637,E02004391
RBZ86,Seaton Hospital,NHS TRUST SITE,EX122UU,RBZ,50.711803,-3.071506,E02004138
RXPCL,Sedgefield Community Hospital,NHS TRUST SITE,TS213EE,RXP,54.661885,-1.448492,E02004339
RCD6D,Selby War Memorial Hospital,NHS TRUST SITE,YO89BX,RCD,53.777485,-1.078335,E02005814
RXTD0,Selly Oak Hospital,NHS TRUST SITE,B296JD,RXT,52.43665,-1.937514,E02001922
RW1CL,Serenity Path Hospital,NHS TRUST SITE,SO211HD,RW1,51.062401,-1.283554,E02004834
RXY5H,Sevenoaks Hospital,NHS TRUST SITE,TN133PH,RXY,51.287842,0.195742,E02005096
RCUEF,Sheffield Childrens Hospital,NHS TRUST SITE,S102TH,RCU,53.380599,-1.490629,E02001640
M8A4V,Sheffield Northern General Hospital,NHS TRUST SITE,S57JD,RHQ,53.413309,-1.463925,E02001625
RHQPH,Sheffield Teaching Hospitals,NHS TRUST SITE,S102QD,RHQ,53.376269,-1.499593,E02001646
J6D7L,Sheffield Teaching Hospitals Nhs Foundation Trust,NHS TRUST SITE,S102RX,RHQ,53.378472,-1.493465,E02001640
RWF15,Sheppey Community Hospital,NHS TRUST SITE,ME123LT,RWF,51.415409,0.793061,E02005118
RD167,Shepton Mallet Community Hospital,NHS TRUST SITE,BA44PG,RD1,51.190575,-2.562486,E02006055
RAE2H,Shipley Hospital,NHS TRUST SITE,BD183LT,RAE,53.833433,-1.786281,E02002202
RWJ97,Shire Hill Hospital,NHS TRUST SITE,SK137QP,RWJ,53.453379,-1.937363,E02004095
RVRJ5,Shirley Oaks Hospital,NHS TRUST SITE,CR98AB,RVR,51.382299,-0.056352,E02000211
RTDAJ,Shotley Bridge Hospital Site,NHS TRUST SITE,DH80NB,RTD,54.869081,-1.842798,E02004298
B6Q2K,Shrewsbury Court Hospital,NHS TRUST SITE,RH16YY,RXX,51.23708,-0.179232,E02006384
RNU74,Shrublands Day Hospital,NHS TRUST SITE,HP136AQ,RNU,51.627438,-0.739748,E02003711
RBZ83,Sidmouth Hospital,NHS TRUST SITE,EX108EW,RBZ,50.68161,-3.239655,E02004140
RTF24,Sir G.B. Hunter Memorial Hospital,NHS TRUST SITE,NE287PB,RTF,54.99611,-1.531281,E02001766
RRE58,Sir Robert Peel Community Hospital,NHS TRUST SITE,B783NG,RRE,52.620665,-1.723867,E02006157
RVVQA,Sittingbourne Memorial Hospital,NHS TRUST SITE,ME104DT,RVV,51.334602,0.736543,E02005127
RWDLB,Skegness & District General Hospital,NHS TRUST SITE,PE252BS,RWD,53.145179,0.332257,E02005437
RCF31,Skipton General Hospital,NHS TRUST SITE,BD232RJ,RCF,53.955694,-2.019013,E02005747
RRJ22,Solihull Hospital,NHS TRUST SITE,B912JL,RRJ,52.417123,-1.774365,E02002096
RA773,South Bristol Community Hospital,NHS TRUST SITE,BS140DE,RA7,51.412858,-2.583357,E02003058
RJN40,South Cheshire Private Hospital,NHS TRUST SITE,CW14QP,RJN,53.118536,-2.478368,E02007030
RXTM0,South Drug Intervention Programme Hospital Prescriber,NHS TRUST SITE,B303HN,RXT,52.41562,-1.924363,E02001949
RK935,South Hams Hospital,NHS TRUST SITE,TQ71AT,RK9,50.288709,-3.778826,E02004198
A2A2Y,South Molton Hospital,NHS TRUST SITE,EX364DP,RH8,51.017013,-3.839455,E02004187
RXPCX,South Moor Hospital Site,NHS TRUST SITE,DH96DF,RXP,54.857281,-1.688923,E02004301
I9U7R,South Newton Hospital,NHS TRUST SITE,SP20QD,RNZ,51.107224,-1.876015,E02006664
J7Q2V,South Petherton Hospital,NHS TRUST SITE,TA135EF,RH8,50.953148,-2.79828,E02006084
RX454,South Tyneside District General Hospital,NHS TRUST SITE,NE340PL,RX4,54.971208,-1.428468,E02001778
RHM01,Southampton General Hospital,NHS TRUST SITE,SO166YD,RHM,50.933019,-1.435104,E02003558
RAJ01,Southend Hospital,NHS TRUST SITE,SS00RY,RAJ,51.553838,0.688617,E02003282
RAJ45,Southend Private Hospital,NHS TRUST SITE,SS09AG,RAJ,51.550029,0.699746,E02003282
RX226,Southlands Hospital,NHS TRUST SITE,BN436TQ,RX2,50.840752,-0.256119,E02006537
RVJ01,Southmead Hospital,NHS TRUST SITE,BS105NB,RVJ,51.494806,-2.591016,E02003015
RMY72,Southwold Hospital,NHS TRUST SITE,IP186LD,RMY,52.329435,1.679966,E02006315
RVVWY,Spencer Private Hospital Qeqm,NHS TRUST SITE,CT94BG,RVV,51.377178,1.387926,E02005135
RPA44,Spire Alexandra Hospital,NHS TRUST SITE,ME59PG,RPA,51.327936,0.526527,E02005068
C9K0U,Spire Bristol Hospital,NHS TRUST SITE,BS66UT,RH8,51.472044,-2.614865,E02003028
RRF67,Spire Cheshire Hospital,NHS TRUST SITE,WA44LU,RRF,53.33747,-2.576344,E02002613
RHM0Y,Spire Dunedin Hospital Oncology Department,NHS TRUST SITE,RG16HJ,RHM,51.449943,-0.985028,E02003401
D9N7C,Spire Fylde Coast Hospital,NHS TRUST SITE,FY38BP,RXN,53.826052,-3.019585,E02002641
RWG0A,Spire Harpenden Hospital,NHS TRUST SITE,AL54BP,RWG,51.82813,-0.360392,E02004924
RF4LE,Spire Hartswood Hospital,NHS TRUST SITE,CM133LE,RF4,51.600416,0.293055,E02004471
RWYA4,Spire Hospital,NHS TRUST SITE,HX59EB,RWY,53.688776,-1.828928,E02002268
RM352,Spire Hospital Manchester,NHS TRUST SITE,M168AJ,RM3,53.453303,-2.263231,E02001072
REMBD,Spire Hospitals,NHS TRUST SITE,L181HQ,REM,53.38527,-2.924117,E02001388
RWA66,Spire Hull And East Riding Hospitals,NHS TRUST SITE,HU107AZ,RWA,53.739254,-0.435027,E02002717
RR809,Spire Leeds Hospital,NHS TRUST SITE,LS81NT,RR8,53.832485,-1.513933,E02002361
RBK90,Spire Little Aston Hospital,NHS TRUST SITE,B743UP,RBK,52.599606,-1.875583,E02006156
RWA0D,Spire Methley Park Hospital,NHS TRUST SITE,LS269HG,RWA,53.740443,-1.423325,E02002429
RBL99,Spire Murrayfield Hospital,NHS TRUST SITE,CH611AU,RBL,53.349272,-3.080113,E02001500
RBK94,Spire Parkway Hospital,NHS TRUST SITE,B912PP,RBK,52.421884,-1.763136,E02002095
RM12N,Spire Private Hospital,NHS TRUST SITE,NR47TD,RM1,52.627123,1.225751,E02005598
RJN03,Spire Regency Hospital,NHS TRUST SITE,SK118DW,RJN,53.260123,-2.137814,E02003869
RNZ53,Spire Southampton Hospital,NHS TRUST SITE,SO166UY,RNZ,50.930607,-1.432728,E02003558
RTDAX,Spire Washington Hospital,NHS TRUST SITE,NE389JZ,RTD,54.879364,-1.559116,E02001815
RAJ47,Spire Wellesley Hospital,NHS TRUST SITE,SS24XH,RAJ,51.554395,0.727589,E02003284
RL130,Spire Yale Hospital,NHS TRUST SITE,LL137YP,RL1,53.048988,-3.01411,W02000088
RQY01,Springfield University Hospital,NHS TRUST SITE,SW177DJ,RQY,51.437358,-0.172348,E02000949
RDY10,St. Anns Hospital,NHS TRUST SITE,BH137LN,RDY,50.699151,-1.928109,E02003211
RAX61,St. Anthonys Hospital,NHS TRUST SITE,SM39DW,RAX,51.37992,-0.220794,E02000847
RJ801,St. Austell Community Hospital,NHS TRUST SITE,PL266AD,RJ8,50.327877,-4.772363,E02003964
RK912,St. Barnabas Hospital,NHS TRUST SITE,PL124BU,RK9,50.407319,-4.214082,E02003900
RQX42,St. Bartholomews Hospital,NHS TRUST SITE,EC1A9DS,RQX,51.518602,-0.100127,E02000001
RXY5J,St. Bartholomews Hospital,NHS TRUST SITE,ME11DS,RXY,51.382574,0.514747,E02003328
RV320,St. Charles Hospital,NHS TRUST SITE,W106DZ,RV3,51.522362,-0.217218,E02000578
RQX43,St. Clements Hospital,NHS TRUST SITE,E16LP,RQX,51.516339,-0.072273,E02000878
RMYMV,St. Clements Hospital,NHS TRUST SITE,IP38LS,RMY,52.050631,1.192627,E02006252
RNS02,St. Edmunds Hospital,NHS TRUST SITE,NN14ES,RNS,52.243521,-0.872086,E02005671
RRE11,St. Georges Hospital,NHS TRUST SITE,ST163AG,RRE,52.810983,-2.110513,E02006196
RX4E2,St. Georges Hospital Site,NHS TRUST SITE,NE612NU,RX4,55.178558,-1.682805,E02005721
U1K7X,St. Georges University Hospitals Nhs Ft Clinical Research Facility,NHS TRUST SITE,SW170RE,RJ7,51.427798,-0.175228,E02000956
RBN02,St. Helens Hospital,NHS TRUST SITE,WA93DA,RBN,53.439528,-2.718901,E02001419
RVR05,St. Helier Hospital,NHS TRUST SITE,SM51AA,RVR,51.380188,-0.183708,E02000841
R1CF2,St. James Hospital,NHS TRUST SITE,PO48LD,R1C,50.796944,-1.050118,E02003540
RLQ96,St. Josephs Hospital,NHS TRUST SITE,NP206ZE,RLQ,51.618242,-3.005004,W02000348
RJE89,St. Judes Hospital,NHS TRUST SITE,ST50LZ,RJE,53.018642,-2.216614,E02006168
RD311,St. Leonards Hospital,NHS TRUST SITE,BH242RR,RD3,50.81726,-1.856578,E02004246
RGR43,St. Leonards Hospital,NHS TRUST SITE,CO102RQ,RGR,52.03903,0.736343,E02006233
RAE05,St. Lukes Hospital,NHS TRUST SITE,BD50NA,RAE,53.783714,-1.760706,E02002230
RXGHH,St. Lukes Hospital,NHS TRUST SITE,HD45RQ,RXG,53.634648,-1.810137,E02002317
RWELS,St. Lukes Hospital,NHS TRUST SITE,LE167BN,RWE,52.48721,-0.93109,E02005373
RHW23,St. Marks Hospital,NHS TRUST SITE,SL66DU,RHW,51.524779,-0.74489,E02003426
RD132,St. Martins Hospital,NHS TRUST SITE,BA25RP,RD1,51.358169,-2.372621,E02003001
RXYRF,St. Martins Hospital Staff Flats,NHS TRUST SITE,CT11AZ,RXY,51.276859,1.106171,E02005023
RNZ28,St. Marys General Hospital,NHS TRUST SITE,PO36DR,RNZ,50.800122,-1.063932,E02003540
RWE10,St. Marys Hospital,NHS TRUST SITE,LE131SJ,RWE,52.765938,-0.877296,E02005392
RY612,St. Marys Hospital,NHS TRUST SITE,LS123QE,RY6,53.799904,-1.612399,E02002396
RP1A1,St. Marys Hospital,NHS TRUST SITE,NN157PW,RP1,52.3941,-0.7222,E02005647
RHU28,St. Marys Hospital,NHS TRUST SITE,PO305TG,RHU,50.710832,-1.301363,E02003588
REF89,St. Marys Hospital,NHS TRUST SITE,TR210LE,REF,49.913052,-6.309288,E02006781
RV3CP,St. Marys Hospital,NHS TRUST SITE,W21NY,RV3,51.516969,-0.173569,E02000974
RWW10,St. Marys Hospital,NHS TRUST SITE,WA28DB,RWW,53.406099,-2.592449,E02002600
RCBN2,St. Marys Hospital,NHS TRUST SITE,YO127SN,RCB,54.284736,-0.404516,E02005800
RGDAV,St. Marys House Day Hospital,NHS TRUST SITE,LS73JX,RGD,53.821038,-1.534962,E02002371
RA707,St. Michaels Hospital,NHS TRUST SITE,BS28EG,RA7,51.459131,-2.599391,E02006951
RDEE5,St. Michaels Hospital,NHS TRUST SITE,CM72QU,RDE,51.879566,0.541215,E02004454
RALC8,St. Michaels Hospital,NHS TRUST SITE,EN20JB,RAL,51.662127,-0.084383,E02000284
RY334,St. Michaels Hospital,NHS TRUST SITE,NR116NA,RY3,52.792529,1.23926,E02005520
REF02,St. Michaels Hospital,NHS TRUST SITE,TR274JA,REF,50.180352,-5.424423,E02003944
RRE13,St. Michaels Hospital,NHS TRUST SITE,WS136EE,RRE,52.684716,-1.81711,E02006150
RCB05,St. Monicas Hospital,NHS TRUST SITE,YO613JD,RCB,54.118402,-1.189328,E02005759
RX4E4,St. Nicholas Hospital,NHS TRUST SITE,NE33XT,RX4,55.006488,-1.6331,E02001713
RTG05,St. Oswalds Hospital,NHS TRUST SITE,DE61DR,RTG,53.012862,-1.737589,E02004076
RV3DY,St. Pancras Hospital,NHS TRUST SITE,NW10PE,RV3,51.53665,-0.131658,E02000184
R1LAL,St. Peters Hospital,NHS TRUST SITE,CM96EG,R1L,51.730005,0.671966,E02004558
RDU09,St. Peters Hospital Angio Lab,NHS TRUST SITE,KT160PZ,RDU,51.377832,-0.52706,E02006400
A4E7R,St. Richards Hospital,NHS TRUST SITE,PO196SE,RYR,50.843553,-0.768027,E02006568
RJ122,St. Thomas Hospital,NHS TRUST SITE,SE17EH,RJ1,51.497959,-0.118905,E02006801
RWJ04,St. Thomas Hospital,NHS TRUST SITE,SK38DN,RWJ,53.400271,-2.160796,E02001200
RALAL,St.. Albans City Hospital,NHS TRUST SITE,AL35PN,RAL,51.760074,-0.343963,E02004932
RK965,St.. Austell Community Hospital,NHS TRUST SITE,PL266AA,RK9,50.327141,-4.77305,E02003964
RP405,St.. Bartholomews Hospital,NHS TRUST SITE,EC1A7BE,RP4,51.51775,-0.100404,E02000001
RBL01,St.. Catherines Hospital,NHS TRUST SITE,CH420LQ,RBL,53.380029,-3.026531,E02001487
RQWG1,St.. Margarets Hospital,NHS TRUST SITE,CM166TN,RQW,51.704295,0.12393,E02004531
A3J3M,St..Anns Hospital,NHS TRUST SITE,N153TH,RKE,51.580625,-0.092097,E02000423
RRE01,Stafford County Hospital,NHS TRUST SITE,ST163SA,RRE,52.811291,-2.097785,E02006196
RY522,Stamford And Rutland Hospital,NHS TRUST SITE,PE91UA,RY5,52.655371,-0.468751,E02005491
RTE04,Standish Hospital Site,NHS TRUST SITE,GL103HA,RTE,51.7575,-2.267151,E02004653
RT205,Stepping Hill Hospital Mental Health Services,NHS TRUST SITE,SK27JE,RT2,53.383778,-2.13202,E02001213
RWK4R,Steppingley Hospital,NHS TRUST SITE,MK451AB,RWK,52.012285,-0.511827,E02003614
A2L4A,Stoke Mandeville Hospital,NHS TRUST SITE,HP218AL,RXQ,51.797983,-0.801989,E02003670
T5C0K,Stoneygate Eye Hospital,NHS TRUST SITE,LE22PN,RWE,52.613202,-1.102569,E02002858
RJC27,Stratford Hospital,NHS TRUST SITE,CV376NX,RJC,52.195265,-1.7134,E02006512
A1Y9P,Stratton Hospital,NHS TRUST SITE,EX239BR,RH8,50.830745,-4.517539,E02003931
RTDAD,Street Community Hospital,NHS TRUST SITE,DH33AT,RTD,54.850934,-1.575063,E02004294
RWW06,Stretford Memorial Hospital,NHS TRUST SITE,M160DU,RWW,53.452883,-2.2741,E02001262
RTE26,Stroud General Hospital,NHS TRUST SITE,GL52HY,RTE,51.743022,-2.208136,E02004656
RTE27,Stroud Maternity Hospital,NHS TRUST SITE,GL52JB,RTE,51.742293,-2.208857,E02004656
T6R4A,Sulis Hospital Bath Elective Surgical Hub,NHS TRUST SITE,BA28SQ,RD1,51.311327,-2.416516,E02003006
RX4J5,Sunderland Royal Hospital,NHS TRUST SITE,SR47TP,RX4,54.902214,-1.410327,E02001801
RQY46,Surbiton Hospital,NHS TRUST SITE,KT66EZ,RQY,51.390825,-0.299929,E02000610
A0V3F,Sussex Eye Hospital,NHS TRUST SITE,BN25BF,RYR,50.818794,-0.117636,E02003521
RXH19,Sussex Nuffield Hospital,NHS TRUST SITE,BN26DX,RXH,50.834518,-0.081925,E02003507
RYW20,Sutton Cottage Hospital,NHS TRUST SITE,B721QH,RYW,52.559036,-1.825915,E02001835
RVR06,Sutton Hospital,NHS TRUST SITE,SM25NF,RVR,51.345455,-0.191069,E02000861
RY33E,Swaffham Community Hospital,NHS TRUST SITE,PE377HL,RY3,52.65095,0.691686,E02005509
RDZ17,Swanage Community Hospital,NHS TRUST SITE,BH192ES,RDZ,50.60551,-1.961213,E02004268
RT279,Tameside General Hospital,NHS TRUST SITE,OL69RW,RT2,53.49153,-2.071433,E02001235
RBT22,Tarporley War Memorial Hospital,NHS TRUST SITE,CW60AP,RBT,53.159215,-2.666738,E02003891
RK922,Tavistock Hospital,NHS TRUST SITE,PL198LD,RK9,50.547178,-4.153576,E02004233
RQY78,Teddington Memorial Hospital,NHS TRUST SITE,TW110LR,RQY,51.425036,-0.340266,E02000804
RTR0B,Tees Valley Hospital,NHS TRUST SITE,TS57DX,RTR,54.54643,-1.251004,E02002507
RBZ3H,Teignmouth Hospital,NHS TRUST SITE,TQ149BQ,RBZ,50.548369,-3.511159,E02004210
R1AAN,Tenbury Community Hospital,NHS TRUST SITE,WR158AP,R1A,52.315288,-2.589547,E02006046
A2E9W,Tetbury Hospital,NHS TRUST SITE,GL88XB,RTQ,51.635175,-2.154744,E02004625
RTQ87,Tewkesbury General Hospital,NHS TRUST SITE,GL205QN,RTQ,51.992156,-2.152471,E02004667
A2D3F,Tewkesbury Hospital,NHS TRUST SITE,GL205GJ,RTQ,51.99229,-2.153433,E02004667
RA232,Thames Valley Nuffield Hospital,NHS TRUST SITE,SL36NH,RA2,51.542787,-0.572415,E02003692
RVVP2,The Bmi Chaucer Hospital,NHS TRUST SITE,CT47AR,RVV,51.261726,1.087475,E02005025
RVJ15,The Bristol Nuffield Hospital,NHS TRUST SITE,BS81JU,RVJ,51.455349,-2.607487,E02006951
RAJ50,The Chelmsford Private Day Surgery Hospital,NHS TRUST SITE,CM20PP,RAJ,51.730523,0.471595,E02006978
RTHT1,The Cherwell Hospital,NHS TRUST SITE,OX169FG,RTH,52.054051,-1.334584,E02005927
RWA18,The East Riding Community Hospital,NHS TRUST SITE,HU170FA,RWA,53.852777,-0.413174,E02002699
RRK64,The Edgbaston Hospital,NHS TRUST SITE,B152QQ,RRK,52.457585,-1.932892,E02001905
RVJ50,The Elms Day Hospital,NHS TRUST SITE,BS351DG,RVJ,51.609847,-2.524187,E02003090
RTHH2,The Foscote Hospital,NHS TRUST SITE,OX169XP,RTH,52.053337,-1.330994,E02005927
RDEEE,The Fryatt Hospital And Mayflower Medical Centre,NHS TRUST SITE,CO124EX,RDE,51.933436,1.260654,E02004574
RV346,The Gordon Hospital,NHS TRUST SITE,SW1V2RH,RV3,51.492338,-0.135789,E02000980
RN325,The Great Western Hospital,NHS TRUST SITE,SN36BB,RN3,51.538528,-1.7272,E02003219
T4R9G,The Harborne Hospital,NHS TRUST SITE,B152FQ,RRK,52.468732,-1.909774,E02001900
RRF69,The Highfield Hospital,NHS TRUST SITE,OL114LZ,RRF,53.606502,-2.167505,E02001141
V9Z9K,The Huddersfield Hospital,NHS TRUST SITE,HD22BL,RWY,53.658349,-1.798743,E02002297
A2K4Z,The Italian Hospital,NHS TRUST SITE,WC1N3AJ,RP4,51.520916,-0.121664,E02000193
RTRAT,The James Cook University Hospital,NHS TRUST SITE,TS43BW,RTR,54.551755,-1.214805,E02002506
RWDXT,The Johnson Community Hospital,NHS TRUST SITE,PE113PB,RWD,52.802684,-0.152663,E02005469
RF4TK,The Kings Oak Private Hospital,NHS TRUST SITE,EN28SD,RF4,51.667899,-0.105568,E02000286
N5U0P,The Lancaster Hospital,NHS TRUST SITE,LA13RH,RXN,54.043191,-2.795408,E02005234
R1H83,The London Chest Hospital,NHS TRUST SITE,E29JX,R1H,51.532184,-0.049499,E02000865
RVVMA,The Maidstone Hospital,NHS TRUST SITE,ME169QQ,RVV,51.273662,0.483974,E02005075
RYG12,The Manor Hospital,NHS TRUST SITE,CV115HX,RYG,52.526988,-1.477708,E02006479
RXH63,The Montefiore Hospital,NHS TRUST SITE,BN31RD,RXH,50.831848,-0.154872,E02003510
RVR60,The New Epsom & Ewell Cottage Hospital,NHS TRUST SITE,KT198PB,RVR,51.341707,-0.301654,E02006343
S0W9V,The Newcastle Upon Tyne Hospitals Nhs Foundation Trust,NHS TRUST SITE,NE14LP,RTD,54.98022,-1.618869,E02007099
RVRA7,The Old Cottage Hospital,NHS TRUST SITE,KT174BL,RVR,51.334461,-0.255324,E02006342
RX3YK,The Orchards Day Hospital,NHS TRUST SITE,HG41HZ,RX3,54.139094,-1.520219,E02005764
RHQP1,The Park Hospital,NHS TRUST SITE,NG58RX,RHQ,53.050094,-1.142886,E02005865
RX253,"The Pearson Unit, Midhurst Community Hospital",NHS TRUST SITE,GU299AW,RX2,50.993474,-0.735087,E02006564
B1M2H,The Pines Hospital,NHS TRUST SITE,M224RZ,RHQ,53.393866,-2.252758,E02001093
RR861,The Princess Royal Hospital,NHS TRUST SITE,HU89HD,RR8,53.774574,-0.278441,E02002661
RNZ63,The Ridgeway Hospital,NHS TRUST SITE,SN49DD,RNZ,51.525325,-1.786161,E02003236
RP415,The Royal London Hospital,NHS TRUST SITE,E11BB,RP4,51.519019,-0.058106,E02000880
RRV60,The Royal London Hospital For Integrated Medicine,NHS TRUST SITE,WC1N3HR,RRV,51.521739,-0.121399,E02000193
RPY03,The Royal Marsden Hospital,NHS TRUST SITE,KT27QB,RPY,51.414826,-0.282601,E02000600
RPY01,The Royal Marsden Hospital,NHS TRUST SITE,SW36JJ,RPY,51.490561,-0.172565,E02000595
RAN01,The Royal National Orthopaedic Hospital,NHS TRUST SITE,HA74LP,RAN,51.632566,-0.310435,E02000433
A4C2E,The Royal Oldham Hospital,NHS TRUST SITE,OL12JH,RM3,53.553248,-2.121831,E02001113
RPA84,The Sloane Hospital,NHS TRUST SITE,BR35HS,RPA,51.408332,-0.00436,E02000138
RPA88,The Somerfield Hospital,NHS TRUST SITE,ME160DU,RPA,51.277762,0.507226,E02005070
RX1SP,The Spire Hospital Nottingham,NHS TRUST SITE,NG124GA,RX1,52.9119,-1.084066,E02005917
A2C8N,The Vale Hospital,NHS TRUST SITE,GL114BA,RTQ,51.688047,-2.353364,E02004664
RKEQ4,The Whittington Hospital,NHS TRUST SITE,N195NF,RKE,51.566482,-0.139066,E02000557
RKEHC,The Whittington Hospital At Hornsey Central,NHS TRUST SITE,N88JD,RKE,51.583422,-0.131013,E02000418
RKENH,The Whittington Hospital At Northern Health Centre,NHS TRUST SITE,N76LB,RKE,51.560939,-0.123596,E02000560
RVJ05,Thornbury Hospital,NHS TRUST SITE,BS351DN,RVJ,51.61167,-2.518894,E02003090
RHQAC,Thornbury Hospital,NHS TRUST SITE,S103BR,RHQ,53.374535,-1.517275,E02001648
R1L50,Thurrock Community Hospital,NHS TRUST SITE,RM162PX,R1L,51.496376,0.336225,E02003304
RP5TR,Tickhill Road Hospital,NHS TRUST SITE,DN48QN,RP5,53.494823,-1.145978,E02001566
RH853,Tiverton And District Hospital,NHS TRUST SITE,EX166NT,RH8,50.909404,-3.492967,E02004168
RAX08,Tolworth Hospital,NHS TRUST SITE,KT67QU,RAX,51.379085,-0.288494,E02000614
RWF10,Tonbridge Cottage Hospital Stroke Unit,NHS TRUST SITE,TN110NE,RWF,51.178069,0.273465,E02005161
RH878,Torbay District General Hospital,NHS TRUST SITE,TQ27AA,RH8,50.482316,-3.553804,E02003156
RA907,Torbay Hospital Annexe,NHS TRUST SITE,TQ27BA,RA9,50.485602,-3.555957,E02003156
RBZ98,Torrington Hospital,NHS TRUST SITE,EX387BJ,RBZ,50.954726,-4.136969,E02004225
RK904,Totnes Community Hospital,NHS TRUST SITE,TQ95GH,RK9,50.432772,-3.684189,E02004191
RWXLF,Townlands Hospital,NHS TRUST SITE,RG92EB,RWX,51.539467,-0.909668,E02005973
RHW04,Townlands Memorial Hospital,NHS TRUST SITE,RG92DR,RHW,51.538741,-0.90797,E02005973
RM321,Trafford General Hospital,NHS TRUST SITE,M415SL,RM3,53.45406,-2.370681,E02001263
RK903,Treliske Hospital,NHS TRUST SITE,TR13LJ,RK9,50.266686,-5.091464,E02003909
RH5T8,Trinity Hospital,NHS TRUST SITE,TA13JG,RH5,51.013945,-3.091628,E02006108
RN334,Trowbridge Community Hospital,NHS TRUST SITE,BA148PH,RN3,51.325295,-2.209882,E02006684
RPA87,Tunbridge Wells Hospital,NHS TRUST SITE,TN24UL,RPA,51.131519,0.278039,E02005170
RN7C4,Tunbridge Wells Hospital At Pembury,NHS TRUST SITE,TN24QJ,RN7,51.148451,0.307498,E02005165
RTQ77,Tyndale Centre Day Hospital,NHS TRUST SITE,GL114JX,RTQ,51.680587,-2.354508,E02004664
RXCH3,Uckfield Hospital,NHS TRUST SITE,TN377PT,RXC,50.88769,0.561978,E02004368
RRVEW,Uclh Outreach: Bmi Bishops Wood Hospital,NHS TRUST SITE,HA62JW,RRV,51.616452,-0.446521,E02000494
RRVTG,Uclh Outreach: Bmi The Garden Hospital,NHS TRUST SITE,NW41RP,RRV,51.593715,-0.224578,E02000055
RRV82,Uclh Outreach: London Bridge Hospital,NHS TRUST SITE,SE12PR,RRV,51.506327,-0.085893,E02006941
RRV81,Uclh Outreach: Portland Hospital,NHS TRUST SITE,W1W5AH,RRV,51.523185,-0.14435,E02000970
RRV97,Uclh Outreach: Royal Berkshire Hospital,NHS TRUST SITE,RG15AN,RRV,51.451022,-0.95933,E02003402
RRV80,Uclh Outreach: The Lister Hospital,NHS TRUST SITE,SW1W8RH,RRV,51.486519,-0.150502,E02000982
RRV92,Uclh Outreach: The Princess Grace Hospital,NHS TRUST SITE,W1U5NY,RRV,51.522365,-0.152928,E02000970
RA7PH,Uh Bristol Private Hospitals,NHS TRUST SITE,BS28HW,RA7,51.459182,-2.59614,E02006951
RRV03,University College Hospital,NHS TRUST SITE,NW12BU,RRV,51.524891,-0.136911,E02000191
C4M4J,University College Hospital Grafton Way Building,NHS TRUST SITE,WC1E6AS,RRV,51.524893,-0.136885,E02000191
B7E1O,University College London Hospitals,NHS TRUST SITE,WC1E6EB,RRV,51.521522,-0.131314,E02000191
RRV00,University College London Hospitals Nhs Foundation Trust,NHS TRUST SITE,NW12PG,RRV,51.525735,-0.137409,E02000186
O3W6H,University College London Hospitals Nhs Ft,NHS TRUST SITE,W1T7HA,RRV,51.522693,-0.136009,E02000191
R0A06,University Dental Hospital Of Manchester,NHS TRUST SITE,M156FH,R0A,53.465385,-2.236704,E02001063
RKB01,University Hospital,NHS TRUST SITE,CV22DX,RKB,52.421211,-1.438403,E02001976
REM30,University Hospital Aintree Outposted Nephrology Clinic,NHS TRUST SITE,PR86PN,REM,53.63357,-2.97882,E02001436
Z2O4N,University Hospital Bristol And Weston Virtual Site,NHS TRUST SITE,BS13NU,RA7,51.459478,-2.593019,E02003036
RJ224,University Hospital Lewisham,NHS TRUST SITE,SE136LH,RJ2,51.453022,-0.017916,E02007009
RX3EW,University Hospital Of Hartlepool,NHS TRUST SITE,TS249AH,RX3,54.702398,-1.227837,E02002484
RX3EP,University Hospital Of North Durham,NHS TRUST SITE,DH15TW,RX3,54.788497,-1.593834,E02004315
RREBH,University Hospital Of North Staffordshire,NHS TRUST SITE,ST47PA,RRE,53.007182,-2.206319,E02002968
RX3MF,University Hospital Of North Tees Mental Health Unit,NHS TRUST SITE,TS198PE,RX3,54.582857,-1.347581,E02002543
R2F2E,University Hospital Of Wales,NHS TRUST SITE,CF144XW,RVJ,51.507156,-3.189855,W02000384
R2U5J,University Hospitals Bristol And Weston Nhs Foundation Trust,NHS TRUST SITE,BS28AE,RA7,51.457951,-2.596238,E02006951
K3W6L,University Hospitals Of Leicester,NHS TRUST SITE,LE15WW,RWE,52.6268,-1.135953,E02006850
T5Q9D,University Hospitals Plymouth Estover,NHS TRUST SITE,PL67LX,RK9,50.420879,-4.094118,E02003122
RA709,University Of Bristol Dental Hospital,NHS TRUST SITE,BS12LY,RA7,51.458613,-2.595196,E02006951
RPGDJ,Upton Day Hospital,NHS TRUST SITE,DA68LQ,RPG,51.457124,0.131681,E02000084
RWX85,Upton Hospital,NHS TRUST SITE,SL12BJ,RWX,51.505359,-0.593757,E02003417
RP1J1,Upton House Day Hospital,NHS TRUST SITE,NN15DQ,RP1,52.238248,-0.882032,E02005672
RTE89,Vale Hospital,NHS TRUST SITE,GL114BZ,RTE,51.68954,-2.359177,E02004664
REM35,Victoria Central Hospital,NHS TRUST SITE,CH445UF,REM,53.415672,-3.045864,E02001473
RF4VH,Victoria Hospital,NHS TRUST SITE,RM14HL,RF4,51.583657,0.187311,E02000476
RVVWA,"Victoria Hospital, Deal",NHS TRUST SITE,CT149UA,RVV,51.219393,1.389482,E02005043
RMYMP,Violet Hill Day Hospital,NHS TRUST SITE,IP141JS,RMY,52.19172,0.990673,E02006268
D5M0V,Virtual Ward Hospital@Home,NHS TRUST SITE,TS79JF,RTR,54.55007,-1.173698,E02006812
RTDDV,Walkergate Park Hospital,NHS TRUST SITE,NE64QD,RTD,54.989373,-1.56163,E02001727
RHW06,Wallingford Community Hospital,NHS TRUST SITE,OX109DU,RHW,51.595495,-1.128258,E02005969
RGR45,Walnut Tree Hospital,NHS TRUST SITE,CO101BE,RGR,52.039818,0.72503,E02006233
RXX11,Walton Community Hospital,NHS TRUST SITE,KT123LD,RXX,51.379998,-0.406056,E02006324
RWW09,Walton Hospital,NHS TRUST SITE,L97LJ,RWW,53.466395,-2.931,E02001351
RFSWA,Walton Hospital,NHS TRUST SITE,S403HW,RFS,53.221288,-1.441882,E02004065
RX4C4,Wansbeck General Hospital,NHS TRUST SITE,NE639JJ,RX4,55.18431,-1.546602,E02005736
R1HKJ,Wanstead Hospital,NHS TRUST SITE,E111UU,R1H,51.583704,0.027334,E02000764
RHW07,Wantage Community Hospital,NHS TRUST SITE,OX127AS,RHW,51.589556,-1.418558,E02005991
V4I9R,Wareham Hospital,NHS TRUST SITE,BH204QQ,RDY,50.686986,-2.116747,E02004265
R1LJ7,Warley Hospital,NHS TRUST SITE,CM145HJ,R1L,51.60609,0.295392,E02004471
RNZ32,Warminster Community Hospital,NHS TRUST SITE,BA128QS,RNZ,51.206704,-2.181715,E02006694
RNU33,Warneford Hospital,NHS TRUST SITE,OX37JX,RNU,51.750841,-1.22232,E02005949
RWWWH,Warrington Hospital,NHS TRUST SITE,WA51QG,RWW,53.393973,-2.610717,E02002602
RJC05,Warwick Hospital,NHS TRUST SITE,CV345BW,RJC,52.289965,-1.583203,E02006529
REM26,Waterloo Day Hospital,NHS TRUST SITE,L223XR,REM,53.476714,-3.020215,E02001460
RALWA,Watford General Hospital,NHS TRUST SITE,WD180HB,RAL,51.648921,-0.404187,E02004977
W8Q2X,Wathwood Hospital,NHS TRUST SITE,S637TQ,RHA,53.490957,-1.342355,E02001579
RXP69,Weardale Hospital,NHS TRUST SITE,DL132JR,RXP,54.748007,-2.018564,E02004348
RTVH7,Weaver Lodge Independent Hospital,NHS TRUST SITE,CW73DT,RTV,53.188848,-2.496436,E02003886
A2D7L,Weavers Croft Hospital,NHS TRUST SITE,GL52HZ,RTQ,51.742704,-2.209872,E02004656
RWDLC,Welland Hospital,NHS TRUST SITE,PE112HN,RWD,52.797314,-0.135644,E02005471
RH5T5,Wellesley Hospital,NHS TRUST SITE,TA219FF,RH5,50.978961,-3.205618,E02006110
RH5F1,Wellington & District Cottage Hospital,NHS TRUST SITE,TA218QQ,RH5,50.976671,-3.227413,E02006110
RAL24,Wellington Hospital,NHS TRUST SITE,NW89LE,RAL,51.531549,-0.171472,E02000962
RY333,Wells Cottage Hospital,NHS TRUST SITE,NR231RF,RY3,52.954514,0.835322,E02005571
RL109,Welshpool Hospital,NHS TRUST SITE,SY217DU,RL1,52.661734,-3.143424,W02000099
RXL07,Wesham Hospital Rehabilitation Unit,NHS TRUST SITE,PR43HA,RXL,53.792197,-2.87956,E02005204
RW5KD,Wesham Park Hospital,NHS TRUST SITE,PR43AL,RW5,53.789498,-2.881037,E02005204
RTHC6,West Berkshire Community Hospitals,NHS TRUST SITE,RG183AS,RTH,51.406375,-1.291779,E02003379
RJ840,West Cornwall Hospital,NHS TRUST SITE,TR182PF,RJ8,50.122056,-5.542976,E02003949
RNNDW,West Cumberland Hospital,NHS TRUST SITE,CA288JG,RNN,54.530059,-3.562598,E02004002
RHM25,West Dorset General Hospital Peripheral Clinic,NHS TRUST SITE,DT12JY,RHM,50.71294,-2.446936,E02007006
RYW24,West Heath Hospital,NHS TRUST SITE,B388HR,RYW,52.398207,-1.953778,E02001953
RWG14,West Hertfordshire Hospitals Therapy Unit,NHS TRUST SITE,WD50PA,RWG,51.704835,-0.408566,E02004956
RX3MR,West Lane Hospital Newbury Centre,NHS TRUST SITE,TS54EE,RX3,54.562124,-1.25715,E02002504
A0J8A,West Mendip Hospital,NHS TRUST SITE,BA68JD,RH5,51.160478,-2.699231,E02006057
RTK52,West Middlesex University Hospital,NHS TRUST SITE,TW76AF,RTK,51.473648,-0.324434,E02000539
RNA28,West Midlands Hospital,NHS TRUST SITE,B632AH,RNA,52.457813,-2.076674,E02002032
RX3MM,West Park Hospital,NHS TRUST SITE,DL22TS,RX3,54.543494,-1.591147,E02002559
RVRC9,West Park Hospital,NHS TRUST SITE,KT198QJ,RVR,51.349322,-0.274505,E02006339
RL4CD,West Park Hospital,NHS TRUST SITE,WV14PW,RL4,52.587783,-2.141256,E02002165
W0J6F,West Suffolk Hospital Liaison,NHS TRUST SITE,IP332QZ,RMY,52.231662,0.709176,E02006281
RAE5H,Westbourne Green Community Hospital,NHS TRUST SITE,BD88RA,RAE,53.807296,-1.77624,E02002216
RNZ52,Westbury Community Hospital,NHS TRUST SITE,BA133EL,RNZ,51.255231,-2.183483,E02007024
RW155,Western Community Hospital,NHS TRUST SITE,SO164XE,RW1,50.92524,-1.446031,E02003563
RYJ07,Western Eye Hospital,NHS TRUST SITE,NW15QH,RYJ,51.520703,-0.16333,E02000971
RDYEG,Westhaven Hospital,NHS TRUST SITE,DT40QE,RDY,50.615226,-2.480042,E02004285
RNZ01,Westminster Memorial Hospital,NHS TRUST SITE,SP78BD,RNZ,51.004721,-2.20015,E02004257
RTXBW,Westmorland General Hospital,NHS TRUST SITE,LA97RG,RTX,54.306116,-2.731605,E02004020
RVJJ8,Weston General Hospital,NHS TRUST SITE,BS234TQ,RVJ,51.322335,-2.971399,E02003089
A4Q0V,Weston Park Hospital,NHS TRUST SITE,S102SJ,RHQ,53.380249,-1.494932,E02001640
RV924,Westwood Hospital,NHS TRUST SITE,HU178BU,RV9,53.841787,-0.440204,E02002702
RHW11,Wexham Park Hospital,NHS TRUST SITE,SL24HL,RHW,51.532007,-0.573992,E02003411
RXX13,Weybridge Community Hospital,NHS TRUST SITE,KT138DY,RXX,51.37345,-0.459783,E02006328
V6G0W,Weymouth Community Hospital,NHS TRUST SITE,DT47TB,R0D,50.621036,-2.451012,E02004284
G6K6F,Weymouth Street Hospital,NHS TRUST SITE,W1G6NP,RQM,51.520217,-0.150694,E02000970
A3D6H,Wharfedale Hospital,NHS TRUST SITE,LS212LY,RCD,53.914372,-1.700604,E02002332
RRF04,Whelley Hospital,NHS TRUST SITE,WN13XD,RRF,53.554299,-2.618338,E02001292
RATAC,Whipps Cross Hospital,NHS TRUST SITE,E111NR,RAT,51.578831,0.002638,E02000913
RBZ79,Whipton Hospital,NHS TRUST SITE,EX13RB,RBZ,50.730976,-3.484154,E02004155
RTV55,Whiston Hospital,NHS TRUST SITE,L355DR,RTV,53.420469,-2.784954,E02001335
RCBF6,Whitby Community Hospital,NHS TRUST SITE,YO211DP,RCB,54.483911,-0.617279,E02005795
RTR10,Whitby Hospital,NHS TRUST SITE,YO211EE,RTR,54.48445,-0.615671,E02005795
RREE4,Whitchurch Hospital,NHS TRUST SITE,SY131AH,RRE,52.969568,-2.679703,E02006015
RCBP9,White Cross Rehabilitation Hospital,NHS TRUST SITE,YO318JR,RCB,53.97167,-1.07649,E02002781
RCDXH,Whitecross Court Community Hospital,NHS TRUST SITE,YO318FT,RCD,53.971773,-1.074679,E02002781
RVVRA,Whitstable & Tankerton Hospital,NHS TRUST SITE,CT52HN,RVV,51.361364,1.050053,E02005014
RFSAB,Whitworth Hospital,NHS TRUST SITE,DE42JD,RFS,53.150924,-1.575216,E02004072
RNNBH,Wigton Hospital,NHS TRUST SITE,CA79DD,RNN,54.830448,-3.171342,E02003965
RV315,Willesden Hospital,NHS TRUST SITE,NW103RY,RV3,51.542836,-0.235526,E02000116
RVVC3,William Harvey Hospital,NHS TRUST SITE,TN240LZ,RVV,51.141489,0.916209,E02005001
A5T0V,Williton Hospital,NHS TRUST SITE,TA44RA,RH5,51.162888,-3.323208,E02006116
RH5C4,Willowbank Day Hospital,NHS TRUST SITE,BA51TH,RH5,51.20302,-2.655661,E02006054
RVRC7,Wilson Hospital,NHS TRUST SITE,CR44TP,RVR,51.397252,-0.163262,E02000710
RD310,Wimborne Hospital,NHS TRUST SITE,BH211ER,RD3,50.802195,-1.995918,E02004252
RTE15,Winchcombe Hospital,NHS TRUST SITE,GL545NQ,RTE,51.948908,-1.975269,E02004668
RLQ24,Winfield Hospital,NHS TRUST SITE,GL29WH,RLQ,51.880438,-2.242431,E02004637
RV913,Withernsea Hospital,NHS TRUST SITE,HU192QB,RV9,53.728557,0.03401,E02002722
RM311,Withington Community Hospital,NHS TRUST SITE,M202LR,RM3,53.425198,-2.245239,E02001083
RTH44,Witney Community Hospital,NHS TRUST SITE,OX286JJ,RTH,51.787407,-1.489856,E02006002
RXX12,Woking Community Hospital,NHS TRUST SITE,GU227HS,RXX,51.315132,-0.556304,E02006463
RDU20,Woking Nuffield Hospital,NHS TRUST SITE,GU214BY,RDU,51.332208,-0.56138,E02006458
RHW10,Wokingham Hospital,NHS TRUST SITE,RG412RE,RHW,51.410195,-0.845603,E02003454
RXTN7,Wolverhamptom Recovery Hospital Prescriber,NHS TRUST SITE,WV30NF,RXT,52.582272,-2.131624,E02002168
RVW02,Woodlands Hospital,NHS TRUST SITE,DL14PL,RVW,54.52036,-1.504671,E02002559
RKB32,Woodlands Hospital,NHS TRUST SITE,NN168XF,RKB,52.41188,-0.768808,E02005641
RCBWD,Woodlands Private Hospital,NHS TRUST SITE,YO126QN,RCB,54.277448,-0.443132,E02005803
RT206,Woods Hospital,NHS TRUST SITE,SK137BQ,RT2,53.451329,-1.957061,E02004096
RWP50,Worcestershire Royal Hospital,NHS TRUST SITE,WR51DD,RWP,52.191193,-2.181158,E02006743
RNAW1,Wordsley Hospital Medicine,NHS TRUST SITE,DY85QX,RNA,52.485185,-2.159452,E02002020
RTDCW,Workington Community Hospital,NHS TRUST SITE,CA142RW,RTD,54.642687,-3.551342,E02003973
RX2N1,Worthing Hospital,NHS TRUST SITE,BN112DH,RX2,50.816691,-0.363429,E02006631
A2C6R,Wotton Lawn Hospital,NHS TRUST SITE,GL13PX,RTQ,51.865969,-2.225797,E02004637
RET32,Wrexham Maelor Hospital,NHS TRUST SITE,LL137TD,RET,53.045958,-3.007997,W02000088
RXN14,Wrightington Hospital,NHS TRUST SITE,WN69EP,RXN,53.589824,-2.711509,E02005308
RD866,Wycombe Hospital,NHS TRUST SITE,HP112TT,RD8,51.626442,-0.753428,E02003710
RL125,Wye Valley Hospital,NHS TRUST SITE,HR12BN,RL1,52.05873,-2.707194,E02002916
RNU44,Wykeham Park Day Hospital,NHS TRUST SITE,OX93JT,RNU,51.745314,-0.970008,E02005958
