Location ID,Location HSCA start date,Care home?,Location Name,Location Region,Location Local Authority,Location Street Address,Location City,Location Postal Code,Location Latitude,Location Longitude,Location Parliamentary Constituency,Provider Nominated Individual Name,"Regulated activity - Treatment of disease, disorder or injury",Service type - Care home service with nursing,Service type - Care home service without nursing,Service user band - Children 0-18 years,Service user band - Dementia,Service user band - Learning disabilities or autistic spectrum disorder,Service user band - Mental Health,Service user band - Older People,Service user band - Physical Disability,Service user band - Sensory Impairment,Service user band - Younger Adults,num_values_found,num_values_found.1,lad,msoa,area,Care homes beds,occupancy_mean,%occupancy_mean,probability_mean,occupancy_std,%occupancy_std,probability_std
1-106969315,2010-12-02,Y,Clair Francis Retirement Home,East of England,Peterborough,237-239 Park Road,Peterborough,PE1 2UT,52.587314,-0.239868,Peterborough,*,,,Y,,Y,,,Y,,,Y,7,7,E06000031,E02003248,E00079170,28,20.0,73.0,0.97873,2.0,8.4659,0.0106
1-112325259,2011-01-10,Y,Alan Atchison - 5 and 6 Augusta Close,East of England,Peterborough,5-6 Augusta Close,Peterborough,PE1 5NJ,52.590027,-0.208536,Peterborough,*,,,Y,,,Y,,,,,,2,2,E06000031,E02003249,E00078972,9,9.0,100.0,0.9795,0.0,0.0,0.02769
1-112325275,2011-01-10,Y,Alan Atchison - 2 David's Close,East of England,Peterborough,2 David's Close,Peterborough,PE4 5AN,52.621109,-0.28818,Peterborough,*,,,Y,,,Y,,,,,,2,2,E06000031,E02003237,E00079294,11,10.0,91.0,0.86756,1.0,12.8565,0.18378
1-120444678,2010-11-29,Y,SENSE - Newton Court,East of England,Peterborough,1-4 Newton Court,Peterborough,PE4 7PY,52.607487,-0.248142,Peterborough,"Horton, Maria Elizabeth",,,Y,,,Y,,,,Y,,3,3,E06000031,E02003243,E00079201,10,9.0,93.0,0.87445,1.0,5.7735,0.11515
1-120444708,2010-11-29,Y,SENSE - 37 Redgate Court,East of England,Peterborough,Saltersgate,Peterborough,PE1 4XZ,52.594201,-0.208691,Peterborough,"Horton, Maria Elizabeth",,,Y,,,Y,,,,Y,,3,3,E06000031,E02003249,E00187658,6,5.0,89.0,0.99919,1.0,19.245,0.00018
1-120444723,2010-11-29,Y,SENSE - 38 Redgate Court,East of England,Peterborough,Saltersgate,Peterborough,PE1 4XZ,52.594201,-0.208691,Peterborough,"Horton, Maria Elizabeth",,,Y,,,Y,,Y,,Y,Y,2,2,E06000031,E02003249,E00187658,6,6.0,100.0,0.91987,0.0,0.0,0.02733
1-120969698,2010-11-19,Y,Philia Lodge Rest Home,East of England,Peterborough,Philia Lodge,Peterborough,PE1 4AU,52.580393,-0.232736,Peterborough,"Graham, Chris",,,Y,,Y,,,,,,,3,3,E06000031,E02003250,E00078955,20,18.0,90.0,0.94935,0.0,0.0,0.01587
1-125856362,2011-02-15,Y,Longueville Court,East of England,Peterborough,Village Green,Peterborough,PE2 7DN,52.553476,-0.277391,North West Cambridgeshire,"O'Reilly, Michael",Y,Y,,,Y,,,Y,Y,,Y,1,1,E06000031,E02006877,E00079081,109,99.0,91.0,0.99997,,,
1-125862949,2011-02-15,Y,Werrington Lodge,East of England,Peterborough,Baron Court,Peterborough,PE4 7ZF,52.617263,-0.261194,Peterborough,"O'Reilly, Michael",Y,Y,,,Y,,,Y,Y,,Y,9,9,E06000031,E02003239,E00079326,82,55.0,67.0,0.92425,5.0,6.4242,0.10879
1-127088237,2011-01-07,Y,St Margaret's House,East of England,Peterborough,187 London Road,Peterborough,PE2 9DS,52.555439,-0.248785,North West Cambridgeshire,"Boardman, Julie",,,Y,,,Y,Y,,,,,3,3,E06000031,E02003253,E00078995,11,11.0,97.0,0.97436,1.0,5.2486,0.00713
1-127088250,2011-01-07,Y,Lyons Gardens,East of England,Peterborough,36 Lincoln Road,Peterborough,PE6 7JS,52.639735,-0.299853,North West Cambridgeshire,"Boardman, Julie",,,Y,Y,,Y,,,,,Y,4,4,E06000031,E02003237,E00079029,11,6.0,57.0,0.59327,3.0,26.1116,0.12063
1-128405034,2011-01-18,Y,Broadleigh Nursing Home,East of England,Peterborough,213 Broadway,Peterborough,PE1 4DS,52.583051,-0.231921,Peterborough,"Marjara, Shamshad",Y,Y,,,Y,,,Y,,,,5,5,E06000031,E02003250,E00079154,37,32.0,88.0,0.95129,2.0,5.6044,0.05046
1-132648035,2011-01-21,Y,Fletton Avenue,East of England,Peterborough,35 Fletton Avenue,Peterborough,PE2 8AX,52.562833,-0.241778,North West Cambridgeshire,"Morgan, Edward",,,Y,,,Y,,,,,Y,3,3,E06000031,E02003253,E00171279,6,6.0,94.0,0.92313,1.0,9.6225,0.04022
1-134144846,2011-01-11,Y,Garden Lodge,East of England,Peterborough,37A Lincoln Road,Peterborough,PE6 7JS,52.639735,-0.299853,North West Cambridgeshire,*,,,Y,,Y,,,Y,,,,3,3,E06000031,E02003237,E00079029,10,9.0,90.0,0.88811,0.0,0.0,0.18108
1-135491235,2010-12-01,Y,Hampton Grove Care Home,East of England,Peterborough,Chaffinch Lane,Peterborough,PE7 8NF,52.53022,-0.265342,North West Cambridgeshire,"O'Reilly, Michael",,,Y,,Y,,,Y,Y,,,3,3,E06000031,E02006878,E00187604,86,72.0,84.0,0.8714,11.0,13.2068,0.1622
1-136255427,2010-11-24,Y,Acacia House - Peterborough,East of England,Peterborough,37a School Road,Peterborough,PE6 7RG,52.638491,-0.218882,Peterborough,"Tydeman, Justin",,,Y,,,Y,Y,,,,,2,2,E06000031,E02003239,E00079047,5,5.0,100.0,0.79161,0.0,0.0,0.27837
1-136255514,2010-11-24,Y,Elliot Avenue,East of England,Peterborough,1 Elliot Avenue,Peterborough,PE3 9TG,52.575628,-0.290926,Peterborough,"Tydeman, Justin",,,Y,,,Y,Y,,,,,4,4,E06000031,E02003251,E00078881,6,4.0,62.0,0.98561,0.0,8.3333,0.02072
1-156967239,2011-05-27,Y,The Star Nursing Home,East of England,Peterborough,56-64 Star Road,Peterborough,PE1 5HT,52.575122,-0.229496,Peterborough,"Chaudhry, Zameer",Y,Y,Y,,Y,,Y,Y,,,,4,4,E06000031,E02003249,E00078963,30,26.0,85.0,0.8018,1.0,4.3033,0.21041
1-1691536708,2014-10-03,Y,Florence House,East of England,Peterborough,220 Park Road,Peterborough,PE1 2UJ,52.585626,-0.238224,Peterborough,"Sim, Maureen",,,Y,,Y,,,Y,,,,3,3,E06000031,E02003248,E00079177,21,15.0,71.0,0.90602,4.0,19.0476,0.11466
1-1810369443,2015-03-17,Y,Cherry Blossom Care Home,East of England,Peterborough,Warwick Road,Peterborough,PE4 6DE,52.606431,-0.271134,Peterborough,"Warner, Reoutee",Y,Y,,,Y,,,Y,Y,Y,,3,3,E06000031,E02003242,E00079280,80,61.0,76.0,0.86954,16.0,20.2073,0.00571
1-1944936060,2015-03-20,Y,St Margarets Care Home,East of England,Peterborough,22 Aldermans Drive,Peterborough,PE3 6AR,52.574405,-0.256354,Peterborough,"Lowtun, Bibi",,,Y,,Y,,,Y,,,,4,4,E06000031,E02003252,E00187695,16,15.0,95.0,0.85696,0.0,3.125,0.08613
1-2159114994,2015-07-31,Y,Clayburn Court,East of England,Peterborough,Clayburn Road,Peterborough,PE7 8LB,52.535342,-0.259641,North West Cambridgeshire,"Martin, Robert",,,Y,,Y,,,Y,,,Y,4,4,E06000031,E02006878,E00171330,64,24.0,38.0,0.90687,9.0,14.7888,0.04143
1-2214363364,2016-01-21,Y,Park House Nursing Home,East of England,Peterborough,27 Park Crescent,Peterborough,PE1 4DX,52.584516,-0.234815,Peterborough,"Gidlow, Helen",Y,Y,,,Y,,,Y,,,,5,5,E06000031,E02003248,E00079177,52,47.0,91.0,0.94669,1.0,1.0533,0.06876
1-2557420141,2016-04-04,Y,The Malting's Care Home,East of England,Peterborough,Alderman's Drive,Peterborough,PE3 6AR,52.574405,-0.256354,Peterborough,"Marjara, Amar",Y,Y,,,Y,,,Y,Y,,Y,5,5,E06000031,E02003252,E00187695,50,46.0,91.0,0.89433,4.0,8.6718,0.05254
1-3087612976,2016-11-21,Y,Ashlynn Grange,East of England,Peterborough,Bretton Gate,Peterborough,PE3 9UZ,52.584685,-0.275665,Peterborough,"Tickell, Lynda",Y,Y,,,Y,,,Y,Y,Y,Y,3,3,E06000031,E02003251,E00079355,156,80.0,51.0,0.81877,2.0,1.3344,0.18175
1-314352463,2011-09-30,Y,Park Vista Care Home,East of England,Peterborough,15 Park Crescent,Peterborough,PE1 4DX,52.584516,-0.234815,Peterborough,"Marjara, Amar",Y,Y,,,Y,,,Y,,,,7,7,E06000031,E02003248,E00079177,59,52.0,87.0,0.97395,4.0,6.8399,0.02252
1-3511571421,2017-05-19,Y,The Tudors Care Home,East of England,Peterborough,North Street,Peterborough,PE2 8HR,52.561921,-0.227622,North West Cambridgeshire,"Cheekoory, Sunil",,,Y,,Y,,,Y,,,,3,3,E06000031,E02003253,E00079255,44,39.0,88.0,0.67652,2.0,4.7311,0.25917
1-4176539469,2017-08-15,Y,Tigh Calman,East of England,Peterborough,Wisbech Road,Peterborough,PE6 0TD,52.620041,-0.082271,Peterborough,"McLean, Susan",,,Y,,,Y,,,,,Y,2,2,E06000031,E02003241,E00078988,6,6.0,100.0,0.99868,0.0,0.0,0.0008
1-437071858,2012-06-20,Y,Eagle Wood Neurological Care Centre,East of England,Peterborough,Bretton Way,Peterborough,PE3 8DE,52.588678,-0.284958,Peterborough,"Butler, Mark",Y,Y,,,Y,,Y,Y,Y,Y,Y,3,3,E06000031,E02003247,E00078874,105,99.0,94.0,0.92816,5.0,4.8872,0.1018
1-5383923282,2018-07-20,Y,Glenholme Haddon House Ltd,East of England,Peterborough,Brickburn Close,Peterborough,PE7 8NZ,52.535746,-0.25896,North West Cambridgeshire,"Macalister, George",,,Y,,,Y,,,Y,,Y,0,0,E06000031,E02006878,E00171330,15,14.0,95.49818032792,,,,
1-5847247461,2018-11-07,Y,Taigh Aisling,East of England,Peterborough,Rectory Lane,Peterborough,PE6 7LR,52.637808,-0.295777,North West Cambridgeshire,"McLean, Susan",,,Y,,,Y,,,,,Y,2,2,E06000031,E02003237,E00079030,6,4.0,67.0,0.99908,0.0,0.0,0.0
1-6148018984,2018-12-12,Y,Thorpe Wood Care Home,East of England,Peterborough,Earlham Road,Peterborough,PE3 6TN,52.568116,-0.294288,Peterborough,"Marjara, Amara",Y,Y,,,Y,,Y,Y,Y,Y,Y,2,2,E06000031,E02003251,E00079354,50,36.0,72.0,0.85379,13.0,25.4558,0.00605
1-706337390,2013-06-21,Y,Lavender House Care Home,East of England,Peterborough,205 Broadway,Peterborough,PE1 4DS,52.583051,-0.231921,Peterborough,"Marjara, Baldev",,,Y,,,,,Y,,,,3,3,E06000031,E02003250,E00079154,36,30.0,83.0,0.90934,4.0,10.0154,0.10744
1-7136456528,2019-07-24,Y,Field House Residential Care Home for the Elderly,East of England,Peterborough,Eyebury Road,Peterborough,PE6 7TD,52.606632,-0.185425,Peterborough,"Ezeuko, Obinna",,,Y,,Y,,,Y,Y,Y,Y,4,4,E06000031,E02003241,E00078985,49,36.0,74.0,0.79989,5.0,10.0671,0.02054
1-720828830,2013-06-07,Y,Maxey House Residential Home,East of England,Peterborough,88 Lincoln Road,Peterborough,PE6 9BA,52.672107,-0.312118,North West Cambridgeshire,"Singh, Jaspal",,,Y,,Y,,,Y,,,,4,4,E06000031,E02003237,E00079073,31,26.0,85.0,0.65378,3.0,10.0294,0.14658
1-8417499676,2020-06-05,Y,Franklyn Crescent,East of England,Peterborough,57 Franklyn Crescent,Peterborough,PE1 5NE,52.589407,-0.212695,Peterborough,"Croxton, Steve",,,Y,,Y,Y,Y,Y,Y,Y,Y,1,1,E06000031,E02003249,E00187731,3,1.0,33.0,0.85479,,,
1-9958799176,2020-12-14,Y,Ontario Court,East of England,Peterborough,270 Eastfield Road,Peterborough,PE1 4BE,52.584603,-0.228022,Peterborough,"Cawley, Fergal",,,Y,,,Y,Y,,Y,Y,Y,1,1,E06000031,E02003250,E00079154,8,3.0,38.0,0.88216,,,
1-108827777,2011-04-18,Y,The Beeches,East of England,Luton,7 Crescent Rise,Luton,LU2 0AT,51.883085,-0.407373,Luton South,*,,,Y,,,,Y,,,,,2,2,E06000032,E02006937,E00079580,12,12.0,100.0,0.87242,0.0,0.0,0.11215
1-108827793,2011-04-18,Y,104 Tennyson Road,East of England,Luton,104 Tennyson Road,Luton,LU1 3RP,51.867884,-0.416319,Luton South,*,,,Y,,,,Y,,,,,2,2,E06000032,E02003278,E00079830,8,8.0,94.0,0.93697,1.0,8.8388,0.08646
1-112084847,2011-01-10,Y,Georgiana Care Home,East of England,Luton,10 Compton Avenue,Luton,LU4 9AZ,51.903637,-0.461215,Luton North,"Hemmens, Shazia",,,Y,,Y,Y,Y,Y,Y,,Y,5,5,E06000032,E02003262,E00079651,72,53.0,74.0,0.7377,1.0,1.2423,0.23229
1-112084863,2011-01-10,Y,Victoriana Care Home,East of England,Luton,6 Lansdowne Road,Luton,LU3 1EE,51.88903,-0.424184,Luton South,"Hemmens, Shazia",,,Y,,Y,,Y,Y,Y,,Y,4,4,E06000032,E02003274,E00079390,34,23.0,67.0,0.78629,5.0,13.6641,0.198
1-112633103,2011-01-19,Y,Widecombe Nursing Home,East of England,Luton,36 Grasmere Road,Luton,LU3 2DT,51.916895,-0.429543,Luton North,"Baczynski, Lavinia",Y,Y,,,,,,Y,Y,,,1,1,E06000032,E02003261,E00079619,38,37.0,97.0,0.66816,,,
1-112872393,2010-11-05,Y,Alicia Nursing Home,East of England,Luton,105-115 and 33-35 Marsh Road,Luton,LU3 2QG,51.902264,-0.451145,Luton North,"Thasan, Andrea",Y,Y,Y,,Y,Y,Y,Y,Y,,Y,6,6,E06000032,E02003263,E00079782,68,37.0,54.0,0.84553,18.0,26.7375,0.13727
1-113079389,2010-11-29,Y,Castletroy Residential Home,East of England,Luton,130 Cromer Way,Luton,LU2 7GP,51.91112,-0.413956,Luton North,"England, Jacqueline",,,Y,,Y,,,Y,Y,,Y,7,7,E06000032,E02003264,E00079376,69,45.0,65.0,0.9425,20.0,28.6087,0.09486
1-116384885,2011-01-05,Y,Mulberry House,East of England,Luton,120 Barton Road,Luton,LU3 2BD,51.917502,-0.426541,Luton North,"Ralphs, Stephen",,,Y,,,Y,,,,,Y,5,5,E06000032,E02003261,E00079622,8,8.0,95.0,0.98665,1.0,6.8465,0.01747
1-117316857,2011-01-07,Y,Little Bramingham Farm Residential Care Home,East of England,Luton,Leamington Road,Luton,LU3 3XF,51.91725,-0.440669,Luton North,"Naylor, Rosemary",,,Y,,Y,,,Y,,,,3,3,E06000032,E02003258,E00079423,25,20.0,81.0,0.93552,2.0,8.3267,0.07457
1-122949945,2011-01-19,Y,Rowles House Limited,East of England,Luton,Rowles House,Luton,LU3 2BB,51.913367,-0.425246,Luton North,"Bessell, Paul",,,Y,,Y,,,Y,,,Y,5,5,E06000032,E02003261,E00079609,26,22.0,85.0,0.90291,2.0,8.7706,0.11341
1-122959383,2011-01-20,Y,St Brendans Residential Home,East of England,Luton,175 -177 Ashburnham Road,Luton,LU1 1JW,51.879919,-0.434057,Luton South,*,,,Y,,Y,,Y,Y,Y,,Y,4,4,E06000032,E02003276,E00079532,26,25.0,96.0,0.92818,1.0,4.4412,0.07421
1-127818814,2010-10-01,Y,St Mary's Care Home,East of England,Luton,19 Dunstable Road,Luton,LU1 1BE,51.880914,-0.423722,Luton South,"Pearson, Rebecca",Y,Y,,,,,,Y,,,Y,4,4,E06000032,E02003276,E00177169,60,34.0,57.0,0.78047,9.0,14.5933,0.13004
1-128605708,2010-12-06,Y,Ravenhill Way,East of England,Luton,240-242 Ravenhill Way,Luton,LU4 0XZ,51.900564,-0.486349,Luton North,"Thompson-Turvey, Sarah",,,Y,,,,Y,,,,,0,0,E06000032,E02003266,E00079690,10,6.0,60.38783109049547,,,,
1-131481840,2010-12-16,Y,Mulberry Court,East of England,Luton,105 Watermead Road,Luton,LU3 2TF,51.911219,-0.448322,Luton North,"O'Hare-Connolly, Gavin",,,Y,,Y,,,Y,Y,Y,Y,6,6,E06000032,E02003263,E00079697,84,71.0,84.0,0.87012,13.0,15.0333,0.15319
1-132166372,2011-01-19,Y,Marlin Lodge,East of England,Luton,31 Marlborough Road,Luton,LU3 1EF,51.889584,-0.424595,Luton South,"Selvakumaran, Sinnathamby",,,Y,,,Y,,,,,,3,3,E06000032,E02003274,E00079400,17,16.0,94.0,0.92166,1.0,5.8824,0.08061
1-146237247,2010-12-21,Y,Collinson Care Home,East of England,Luton,616-618 Dunstable Road,Luton,LU4 8RT,51.892318,-0.457184,Luton North,"Patel, Brijesh",,,Y,,Y,,,Y,Y,,Y,5,5,E06000032,E02003268,E00079481,29,26.0,88.0,0.65272,3.0,9.3167,0.12528
1-151168735,2011-01-27,Y,Osborne House,East of England,Luton,18 Compton Avenue,Luton,LU4 9AZ,51.903637,-0.461215,Luton North,"Pathan, Shaheen",,,Y,,Y,,,Y,Y,,,3,3,E06000032,E02003262,E00079651,16,13.0,81.0,0.80655,4.0,27.2431,0.23198
1-153833658,2011-01-26,Y,83 Tennyson Road,East of England,Luton,83 Tennyson Road,Luton,LU1 3RR,51.8696,-0.415547,Luton South,"Layton, Julie",,,Y,,,Y,Y,,,,,1,1,E06000032,E02003278,E00079827,4,4.0,100.0,0.99811,,,
1-153833689,2011-01-26,Y,8 Brantwood Road,East of England,Luton,8 Brantwood Road,Luton,LU1 1JJ,51.880277,-0.427245,Luton South,"Layton, Julie",,,Y,,,,Y,,,,,2,2,E06000032,E02003276,E00177169,5,4.0,90.0,0.92442,1.0,14.1421,0.07609
1-153833704,2011-01-26,Y,95 Ashburnham Road,East of England,Luton,95 Ashburnham Road,Luton,LU1 1JW,51.879919,-0.434057,Luton South,"Layton, Julie",,,Y,,Y,,Y,,,,,1,1,E06000032,E02003276,E00079532,4,4.0,100.0,0.99811,,,
1-153833765,2011-01-26,Y,135 Tennyson Road,East of England,Luton,135 Tennyson Road,Luton,LU1 3RP,51.867884,-0.416319,Luton South,"Layton, Julie",,,Y,,,Y,,,,,,2,2,E06000032,E02003278,E00079830,4,3.0,75.0,0.98273,0.0,0.0,0.02175
1-156343783,2011-05-04,Y,Trefoil House,East of England,Luton,45 Birdsfoot Lane,Luton,LU3 2DN,51.915066,-0.427877,Luton North,"Mynott, Stewart",,,Y,,Y,,,Y,Y,,Y,3,3,E06000032,E02003261,E00079603,70,56.0,80.0,0.93576,7.0,9.5119,0.05199
1-173072482,2011-03-17,Y,The Vine House,East of England,Luton,9 North Drift Way,Luton,LU1 5JF,51.873443,-0.433265,Luton South,"Chanda, Mulenga",,,Y,,,Y,,,,Y,Y,3,3,E06000032,E02003277,E00079543,2,2.0,100.0,0.91344,0.0,0.0,0.07417
1-2179325487,2015-08-26,Y,Ellenbrook House,East of England,Luton,10 Cutenhoe Road,Luton,LU1 3ND,51.86548,-0.416084,Luton South,"Mootoosamy, Asha",,,Y,,,,,,,,Y,1,1,E06000032,E02003278,E00079831,6,4.0,67.0,0.87583,,,
1-235834185,2011-04-20,Y,Belle Vue Care Home,East of England,Luton,123 New Bedford Road,Luton,LU3 1LF,51.891722,-0.42175,Luton South,"Robins, Caroline",,,Y,,,Y,,Y,Y,Y,Y,3,3,E06000032,E02003267,E00079395,8,8.0,100.0,0.91847,0.0,0.0,0.06989
1-285665871,2011-07-27,Y,Ambassador House,East of England,Luton,31 Lansdowne Road,Luton,LU3 1EE,51.88903,-0.424184,Luton South,"Bessell, Paul",,,Y,,Y,,,Y,,,Y,5,5,E06000032,E02003274,E00079390,25,19.0,76.0,0.92929,3.0,11.6619,0.08215
1-285665987,2011-07-27,Y,Rosedale Care Home,East of England,Luton,36 Lansdowne Road,Luton,LU3 1EE,51.88903,-0.424184,Luton South,"Bessell, Paul",,,Y,,Y,,,Y,,,Y,4,4,E06000032,E02003274,E00079390,20,20.0,99.0,0.97444,0.0,2.5,0.00815
1-2966465599,2016-11-14,Y,Luton Council Respite and Shared Lives Service,East of England,Luton,562 Hitchin Road,Luton,LU2 7UG,51.901908,-0.396997,Luton South,"O'Leary, Maud",,,Y,,,Y,Y,Y,Y,,Y,2,2,E06000032,E02003269,E00079854,9,8.0,89.0,0.90889,3.0,31.427,0.0375
1-312101085,2011-09-21,Y,Crowley Care Homes Ltd - St Annes Care Home,East of England,Luton,30 Lansdowne Road,Luton,LU3 1EE,51.88903,-0.424184,Luton South,"Crowley, Cornelius",,,Y,,Y,,,Y,,,,6,6,E06000032,E02003274,E00079390,22,18.0,83.0,0.7002,2.0,7.96,0.22926
1-3139954654,2017-01-31,Y,Capwell Grange Care Home,East of England,Luton,Addington Way,Luton,LU4 9GR,51.900098,-0.46558,Luton North,"Hall, Antony",Y,Y,,,Y,Y,Y,Y,Y,,Y,4,4,E06000032,E02003268,E00079449,146,114.0,78.0,0.85074,24.0,16.5427,0.10602
1-320496475,2011-10-31,Y,Milliner House,East of England,Luton,23-29 Marsh Road,Luton,LU3 2QF,51.899725,-0.448107,Luton North,"Hall, Antony",,,Y,,Y,,Y,Y,,,Y,5,5,E06000032,E02003263,E00079788,40,37.0,94.0,0.97043,2.0,5.7554,0.01011
1-3278187429,2017-04-04,Y,Oakley Lodge Care Home (57),East of England,Luton,57 Oakley Road,Luton,LU4 9PX,51.896227,-0.458416,Luton North,"Dhaliwal, Iqbal",Y,Y,,,Y,Y,,Y,,,Y,0,0,E06000032,E02003268,E00079475,3,3.0,98.41615214339902,,,,
1-330680822,2011-11-06,Y,Oakley Lodge Nursing Home,East of England,Luton,55 Oakley Road,Luton,LU4 9PX,51.896227,-0.458416,Luton North,"Dhaliwal, Iqbal",Y,Y,,,Y,Y,,Y,,,Y,0,0,E06000032,E02003268,E00079475,7,7.0,97.24267178952417,,,,
1-350380878,2012-02-05,Y,Rose Court,East of England,Luton,12 Bradgers Hill Road,Luton,LU2 7EL,51.901419,-0.411318,Luton North,"Cresswell, Rebekah",,,Y,,,Y,Y,,Y,,Y,3,3,E06000032,E02003264,E00079384,11,9.0,85.0,0.97793,1.0,10.4973,0.02245
1-351261620,2012-02-05,Y,Georgina House,East of England,Luton,20 Malzeard Road,Luton,LU3 1BD,51.887967,-0.424696,Luton South,"Cresswell, Rebekah",,,Y,,,Y,,,,,Y,6,6,E06000032,E02003274,E00079390,4,4.0,88.0,0.88486,1.0,13.6931,0.21679
1-351261656,2012-02-05,Y,Vaughan House,East of England,Luton,21 Studley Road,Luton,LU3 1BB,51.887094,-0.423941,Luton South,"Cresswell, Rebekah",,,Y,,,Y,Y,Y,,,Y,6,6,E06000032,E02003274,E00079409,10,9.0,88.0,0.93754,1.0,9.8319,0.05993
1-356941490,2012-01-25,Y,Stockwood House,East of England,Luton,1 Cutenhoe Road,Luton,LU1 3NB,51.866501,-0.413797,Luton South,"Mootoosamy, Asha",,,Y,,,,Y,,,,Y,4,4,E06000032,E02003278,E00079831,6,5.0,88.0,0.87413,1.0,15.9571,0.05919
1-5488292822,2018-07-16,Y,Edwardian Care Home,East of England,Luton,168 Biscot Road,Luton,LU3 1AX,51.890476,-0.428096,Luton South,"Hemmens, Shazia",,,Y,,Y,Y,Y,Y,,,Y,5,5,E06000032,E02003274,E00173281,34,24.0,69.0,0.77864,8.0,22.2638,0.21494
1-5688585746,2018-10-11,Y,Hope Lodge Care Home,East of England,Luton,98 Farley Hill,Luton,LU1 5NR,51.870244,-0.425983,Luton South,"Bussuruddy, Mohammad",,,Y,,,Y,Y,,,,,2,2,E06000032,E02003277,E00079542,3,3.0,100.0,0.94731,0.0,0.0,0.07323
1-6165938788,2019-01-17,Y,Moorland Gardens Care Home,East of England,Luton,Moorland Garden Street,Luton,LU2 7NX,51.88481,-0.417919,Luton South,"Goldstein, Alan",Y,Y,,,Y,,,Y,,,,3,3,E06000032,E02006937,E00079578,80,51.0,63.0,0.92692,4.0,4.3899,0.07977
1-9529345405,2020-09-15,Y,Bellflower House,East of England,Luton,11 Grange Avenue,Luton,LU4 9AS,51.904219,-0.461736,Luton North,"Sane, Karim",,,Y,,,Y,,,,,Y,0,0,E06000032,E02003262,E00079652,6,5.0,80.22702641188067,,,,
1-1079328822,2013-11-18,Y,Poppy Lodge Care Home,East of England,Southend-on-Sea,4 Drake Road,Westcliff On Sea,SS0 8LP,51.542815,0.68452,Southend West,"Kaur, Drinder",,,Y,,Y,,,Y,,,,1,1,E06000033,E02003290,E00080031,16,16.0,100.0,0.57477,,,
1-108771725,2010-12-02,Y,Cumberland Lodge,East of England,Southend-on-Sea,22 Cumberland Avenue,Southend On Sea,SS2 4LF,51.549742,0.734263,Rochford and Southend East,*,,,Y,,,,Y,,,,,2,2,E06000033,E02003284,E00080272,14,14.0,104.0,0.95707,2.0,15.1523,0.01787
1-1089148656,2013-12-06,Y,Lifstan Way Care Home,East of England,Southend-on-Sea,74 Lifstan Way,Southend On Sea,SS1 2XE,51.534673,0.741032,Rochford and Southend East,"Bloom, Adrienne",,,Y,,,,Y,,,,Y,0,0,E06000033,E02003294,E00080361,11,10.0,92.72904579097369,,,,
1-109716867,2010-12-02,Y,Victoria Court Private Rest Home,East of England,Southend-on-Sea,127-129 York Road,Southend On Sea,SS1 2DX,51.536728,0.721312,Rochford and Southend East,"Powell, Keith",,,Y,,Y,,,Y,,,Y,4,4,E06000033,E02003292,E00080080,29,24.0,81.0,0.90542,4.0,13.3551,0.08112
1-110224448,2011-01-07,Y,Westminster House Residential Care Limited,East of England,Southend-on-Sea,41 Westminster Drive,Westcliff On Sea,SS0 9SJ,51.546646,0.680231,Southend West,"Reilly, Linda",,,Y,,,,Y,Y,,,,0,0,E06000033,E02003285,E00080434,12,12.0,98.55569394800214,,,,
1-110452925,2011-01-10,Y,Manor Rest Home,East of England,Southend-on-Sea,35 Manor Road,Westcliff On Sea,SS0 7SR,51.53681,0.689892,Rochford and Southend East,*,,,Y,,Y,,Y,Y,,,,4,4,E06000033,E02003293,E00080167,19,18.0,92.0,0.91506,1.0,3.0387,0.11087
1-112803167,2011-01-12,Y,Westerley Residential Care Home for the Elderly - Westcliff-on-Sea,East of England,Southend-on-Sea,Westerley,Westcliff On Sea,SS0 7QU,51.536233,0.697804,Rochford and Southend East,"Lee, Simon",,,Y,,,,,Y,,,,2,2,E06000033,E02003293,E00080152,20,19.0,95.0,0.98319,0.0,0.0,0.00034
1-117328405,2011-01-05,Y,Fernbrook House,East of England,Southend-on-Sea,37-47 Fernbrook Avenue,Southend On Sea,SS1 2QW,51.539529,0.736406,Rochford and Southend East,"Raja, Mohammed",Y,Y,,,Y,,,Y,,,,6,6,E06000033,E02003287,E00080313,30,26.0,87.0,0.94546,2.0,6.9921,0.03275
1-117339835,2010-12-02,Y,The Grange,East of England,Southend-on-Sea,122 Crowstone Road,Westcliff On Sea,SS0 8LQ,51.540098,0.684966,Southend West,"Byfield, Patricia",,,Y,,,,Y,Y,,,,4,4,E06000033,E02003290,E00080011,18,17.0,93.0,0.92677,1.0,5.319,0.09931
1-117535668,2011-01-20,Y,Milton House,East of England,Southend-on-Sea,58 Avenue Road,Westcliff On Sea,SS0 7PJ,51.538845,0.701939,Rochford and Southend East,*,,,Y,,Y,,,Y,,,Y,2,2,E06000033,E02003293,E00080163,28,25.0,89.0,0.95407,3.0,10.1015,0.0309
1-117535694,2011-01-20,Y,Meyrin House,East of England,Southend-on-Sea,35 Hobleythick Lane,Westcliff On Sea,SS0 0RP,51.553447,0.693485,Southend West,*,,,Y,,Y,,,Y,,,,3,3,E06000033,E02003282,E00080197,18,14.0,80.0,0.97445,1.0,6.415,0.0041
1-117535724,2011-01-20,Y,Whittingham House,East of England,Southend-on-Sea,Whittingham Avenue,Southend On Sea,SS2 4RH,51.546333,0.741992,Rochford and Southend East,*,,,Y,,Y,,,Y,,,Y,0,0,E06000033,E02003287,E00080324,70,30.0,42.92758373119216,,,,
1-118000088,2011-02-07,Y,Sandringham,East of England,Southend-on-Sea,5-7 Westcliff Avenue,Westcliff On Sea,SS0 7QR,51.535772,0.698671,Rochford and Southend East,"Rogers, Michelle",,,Y,,Y,,Y,Y,Y,Y,Y,3,3,E06000033,E02003293,E00080152,20,13.0,65.0,0.84445,10.0,52.2015,0.15241
1-118803895,2010-12-03,Y,Windermere Rest Home,East of England,Southend-on-Sea,23-25 Windermere Road,Southend On Sea,SS1 2RF,51.539634,0.72535,Rochford and Southend East,*,,,Y,,Y,,,Y,,,,3,3,E06000033,E02003292,E00080072,10,8.0,80.0,0.86454,3.0,26.4575,0.1851
1-119187854,2011-03-02,Y,Mellor House,East of England,Southend-on-Sea,80 Station Road,Westcliff On Sea,SS0 7RQ,51.53639,0.69529,Rochford and Southend East,"Cowman, John",,,Y,,,Y,,,,,,0,0,E06000033,E02003293,E00080146,8,3.0,37.99387413187696,,,,
1-119324820,2010-11-17,Y,Livability Dolphin Court,East of England,Southend-on-Sea,179-182 Eastern Esplanade,Thorpe Bay,SS1 3AA,51.530445,0.741455,Rochford and Southend East,"Percy, Jane",,,Y,,Y,Y,,Y,Y,,Y,0,0,E06000033,E02003294,E00080343,17,15.0,86.3395345335635,,,,
1-119324957,2010-11-17,Y,Livability Kenway Court,East of England,Southend-on-Sea,5 Kenway,Southend On Sea,SS2 5DX,51.549083,0.712326,Rochford and Southend East,"Percy, Jane",Y,Y,,,,Y,,,Y,,Y,0,0,E06000033,E02003288,E00080390,24,19.0,78.37284454908325,,,,
1-119483345,2010-12-01,Y,Catherine Miller House,East of England,Southend-on-Sea,13-17 Old Leigh Road,Leigh On Sea,SS9 1LB,51.543994,0.67308,Southend West,"Stern, Anne",,,Y,,Y,,,Y,,,,7,7,E06000033,E02003290,E00080021,30,26.0,86.0,0.82738,2.0,8.0343,0.12173
1-119712852,2011-01-18,Y,Valkyrie Lodge,East of England,Southend-on-Sea,27 Valkyrie Road,Westcliff On Sea,SS0 8BY,51.539192,0.689946,Southend West,"Summun, Dinesh",,,Y,,,,Y,,,,,2,2,E06000033,E02003290,E00080013,6,5.0,83.0,0.72224,1.0,23.5702,0.34976
1-119814308,2011-01-17,Y,The Lilacs Residential Home,East of England,Southend-on-Sea,121 Chalkwell Avenue,Westcliff On Sea,SS0 8NL,51.541061,0.678662,Southend West,*,,,Y,,Y,,,Y,,,,4,4,E06000033,E02003290,E00080030,17,16.0,96.0,0.95058,1.0,5.6319,0.03861
1-120061607,2010-12-02,Y,Grandville Lodge Limited,East of England,Southend-on-Sea,17-19 Grand Drive,Leigh On Sea,SS9 1BG,51.540928,0.662155,Southend West,"Greenwood, Christine",,,Y,,Y,,,Y,,,,3,3,E06000033,E02003289,E00080132,19,18.0,96.0,0.91792,1.0,3.0387,0.0825
1-120294638,2011-01-13,Y,Elkington House Care Home,East of England,Southend-on-Sea,Elkington House,Westcliff On Sea,SS0 8NE,51.543612,0.686269,Southend West,"Richardson, Sarah",,,Y,,Y,,,Y,,Y,,2,2,E06000033,E02003290,E00080007,25,16.0,66.0,0.87766,2.0,8.4853,0.00878
1-121589458,2011-01-27,Y,Britannia Lodge,East of England,Southend-on-Sea,1 Ailsa Road,Southend On Sea,SS0 8BJ,51.53978,0.686303,Southend West,"Pretty, James",Y,Y,,,,,Y,,,,,3,3,E06000033,E02003290,E00080011,15,9.0,62.0,0.95481,2.0,13.8778,0.06018
1-122921685,2010-12-20,Y,Sands Lodge,East of England,Southend-on-Sea,15 Kings Road,Westcliff On Sea,SS0 8LL,51.541469,0.683994,Southend West,"Bloom, Adrienne",,,Y,,,Y,Y,,,,,3,3,E06000033,E02003290,E00080031,18,17.0,94.0,0.97478,2.0,9.6225,0.00648
1-123041411,2011-01-21,Y,SummerHill,East of England,Southend-on-Sea,211 Manchester Drive,Leigh On Sea,SS9 3ET,51.550905,0.654674,Southend West,"Raja, Mohammed",,,Y,,Y,Y,Y,Y,Y,Y,Y,1,1,E06000033,E02003281,E00079966,6,6.0,100.0,0.96175,,,
1-123041431,2011-01-21,Y,SummerView,East of England,Southend-on-Sea,35 Pembury Road,Westcliff On Sea,SS0 8DU,51.537171,0.687101,Southend West,"Raja, Mohammed",,,Y,,Y,Y,Y,Y,,Y,Y,4,4,E06000033,E02003290,E00080003,6,6.0,100.0,0.9629,1.0,13.6083,0.04444
1-123041450,2011-01-21,Y,SummerLodge,East of England,Southend-on-Sea,20 Grosvenor Road,Westcliff On Sea,SS0 8EN,51.537159,0.685255,Southend West,"Raja, Mohammed",,,Y,,,Y,Y,Y,Y,Y,Y,3,3,E06000033,E02003290,E00080017,6,5.0,78.0,0.99555,1.0,9.6225,0.00222
1-123041469,2011-01-21,Y,SunFlowers,East of England,Southend-on-Sea,37 Pembury Road,Westcliff On Sea,SS0 8DU,51.537171,0.687101,Southend West,"Raja, Mohammed",,,Y,,Y,Y,Y,Y,Y,Y,Y,4,4,E06000033,E02003290,E00080003,6,6.0,100.0,0.9848,0.0,0.0,0.01503
1-123815355,2011-01-07,Y,Westcliff Lodge Limited,East of England,Southend-on-Sea,118-120 Crowstone Road,Westcliff On Sea,SS0 8LQ,51.540098,0.684966,Southend West,"Smith, Jenny",,,Y,,Y,,,Y,,,,2,2,E06000033,E02003290,E00080011,22,20.0,89.0,0.76745,1.0,3.2141,0.24793
1-123895603,2011-01-14,Y,Biffins Care Home,East of England,Southend-on-Sea,18 Thorpedene Gardens,Southend On Sea,SS3 9JB,51.528722,0.777587,Rochford and Southend East,*,,,Y,,,,,Y,,,,3,3,E06000033,E02003295,E00080503,14,13.0,95.0,0.8768,1.0,4.1239,0.08007
1-124231278,2011-01-18,Y,Bali Hai Care Home,East of England,Southend-on-Sea,14-16 Southbourne Grove,Westcliff On Sea,SS0 9UR,51.546645,0.677303,Southend West,*,,,Y,,,,Y,,,,,4,4,E06000033,E02003285,E00080430,12,9.0,75.0,0.99401,1.0,6.8041,0.00951
1-125588814,2011-02-14,Y,Braemar Lodge Residential Care Home,East of England,Southend-on-Sea,481 Victoria Avenue,Sothend-on-Sea,SS2 6NL,51.555087,0.700781,Southend West,*,,,Y,,Y,,,Y,,,,6,6,E06000033,E02003282,E00080194,14,13.0,92.0,0.92566,3.0,20.9063,0.096
1-126102718,2011-01-24,Y,Bradbury Home,East of England,Southend-on-Sea,2 Roots Hall Drive,Southend On Sea,SS2 6DA,51.54792,0.702679,Southend West,"Pattinson, Jenny",,,Y,,Y,,,Y,,,,4,4,E06000033,E02003282,E00080178,36,22.0,62.0,0.9652,3.0,8.0188,0.01864
1-126242154,2010-11-25,Y,St Edith's Court,East of England,Southend-on-Sea,18 Hillside Crescent,Leigh On Sea,SS9 1EN,51.541886,0.666105,Southend West,"Martin, Robert",,,Y,,Y,,,Y,,,,3,3,E06000033,E02003289,E00080120,39,37.0,94.0,0.96057,2.0,5.3376,0.00334
1-126523534,2010-11-25,Y,Nightingale House,East of England,Southend-on-Sea,69-71 Crowstone Road,Westcliff On Sea,SS0 8BG,51.542158,0.686515,Southend West,*,,,Y,,Y,,,Y,,,,4,4,E06000033,E02003290,E00080007,30,26.0,88.0,0.95733,4.0,12.5831,0.02555
1-127549108,2010-11-26,Y,The Knoll,East of England,Southend-on-Sea,115 Southchurch Boulevard,Southend On Sea,SS2 4UR,51.54332,0.748533,Rochford and Southend East,"Heginbotham, Martyn",,,Y,,,Y,Y,,Y,,,2,2,E06000033,E02003287,E00080326,7,4.0,64.0,0.72784,1.0,10.1015,0.37678
1-127898786,2010-12-08,Y,Adalah Residential Rest Home Limited,East of England,Southend-on-Sea,20 Cliff Road,Leigh On Sea,SS9 1HJ,51.54184,0.670126,Southend West,"Kandola, Ken",,,Y,,Y,,,Y,,,,3,3,E06000033,E02003290,E00080026,30,25.0,82.0,0.97549,5.0,16.4429,0.00311
1-129881723,2011-01-05,Y,Norton Place,East of England,Southend-on-Sea,162 Ness Road,Shoeburyness,SS3 9DL,51.52764,0.781486,Rochford and Southend East,"Gregory, Helen",Y,Y,,,Y,Y,,Y,Y,,Y,4,4,E06000033,E02003295,E00080502,11,10.0,89.0,0.94463,1.0,8.7039,0.07538
1-130857157,2011-01-17,Y,Abbeyfield - St George's House,East of England,Southend-on-Sea,Park Terrace,Westcliff On Sea,SS0 7PH,51.539565,0.703482,Rochford and Southend East,"Speakman, Sue",,,Y,,,,,Y,,,,3,3,E06000033,E02003293,E00080160,26,21.0,82.0,0.74476,6.0,24.4264,0.19619
1-131481755,2010-12-16,Y,Kathryn Court,East of England,Southend-on-Sea,84 Ness Road,Shoeburyness,SS3 9DH,51.530727,0.782539,Rochford and Southend East,"O'Hare-Connolly, Gavin",,,Y,,Y,,,Y,Y,Y,Y,1,1,E06000033,E02003295,E00080500,52,49.0,94.0,0.43872,,,
1-131481986,2010-12-16,Y,Crowstone House,East of England,Southend-on-Sea,Crowstone Avenue,Westcliff On Sea,SS0 8HT,51.537692,0.681219,Southend West,"O'Hare-Connolly, Gavin",,,Y,,Y,,,Y,Y,Y,Y,4,4,E06000033,E02003290,E00080014,54,47.0,87.0,0.91371,1.0,2.6189,0.04465
1-131959049,2010-12-01,Y,Cavell Lodge,East of England,Southend-on-Sea,5 Blenheim Chase,Leigh On Sea,SS9 3BZ,51.555142,0.650261,Southend West,"Laav, Sudeep",,,Y,,Y,,,Y,,,,4,4,E06000033,E02003281,E00079950,36,31.0,87.0,0.92633,4.0,12.5,0.06551
1-132647930,2011-01-21,Y,Blakeney House,East of England,Southend-on-Sea,33-35 Park Road,Westcliff On Sea,SS0 7PQ,51.538956,0.704917,Rochford and Southend East,"Morgan, Edward",,,Y,,,Y,,,,,Y,2,2,E06000033,E02003293,E00080160,10,10.0,95.0,0.75089,1.0,7.0711,0.15699
1-132660169,2011-01-21,Y,Kingston House,East of England,Southend-on-Sea,43 Woodfield Park Drive,Leigh On Sea,SS9 1LN,51.545295,0.666896,Southend West,"Morgan, Edward",,,Y,,,Y,,,,,Y,3,3,E06000033,E02003289,E00080115,9,7.0,74.0,0.96323,2.0,16.9725,0.00718
1-132660308,2011-01-21,Y,Southwold House,East of England,Southend-on-Sea,16-18 Cliff Road,Leigh On Sea,SS9 1HJ,51.54184,0.670126,Southend West,"Morgan, Edward",,,Y,Y,,Y,,,,,Y,3,3,E06000033,E02003290,E00080026,12,6.0,50.0,0.93352,4.0,30.0463,0.08472
1-135005916,2010-12-03,Y,Melrose House,East of England,Southend-on-Sea,95 Alexandra Road,Southend On Sea,SS1 1HD,51.53519,0.704823,Rochford and Southend East,*,,,Y,,Y,,,Y,Y,Y,Y,8,8,E06000033,E02003293,E00080147,34,18.0,53.0,0.92122,4.0,12.3789,0.06368
1-135546338,2010-11-08,Y,Maranatha Residential Home,East of England,Southend-on-Sea,211 York Road,Southend On Sea,SS1 2RU,51.536883,0.726282,Rochford and Southend East,"Thurairajah, Vijayatharan",,Y,,,,,,Y,,,,3,3,E06000033,E02003292,E00080078,15,15.0,98.0,0.92104,2.0,13.8778,0.01857
1-1445026223,2014-07-01,Y,Elgin Rest Home,East of England,Southend-on-Sea,12-14 Manor Road,Westcliff On Sea,SS0 7SS,51.536508,0.690523,Rochford and Southend East,*,,,Y,,Y,,,Y,Y,Y,,4,4,E06000033,E02003293,E00080141,17,14.0,84.0,0.91147,2.0,13.8995,0.06873
1-152537829,2011-01-28,Y,Astral Lodge Residential Home,East of England,Southend-on-Sea,33-35 Ailsa Road,Westcliff On Sea,SS0 8BJ,51.53978,0.686303,Southend West,*,,,Y,,Y,,,Y,,,,4,4,E06000033,E02003290,E00080011,14,13.0,95.0,0.94403,0.0,3.5714,0.05442
1-152537876,2011-01-28,Y,Beaufort Lodge,East of England,Southend-on-Sea,10-12 St Vincent's Road,Westcliff On Sea,SS0 7PR,51.537116,0.701245,Rochford and Southend East,*,,,Y,,Y,,,Y,,,,2,2,E06000033,E02003293,E00080137,21,14.0,64.0,0.92746,5.0,23.5702,0.01814
1-152537902,2011-01-28,Y,Aarandale Lodge,East of England,Southend-on-Sea,2-4 St Vincent's Road,Westcliff On Sea,SS0 7PR,51.537116,0.701245,Rochford and Southend East,*,,,Y,,Y,,,Y,,,,3,3,E06000033,E02003293,E00080137,20,18.0,90.0,0.97244,3.0,13.2288,0.00627
1-1543760799,2014-07-18,Y,Bliss Care Home,East of England,Southend-on-Sea,23 Cobham Road,Westcliff,SS0 8EG,51.537148,0.685759,Southend West,"Gulhan, Erbil",,,Y,,Y,,Y,Y,Y,,,3,3,E06000033,E02003290,E00080017,15,11.0,73.0,0.98076,4.0,26.6667,0.01678
1-156343233,2011-01-19,Y,Palmerston House Care Home,East of England,Southend-on-Sea,21 Palmerston Road,Westcliff On Sea,SS0 7TA,51.536695,0.68827,Southend West,"Tekin, Fatih",,,Y,,Y,,,Y,,,,3,3,E06000033,E02003290,E00080016,22,21.0,97.0,0.9464,1.0,2.6243,0.06243
1-164443323,2011-01-26,Y,Boscombe Lodge Nursing Home,East of England,Southend-on-Sea,65 Boscombe Road,Southend On Sea,SS2 5JD,51.541492,0.721063,Rochford and Southend East,"Raja, Mohammed",Y,Y,,,Y,,,Y,,,,6,6,E06000033,E02003292,E00080097,31,25.0,80.0,0.95881,4.0,14.3418,0.04315
1-1691563907,2014-10-24,Y,Langley Lodge Nursing Home,East of England,Southend-on-Sea,Langley Lodge,Westcliff 0n Sea,SS0 8NQ,51.544346,0.682086,Southend West,"Harris, Sara",Y,Y,,,Y,,,Y,Y,Y,Y,1,1,E06000033,E02003290,E00080020,29,22.0,76.0,0.98006,,,
1-1736559275,2015-01-21,Y,Crowstone Manor,East of England,Southend-on-Sea,38 Crowstone Road,Westcliff On Sea,SS0 8BA,51.543774,0.688197,Southend West,"Livingstone-Stallard, Wendy",,,Y,,,,,Y,,,,2,2,E06000033,E02003290,E00080022,12,11.0,92.0,0.61009,0.0,0.0,0.18841
1-1785374723,2015-01-08,Y,Uplands,East of England,Southend-on-Sea,27-31 Cobham Road,Westcliff On Sea,SS0 8EG,51.537148,0.685759,Southend West,"Soni, Akash",Y,Y,,,,,,Y,,,Y,3,3,E06000033,E02003290,E00080017,23,15.0,64.0,0.91701,3.0,13.2828,0.06097
1-2105514202,2015-07-01,Y,Brooklands Nursing Home,East of England,Southend-on-Sea,25 Lambeth Road,Leigh On Sea,SS9 5XR,51.567836,0.655646,Southend West,"Nair, Rajesh",Y,Y,,,Y,,,Y,Y,,Y,4,4,E06000033,E02003279,E00080050,45,40.0,90.0,0.76949,3.0,6.6667,0.22452
1-2233797298,2015-09-30,Y,Silversea Lodge,East of England,Southend-on-Sea,46 Silversea Drive,Westcliff-on-Sea,SS0 9XE,51.547077,0.675121,Southend West,*,,,Y,,,,,Y,,,,4,4,E06000033,E02003283,E00079979,15,14.0,92.0,0.88976,1.0,8.3887,0.16518
1-251677656,2011-06-08,Y,Legra Residential Care Home,East of England,Southend-on-Sea,54 Salisbury Road,Leigh On Sea,SS9 2JY,51.545644,0.64554,Southend West,"Raja, Mahboob",,,Y,,Y,,,Y,,,,3,3,E06000033,E02003286,E00080472,20,15.0,73.0,0.81382,1.0,2.8868,0.28009
1-2742339827,2016-09-26,Y,Avondale Rest Home,East of England,Southend-on-Sea,38 Avondale Drive,Leigh On Sea,SS9 4HN,51.558061,0.660357,Southend West,"Reilly, Linda",,,Y,,Y,,,Y,Y,,,9,9,E06000033,E02003283,E00079988,19,17.0,88.0,0.89156,3.0,13.4185,0.10135
1-2793531144,2016-07-27,Y,Meteor Rest Home,East of England,Southend-on-Sea,34-36 Meteor Road,Westcliff On Sea,SS0 8DG,51.539344,0.689594,Southend West,"Joysury, Manilall",,,Y,,Y,,Y,Y,Y,Y,,3,3,E06000033,E02003290,E00080016,15,15.0,98.0,0.96791,1.0,3.849,0.00817
1-306349373,2011-09-12,Y,Brambles Care Home,East of England,Southend-on-Sea,22 Cliff Road,Leigh On Sea,SS9 1HJ,51.54184,0.670126,Southend West,"Kandola, Ken",,,Y,,Y,,,Y,,,,3,3,E06000033,E02003290,E00080026,29,21.0,74.0,0.9616,4.0,14.3563,0.02788
1-307401013,2011-09-30,Y,Rose Martha Court,East of England,Southend-on-Sea,64 Leigh Road,Leigh on Sea,SS9 1LS,51.543303,0.668654,Southend West,"Boote, Alison",,,Y,,Y,,,Y,,,Y,5,5,E06000033,E02003290,E00080026,76,50.0,66.0,0.86194,11.0,14.3234,0.12537
1-3303374244,2017-02-01,Y,Alyson House,East of England,Southend-on-Sea,11 Cobham Road,Westcliff On Sea,SS0 8EG,51.537148,0.685759,Southend West,"Sedani, Nirajkumar",,,Y,,Y,Y,,Y,,Y,Y,1,1,E06000033,E02003290,E00080017,9,9.0,100.0,0.99908,,,
1-371580106,2012-02-03,Y,Cedars Care Home,East of England,Southend-on-Sea,14 Sweyne Avenue,Southend On Sea,SS2 6FQ,51.543693,0.703063,Rochford and Southend East,"MacKay, Laird",Y,Y,,,Y,,,Y,,,,2,2,E06000033,E02003288,E00080403,48,45.0,94.0,0.95572,0.0,0.0,0.01243
1-3797068245,2017-05-10,Y,Newbrae Care Home Limited,East of England,Southend-on-Sea,41 Crowstone Road,Westcliff On Sea,SS0 8BG,51.542158,0.686515,Southend West,"Kaur, Daljit",,,Y,,Y,,,Y,Y,Y,,2,2,E06000033,E02003290,E00080007,10,10.0,100.0,0.813,0.0,0.0,0.24112
1-3835719622,2017-06-08,Y,Kimberley Grace Care Home,East of England,Southend-on-Sea,15-17 Grosvenor Road,Westcliff On Sea,SS0 8EP,51.537088,0.684428,Southend West,*,,,Y,,Y,,,Y,,,,5,5,E06000033,E02003290,E00080002,17,15.0,86.0,0.94368,2.0,11.4668,0.04188
1-3840822186,2017-05-22,Y,The Hollies,East of England,Southend-on-Sea,70 Canewdon Road,Westcliff On Sea,SS0 7NE,51.538145,0.696792,Rochford and Southend East,"Batt, Veneta",,,Y,,Y,Y,,Y,,,Y,6,6,E06000033,E02003293,E00080136,10,9.0,93.0,0.88779,1.0,12.1106,0.13098
1-3880856915,2017-07-14,Y,Delaware House,East of England,Southend-on-Sea,Maplin Way North,Southend On Sea,SS3 9PS,51.53632,0.769685,Rochford and Southend East,"Unsworth, Stephen",,,Y,,Y,,Y,Y,Y,,Y,3,3,E06000033,E02003295,E00080474,25,19.0,76.0,0.93197,3.0,10.583,0.0889
1-3881732105,2017-07-14,Y,Priory House,East of England,Southend-on-Sea,Prittlewell Chase,Westcliff On Sea,SS0 0SR,51.551464,0.701115,Southend West,"Unsworth, Stephen",,,Y,,Y,,Y,Y,Y,,Y,3,3,E06000033,E02003282,E00080201,29,24.0,82.0,0.83341,1.0,1.9909,0.1858
1-3982861220,2017-07-31,Y,Joseph House Nursing Home,East of England,Southend-on-Sea,51-53 Elm Road,Southend On Sea,SS3 9PD,51.534154,0.782907,Rochford and Southend East,"Agha, Bilquis",Y,Y,,,Y,,Y,Y,Y,,,3,3,E06000033,E02003295,E00080491,20,15.0,77.0,0.8205,3.0,16.0728,0.26238
1-428180948,2012-05-29,Y,Admiral Court,East of England,Southend-on-Sea,Manchester Drive,Leigh On Sea,SS9 3HP,51.551187,0.665235,Southend West,"Brown, Aneurin",Y,Y,Y,,Y,,Y,Y,,Y,Y,0,0,E06000033,E02003283,E00079974,60,55.0,92.08570428845891,,,,
1-434203618,2012-06-15,Y,St Martins Residential Home,East of England,Southend-on-Sea,59 Imperial Avenue,Westcliff On Sea,SS0 8NQ,51.544346,0.682086,Southend West,"Rogers, Michelle",,,Y,,Y,,Y,Y,Y,Y,,4,4,E06000033,E02003290,E00080020,26,27.0,104.0,0.71763,3.0,10.4154,0.1787
1-4444737797,2017-11-02,Y,Phoenix House,East of England,Southend-on-Sea,124 Crowstone Road,Westcliff On Sea,SS0 8LQ,51.540098,0.684966,Southend West,"Ismail, Iqbal",,,Y,,,Y,,Y,Y,Y,Y,2,2,E06000033,E02003290,E00080011,9,8.0,94.0,0.91658,1.0,7.8567,0.04838
1-4621208481,2018-01-02,Y,Ailsa House Residential Care Home,East of England,Southend-on-Sea,64-66 Genesta Road,Westcliff On Sea,SS0 8DB,51.540714,0.687901,Southend West,"Nair, Rajesh",,,Y,,Y,,Y,Y,Y,Y,Y,5,5,E06000033,E02003290,E00080032,18,15.0,86.0,0.83419,3.0,13.9443,0.16435
1-4652170082,2018-03-19,Y,Abbottswood Lodge Residential Care Home,East of England,Southend-on-Sea,226 Southchurch Road,Southend On Sea,SS1 2LS,51.539877,0.720692,Rochford and Southend East,*,,,Y,,Y,,Y,Y,,,,6,6,E06000033,E02003292,E00080074,13,12.0,92.0,0.91073,1.0,8.4265,0.05868
1-485651765,2012-10-02,Y,Lighthouse,East of England,Southend-on-Sea,403-407,Westcliff-on-sea,SS0 9TW,51.547476,0.6809,Southend West,"Hassan, Mahmood",,,Y,,,Y,Y,,,Y,Y,1,1,E06000033,E02003285,E00080434,14,13.0,93.0,0.9598,,,
1-485753019,2012-10-02,Y,Fairmead,East of England,Southend-on-Sea,45 Fairmead Avenue,Westcliff On Sea,SS0 9RY,51.546642,0.681197,Southend West,"Hassan, Mahmood",,,Y,Y,,Y,Y,,,Y,Y,2,2,E06000033,E02003285,E00080434,3,2.0,83.0,0.79208,1.0,23.5702,0.29275
1-4914412108,2018-03-07,Y,Havengore House Residential Care Home,East of England,Southend-on-Sea,27 Fairfield Road,Leigh-on-sea,SS9 5RZ,51.568912,0.659749,Southend West,"Tekin, Fatih",,,Y,,Y,,Y,Y,Y,,Y,4,4,E06000033,E02003279,E00080052,22,21.0,94.0,0.86445,1.0,5.7196,0.11621
1-495119754,2012-10-15,Y,Maplin House,East of England,Southend-on-Sea,117-119 Church Road,Southend On Sea,SS3 9EY,51.527911,0.773832,Rochford and Southend East,"Meeajun, Mohammud",,,Y,,Y,Y,Y,Y,Y,Y,Y,3,3,E06000033,E02003295,E00080476,16,9.0,58.0,0.77712,2.0,14.4338,0.25869
1-519903124,2012-11-27,Y,Old Leigh House,East of England,Southend-on-Sea,3 Old Leigh Road,Leigh-on-Sea,SS9 1LB,51.543994,0.67308,Southend West,"Smith, Peter",Y,,Y,,,Y,Y,,,,Y,2,2,E06000033,E02003290,E00080021,6,6.0,92.0,0.8239,1.0,11.7851,0.24637
1-547619720,2012-12-12,Y,Boulevard Lodge,East of England,Southend-on-Sea,163 Southchurch Boulevard,Southend On Sea,SS2 4UT,51.543874,0.751739,Rochford and Southend East,"Khan, Liaqat",,,Y,,Y,Y,Y,Y,,,Y,4,4,E06000033,E02003287,E00080328,9,8.0,89.0,0.94778,1.0,9.0722,0.05981
1-6123919435,2018-12-12,Y,West House,East of England,Southend-on-Sea,11 St. Vincents Road,Westcliff-on-sea,SS0 7PP,51.536711,0.702029,Rochford and Southend East,"Abel, Allyson",,,Y,,Y,,Y,Y,Y,Y,,6,6,E06000033,E02003293,E00080137,26,25.0,96.0,0.73792,1.0,3.7815,0.16815
1-6859065133,2019-06-06,Y,Ossis Lodge,East of England,Southend-on-Sea,83 Hobleythick Lane,Westcliff-on-sea,SS0 0RN,51.556933,0.694802,Southend West,"Hassan, Mahmood",,,Y,,,Y,,Y,Y,Y,Y,1,1,E06000033,E02003282,E00080190,6,5.0,83.0,0.99908,,,
1-6920419377,2019-05-24,Y,Marigold Respite Centre,East of England,Southend-on-Sea,62 Avenue Road,Westcliff-on-sea,SS0 7PJ,51.538845,0.701939,Rochford and Southend East,"Bray, Susan",,,Y,,,Y,,,Y,Y,Y,0,0,E06000033,E02003293,E00080163,4,3.0,68.66600076483675,,,,
1-719523151,2013-05-08,Y,Mountdale Nursing Home,East of England,Southend-on-Sea,59 Mountdale Gardens,Leigh On Sea,SS9 4AP,51.559056,0.662103,Southend West,"Dogar, Nathaniel",Y,Y,,,Y,Y,,Y,Y,,Y,0,0,E06000033,E02003283,E00079988,24,18.0,73.90624546162127,,,,
1-794243708,2013-06-24,Y,Beacon House,East of England,Southend-on-Sea,18 Albion Road,Westcliff On Sea,SS0 7DR,51.543586,0.696018,Rochford and Southend East,"Hassan, Mahmood",,,Y,,,Y,Y,,Y,Y,Y,2,2,E06000033,E02003288,E00080406,5,2.0,50.0,0.96507,1.0,14.1421,0.00635
1-858413059,2013-07-29,Y,Ravensmere Rest Home,East of England,Southend-on-Sea,13-15 Manor Road,Westcliff On Sea,SS0 7SR,51.53681,0.689892,Rochford and Southend East,"Stavrinides, Andreas",,,Y,,Y,Y,Y,Y,Y,Y,Y,8,8,E06000033,E02003293,E00080167,24,15.0,64.0,0.82558,6.0,23.7732,0.12906
1-858413664,2013-07-29,Y,Alexander House Private Nursing Home,East of England,Southend-on-Sea,25-27 First Avenue,Westcliff On Sea,SS0 8HS,51.538567,0.681905,Southend West,"Stavrinides, Andreas",Y,Y,,,Y,Y,Y,Y,Y,Y,Y,7,7,E06000033,E02003290,E00080014,25,16.0,63.0,0.74629,5.0,21.13,0.11998
1-858458790,2013-07-29,Y,Health and Home Ltd - North Road,East of England,Southend-on-Sea,148-150 North Road,Westcliff On Sea,SS0 7AG,51.544875,0.702527,Rochford and Southend East,"Stavrinides, Andreas",,,Y,,Y,Y,Y,Y,Y,Y,Y,4,4,E06000033,E02003288,E00080400,9,6.0,72.0,0.89183,2.0,21.2762,0.08698
1-9173028384,2020-09-21,Y,Cherrycroft,East of England,Southend-on-Sea,59 Crowstone Road,Westcliff-on-sea,SS0 8BG,51.542158,0.686515,Southend West,"Collier, Sam",,,Y,,,Y,,,Y,,Y,3,3,E06000033,E02003290,E00080007,10,9.0,90.0,0.88575,1.0,10.0,0.17049
1-9178713544,2020-07-17,Y,Memory House,East of England,Southend-on-Sea,6-9 Marine Parade,Leigh-on-sea,SS9 2NA,51.543008,0.646353,Southend West,"O'Hare-Connolly, Gavin",,,Y,,Y,,,Y,,,Y,5,5,E06000033,E02003286,E00080444,39,34.0,87.0,0.81816,1.0,3.6262,0.16763
R1LJ3,2017-03-31,Y,Clifton Lodge,East of England,Southend-on-Sea,Balmoral Road,Westcliff On Sea,SS0 7DB,51.543745,0.699633,Rochford and Southend East,"Scott, Paul",Y,Y,,,Y,,Y,Y,,,Y,1,1,E06000033,E02003288,E00080404,35,30.0,86.0,0.97938,,,
1-112284359,2010-11-10,Y,A M Care Home Limited,East of England,Thurrock,56-58 Lodge Lane,Grays,RM16 2YH,51.489414,0.335754,Thurrock,"Dharmalingam, Angappan",,,Y,,,Y,Y,,,,Y,1,1,E06000034,E02003305,E00080725,8,7.0,88.0,0.99811,,,
1-116786462,2010-12-20,Y,Sunnyside House Limited,East of England,Thurrock,130 High Street,South Ockendon,RM15 4BX,51.498862,0.254628,Thurrock,"Azzopardi, Andrew",,,Y,,,Y,,,,,,1,1,E06000034,E02007004,E00080526,14,14.0,100.0,0.97618,,,
1-116790648,2011-01-19,Y,Dexter Close,East of England,Thurrock,44 Dexter Close,Grays,RM17 5AU,51.487994,0.323034,Thurrock,"Barron, Nigel",,,Y,,,Y,,,,,,2,2,E06000034,E02003304,E00080694,2,2.0,100.0,0.9986,0.0,0.0,0.00069
1-116790662,2011-01-19,Y,Long Lane,East of England,Thurrock,130 Long Lane,Grays,RM16 2PR,51.495644,0.328653,Thurrock,"Barron, Nigel",,,Y,,,Y,,,,,,2,2,E06000034,E02003304,E00080876,2,2.0,100.0,0.99811,0.0,0.0,0.0
1-117638275,2010-12-24,Y,Merrie Loots Farm Residential Home,East of England,Thurrock,Merrie Loots Farm,Linford,SS17 0QS,51.489907,0.409623,South Basildon and East Thurrock,"Johar, Navneet",,,Y,,Y,,,Y,,,Y,3,3,E06000034,E02003308,E00080637,28,27.0,96.0,0.87788,0.0,0.0,0.09769
1-117638504,2010-12-02,Y,Hollywood Rest Home,East of England,Thurrock,34 Cresthill Avenue,Grays,RM17 5UJ,51.482499,0.333024,Thurrock,*,,,Y,,Y,,Y,Y,,,Y,5,5,E06000034,E02003311,E00080699,46,33.0,72.0,0.68776,7.0,15.6763,0.13842
1-118368747,2011-01-20,Y,The Homesteads,East of England,Thurrock,216 Southend Road,Stanford Le Hope,SS17 7AQ,51.524369,0.4366,South Basildon and East Thurrock,*,,,Y,,,Y,,,,,,2,2,E06000034,E02003298,E00080840,8,8.0,100.0,0.96956,0.0,0.0,0.0
1-122577769,2010-12-16,Y,Larwood,East of England,Thurrock,Fulbrook Lane,South Ockendon,RM15 5JY,51.503844,0.274688,Thurrock,"Chamberlain, Peter",,,Y,,,Y,,,,,,1,1,E06000034,E02003302,E00080551,8,8.0,100.0,0.95982,,,
1-123533816,2010-12-07,Y,Grays Court,East of England,Thurrock,Church Street,Grays,RM17 6EG,51.475134,0.336609,Thurrock,"Farebrother, Colin",Y,Y,,,Y,,,Y,,,,3,3,E06000034,E02003311,E00080710,87,76.0,87.0,0.95971,1.0,1.3272,0.04943
1-124780145,2011-02-03,Y,Satash Community Care Project Limited,East of England,Thurrock,109-111 Mollands Lane,South Ockendon,RM15 6DJ,51.516087,0.301704,Thurrock,"Loganathan, Vyramuthu",,,Y,,,Y,,,,,Y,2,2,E06000034,E02003301,E00080756,8,6.0,75.0,0.9986,1.0,17.6777,0.00069
1-129881792,2011-01-05,Y,Estuary Housing Association Limited - 1 Bradd Close,East of England,Thurrock,1 Bradd Close,South Ockendon,RM15 6SA,51.520203,0.295929,Thurrock,"Gregory, Helen",Y,Y,,,,Y,,Y,Y,,Y,1,1,E06000034,E02003301,E00080775,8,7.0,88.0,0.71745,,,
1-1405546895,2014-05-09,Y,The Barn and Coach,East of England,Thurrock,High Road,Grays,RM16 5UE,51.499466,0.310462,Thurrock,*,,,Y,,Y,,,Y,,,,3,3,E06000034,E02006926,E00182500,15,14.0,93.0,0.93072,1.0,6.6667,0.00337
1-145056553,2011-04-27,Y,117-119 Mollands Lane,East of England,Thurrock,117-119 Mollands Lane,South Ockendon,RM15 6DJ,51.516087,0.301704,Thurrock,"Culshaw, Charlie",,,Y,,,Y,,Y,,,Y,2,2,E06000034,E02003301,E00080756,6,5.0,83.0,0.91134,0.0,0.0,0.1001
1-145056570,2011-04-27,Y,Breakaway,East of England,Thurrock,23 Park Lane,South Ockendon,RM15 4UB,51.500377,0.259083,Thurrock,"Culshaw, Charlie",,,Y,,,Y,,Y,Y,Y,Y,1,1,E06000034,E02003303,E00182469,4,2.0,50.0,0.9768,,,
1-1539887783,2014-07-22,Y,Orchid,East of England,Thurrock,51 Mollands Lane,South Ockendon,RM15 6DH,51.516023,0.29853,Thurrock,"Loganathan, Vyramuthu",,,Y,,,Y,,,,,Y,3,3,E06000034,E02003301,E00080756,4,3.0,83.0,0.97908,1.0,14.4338,0.01648
1-1690372585,2014-09-30,Y,Bluebell Nursing & Residential Home,East of England,Thurrock,Stanley Road,Grays,RM17 6QY,51.477208,0.326864,Thurrock,"Roopun, Robeen",Y,Y,,,Y,,,Y,,Y,,5,5,E06000034,E02003311,E00080679,80,71.0,89.0,0.93641,6.0,7.4687,0.0473
1-170836286,2011-01-25,Y,Aveley House,East of England,Thurrock,6 Park Lane,South Ockendon,RM15 4UD,51.500159,0.259663,Thurrock,"Mabhena, Isabel",,,Y,,,Y,,,,,,4,4,E06000034,E02003303,E00182469,7,5.0,71.0,0.7911,2.0,23.3285,0.20575
1-204558211,2011-04-06,Y,Collins House,East of England,Thurrock,Springhouse Road,Corringham,SS17 7LE,51.526324,0.448211,South Basildon and East Thurrock,"Billingham, Les",,,Y,,Y,,,Y,,,,2,2,E06000034,E02003297,E00080836,45,44.0,97.0,0.81829,1.0,1.5713,0.19469
1-2129533922,2015-07-20,Y,Willows Lodge Care Home,East of England,Thurrock,82-84 Calcutta Road,Tilbury,RM18 7QJ,51.461956,0.358769,Thurrock,"Newman, Hadley",Y,Y,,,Y,,Y,Y,,Y,Y,0,0,E06000034,E02003313,E00182499,70,31.0,44.61759176281082,,,,
1-373916330,2012-02-16,Y,Hollyrose House,East of England,Thurrock,116 Lodge Lane,Grays,RM16 2UL,51.489935,0.33084,Thurrock,*,,,Y,,Y,,Y,,,,Y,2,2,E06000034,E02003304,E00080878,12,10.0,88.0,0.78351,1.0,5.8926,0.24166
1-3774735981,2017-05-26,Y,Allensmead,East of England,Thurrock,13 Grangewick Road,Grays,RM16 2DW,51.486994,0.352888,Thurrock,"Mabhena, Isabel",,,Y,,,Y,,Y,,,Y,1,1,E06000034,E02003305,E00080726,1,1.0,100.0,0.85479,,,
1-4246378628,2017-12-14,Y,The Coach House,East of England,Thurrock,10 Woodward Heights,Grays,RM17 5RR,51.484249,0.328216,Thurrock,"Terrell, Nichola",Y,Y,,,,,,Y,Y,Y,Y,3,3,E06000034,E02003311,E00080702,13,12.0,95.0,0.72024,1.0,8.8823,0.22701
1-462937822,2012-10-08,Y,The Whitecroft,East of England,Thurrock,Stanford Road,Grays,RM16 3JL,51.500935,0.363995,South Basildon and East Thurrock,"O'Hare-Connolly, Gavin",,,Y,,Y,,,Y,,,Y,2,2,E06000034,E02003299,E00182430,56,50.0,88.0,0.91886,2.0,3.7881,0.04269
1-462953379,2012-10-08,Y,Leatherland Lodge,East of England,Thurrock,Darenth Lane,South Ockenden,RM15 5LS,51.508089,0.279756,Thurrock,"O'Hare-Connolly, Gavin",,,Y,,Y,,,Y,Y,Y,Y,1,1,E06000034,E02003302,E00080539,48,41.0,85.0,0.93452,,,
1-462962160,2012-10-08,Y,Bennett Lodge,East of England,Thurrock,Waterson Road,Chadwell St Mary,RM16 4LD,51.481568,0.372327,Thurrock,"O'Hare-Connolly, Gavin",,,Y,,Y,,,Y,Y,Y,Y,4,4,E06000034,E02003307,E00080585,48,42.0,88.0,0.94363,6.0,12.3105,0.0549
1-462995187,2012-10-08,Y,Carolyne House,East of England,Thurrock,Waterson Road,Chadwell St Mary,RM16 4LD,51.481568,0.372327,Thurrock,"O'Hare-Connolly, Gavin",Y,Y,,,Y,,,Y,Y,Y,Y,2,2,E06000034,E02003307,E00080585,52,52.0,99.0,0.86138,1.0,1.3598,0.09407
1-489149249,2012-10-08,Y,Cedar House,East of England,Thurrock,249 - 251 Southend Road,Stanford Le Hope,SS17 7AB,51.524964,0.436531,South Basildon and East Thurrock,"Bienvenu, Jocelyn",,,Y,,Y,,,Y,,,,2,2,E06000034,E02003298,E00080902,33,26.0,80.0,0.9687,8.0,23.5702,0.02274
1-4926095048,2018-03-29,Y,Avalon,East of England,Thurrock,Longhouse Road,Grays,RM16 4QP,51.487684,0.373192,Thurrock,"Griffiths, Moira",,,Y,,,Y,,,Y,Y,Y,2,2,E06000034,E02003307,E00080565,8,8.0,100.0,0.96956,0.0,0.0,0.0
1-4926303164,2018-03-29,Y,Gallimore Lodge,East of England,Thurrock,Meesons Lane,Grays,RM17 5HR,51.484071,0.311326,Thurrock,"Griffiths, Moira",,,Y,,,Y,,,Y,Y,Y,3,3,E06000034,E02003311,E00080653,8,6.0,79.0,0.84911,1.0,7.2169,0.24859
1-4926303217,2018-03-29,Y,38a Woolifers Avenue,East of England,Thurrock,38a Woolifers Avenue,Stanford-le-hope,SS17 9AU,51.527336,0.460317,South Basildon and East Thurrock,"Griffiths, Moira",,,Y,,,Y,,,Y,Y,Y,2,2,E06000034,E02003296,E00080621,3,2.0,83.0,0.70305,1.0,23.5702,0.34757
1-8822869905,2020-05-04,Y,Oak House,East of England,Thurrock,103 Corringham Road,Stanford-le-hope,SS17 0BA,51.516054,0.436848,South Basildon and East Thurrock,"Billingham, Les",,,Y,,Y,,,Y,Y,,,2,2,E06000034,E02003298,E00080857,9,13.0,144.0,0.91511,0.0,0.0,0.07721
1-9657042983,2020-12-01,Y,Meesons Lodge,East of England,Thurrock,Henry De Grey Close,Grays,RM17 5GH,51.483903,0.313003,Thurrock,"Collier, Sam",,,Y,,,Y,,,,,Y,1,1,E06000034,E02003311,E00080653,12,11.0,92.0,0.91547,,,
1-10023785774,2020-12-17,Y,Bromham House,East of England,Bedford,58 Stagsden Road,Bedford,MK43 8PT,52.145161,-0.529966,North East Bedfordshire,"Gohel, Kiran",,,Y,,,Y,Y,,,,Y,1,1,E06000055,E02003623,E00088172,4,4.0,100.0,0.99811,,,
1-10296491992,2021-02-02,Y,Orchid House,East of England,Bedford,43 Halsey Road,Bedford,MK42 8AT,52.121281,-0.492263,Bedford,"Melo, Isabel",,,Y,,,Y,,Y,,,Y,1,1,E06000055,E02003631,E00088417,6,6.0,100.0,0.99908,,,
1-108658057,2011-01-14,Y,Brook House Residential Home,East of England,Bedford,72 High Street,Bedford,MK44 1DT,52.252606,-0.47753,North East Bedfordshire,"Atkinson, Lesley",,,Y,,Y,,,Y,,,Y,5,5,E06000055,E02003616,E00088549,20,19.0,95.0,0.89725,0.0,0.0,0.09264
1-108814598,2011-01-12,Y,Lomack House,East of England,Bedford,29-33 Elstow Road,Bedford,MK42 8HD,52.115895,-0.49227,Bedford,"Odunsi, Lawrence",,,Y,,,Y,,,Y,Y,Y,3,3,E06000055,E02003632,E00088391,9,7.0,81.0,0.94763,1.0,6.415,0.0667
1-109134535,2011-01-04,Y,Salvete Care Home,East of England,Bedford,15-17 Rothsay Place,Bedford,MK40 3PX,52.137839,-0.457891,Bedford,*,,,Y,,Y,,,Y,Y,,,3,3,E06000055,E02003627,E00088221,40,31.0,77.0,0.95353,4.0,10.4083,0.01385
1-111148237,2010-12-30,Y,Dial House Nursing and Residential Home,East of England,Bedford,9 Dynevor Road,Bedford,MK40 2DB,52.140363,-0.47778,Bedford,"Ryan, Christopher",Y,Y,,,Y,,Y,Y,Y,Y,Y,4,4,E06000055,E02003625,E00183504,50,40.0,81.0,0.92333,4.0,7.746,0.05819
1-112872374,2010-11-05,Y,Crescent Nursing Home,East of England,Bedford,12 The Crescent,Bedford,MK40 2RU,52.140777,-0.472958,Bedford,"Thasan, Andrea",Y,Y,,,Y,Y,Y,Y,,,Y,5,5,E06000055,E02003625,E00088353,28,26.0,91.0,0.76535,1.0,4.7916,0.20964
1-112872412,2010-11-05,Y,Bunyan Lodge,East of England,Bedford,66-68 Kimbolton Road,Bedford,MK40 2NZ,52.143092,-0.459837,Bedford,"Thasan, Andrea",,,Y,,,,Y,,,,Y,2,2,E06000055,E02003624,E00088281,16,15.0,94.0,0.90817,1.0,8.8388,0.07437
1-115249983,2011-01-13,Y,Lotus House,East of England,Bedford,34 Lansdowne Road,Bedford,MK40 2BU,52.140641,-0.476982,Bedford,"Melo, Isabel",,,Y,,,Y,,,,,Y,1,1,E06000055,E02003625,E00183504,7,7.0,100.0,0.84685,,,
1-115250031,2011-01-13,Y,Lavanda Villa,East of England,Bedford,41 Halsey Road,Bedford,MK42 8AT,52.121281,-0.492263,Bedford,"Melo, Isabel",,,Y,,,Y,Y,,,Y,Y,3,3,E06000055,E02003631,E00088417,4,4.0,100.0,0.9214,0.0,0.0,0.07617
1-115481965,2010-12-02,Y,Holly Tree Lodge,East of England,Bedford,122 Spring Road,Bedford,MK42 8NB,52.119463,-0.481618,Bedford,*,,,Y,,Y,Y,Y,Y,Y,Y,,3,3,E06000055,E02003632,E00088390,14,10.0,69.0,0.72476,1.0,4.1239,0.07966
1-115483663,2011-02-02,Y,Lillibet House,East of England,Bedford,65 De Parys Avenue,Bedford,MK40 2TR,52.1433,-0.466457,Bedford,*,,,Y,,Y,,Y,Y,Y,,Y,2,2,E06000055,E02003624,E00088268,30,25.0,83.0,0.84252,0.0,0.0,0.17435
1-117977059,2010-12-22,Y,Anjulita Court,East of England,Bedford,Bramley Way,Bedford,MK41 7GD,52.168932,-0.462783,North East Bedfordshire,"Ryan, Daniel",Y,Y,,,Y,,,Y,,,,1,1,E06000055,E02003619,E00173753,62,61.0,98.0,0.92494,,,
1-118901623,2011-01-06,Y,Oasis House,East of England,Bedford,20 Linden Road,Bedford,MK40 2DA,52.141241,-0.479351,Bedford,"Kabange, Chandwe",,,Y,,Y,,,Y,,,,4,4,E06000055,E02003625,E00088355,30,30.0,100.0,0.73499,0.0,0.0,0.0
1-119207152,2011-01-21,Y,Elcombe House,East of England,Bedford,61 De Parys Avenue,Bedford,MK40 2TR,52.1433,-0.466457,Bedford,"Ryan, Christopher",,,Y,,Y,,,Y,Y,,Y,4,4,E06000055,E02003624,E00088268,23,20.0,89.0,0.92356,1.0,5.613,0.06904
1-119207168,2011-01-21,Y,Danecroft,East of England,Bedford,3 Dane Lane,Bedford,MK45 3HT,52.086482,-0.466989,Mid Bedfordshire,"Ryan, Christopher",,,Y,,Y,,,Y,Y,,Y,5,5,E06000055,E02007011,E00183592,33,28.0,85.0,0.88009,3.0,8.1312,0.05398
1-120082675,2010-11-16,Y,Beacon House,East of England,Bedford,12 Linden Road,Bedford,MK40 2DA,52.141241,-0.479351,Bedford,"Herridge, Christine",Y,Y,,,Y,,,Y,Y,,,3,3,E06000055,E02003625,E00088355,40,29.0,72.0,0.95393,1.0,2.5,0.01635
1-120099652,2010-11-16,Y,Lansglade House,East of England,Bedford,14 Lansdowne Road,Bedford,MK40 2BU,52.140641,-0.476982,Bedford,"Herridge, Christine",,,Y,,Y,,,Y,Y,,Y,5,5,E06000055,E02003625,E00183504,31,28.0,91.0,0.94558,2.0,7.356,0.02781
1-120099668,2010-11-16,Y,The Mallards,East of England,Bedford,5 Dynevor Road,Bedford,MK40 2DB,52.140363,-0.47778,Bedford,"Herridge, Christine",,,Y,,Y,,,Y,Y,,,4,4,E06000055,E02003625,E00183504,23,22.0,95.0,0.91304,2.0,6.5217,0.06225
1-120099684,2010-11-16,Y,Henrietta House,East of England,Bedford,3 Dynevor Road,Bedford,MK40 2DB,52.140363,-0.47778,Bedford,"Herridge, Christine",,,Y,,Y,,,Y,Y,,,4,4,E06000055,E02003625,E00183504,25,23.0,91.0,0.83008,1.0,3.8297,0.18058
1-120099700,2010-11-16,Y,Annandale Lodge,East of England,Bedford,8 Linden Road,Bedford,MK40 2DA,52.141241,-0.479351,Bedford,"Herridge, Christine",Y,Y,,,,,,Y,Y,,,2,2,E06000055,E02003625,E00088355,26,23.0,88.0,0.90088,1.0,5.4393,0.10869
1-121567262,2010-12-07,Y,Sharnbrook House,East of England,Bedford,High Street,Sharnbrook,MK44 1PB,52.226311,-0.544474,North East Bedfordshire,"Clarges, Julie",,,Y,,Y,,,Y,Y,,,3,3,E06000055,E02003616,E00088564,30,28.0,94.0,0.83899,2.0,5.0918,0.11983
1-121852495,2010-12-10,Y,Cranwell Court,East of England,Bedford,The Lane,Bedford,MK44 3AS,52.198684,-0.311241,North East Bedfordshire,"Jones, Carol",,,Y,,,Y,Y,,,,,3,3,E06000055,E02003619,E00088556,7,5.0,76.0,0.9496,2.0,32.9914,0.06034
1-121861308,2010-12-16,Y,Crossways Nursing Home,East of England,Bedford,86 Hookhams Lane,Bedford,MK41 0JX,52.159425,-0.427132,North East Bedfordshire,"Norris, Clare",Y,Y,,,Y,,,Y,Y,,,3,3,E06000055,E02003619,E00088336,30,21.0,71.0,0.97586,3.0,10.1835,0.00484
1-123627365,2011-02-15,Y,St Margaret's Residential Home,East of England,Bedford,10 Rothsay Road,Bedford,MK40 3PW,52.135582,-0.457911,Bedford,"Mootien, Calleemootoo",,,Y,,Y,Y,,Y,Y,,,4,4,E06000055,E02003627,E00088195,21,15.0,73.0,0.82516,9.0,42.4807,0.10857
1-123627384,2011-02-15,Y,Bushmead Court Residential Home,East of England,Bedford,Bushmead Court,Bedford,MK40 3QW,52.136167,-0.455144,Bedford,"Mootien, Calleemootoo",,,Y,,Y,,,Y,Y,,,4,4,E06000055,E02003627,E00088198,27,18.0,69.0,0.8572,2.0,8.8166,0.14937
1-124681892,2010-11-25,Y,Albert House,East of England,Bedford,167 High Street,Bedford,MK41 6AH,52.162251,-0.500528,North East Bedfordshire,"Spurling, Julian",,,Y,,,Y,,,Y,,,3,3,E06000055,E02003618,E00088260,8,8.0,100.0,0.7988,0.0,0.0,0.23255
1-125022423,2011-01-12,Y,Kimbolton Lodge,East of England,Bedford,1 Kimbolton Road,Bedford,MK40 2NT,52.141913,-0.45979,Bedford,"Elliott, Graham",Y,Y,,,,,,Y,Y,Y,Y,5,5,E06000055,E02003624,E00088281,36,33.0,91.0,0.85644,2.0,6.0221,0.15272
1-127549140,2010-11-26,Y,Azalea House,East of England,Bedford,69-71 Winifred Road,Bedford,MK40 4EP,52.136237,-0.487638,Bedford,"Heginbotham, Martyn",,,Y,,,Y,Y,,,,,2,2,E06000055,E02003628,E00088533,8,5.0,62.0,0.99061,0.0,0.0,0.01199
1-128592610,2010-12-06,Y,Kelvin Grove,East of England,Bedford,18 Rothsay Road,Bedford,MK40 3PN,52.136286,-0.458749,Bedford,"Thompson-Turvey, Sarah",,,Y,,,,Y,,,,,3,3,E06000055,E02003627,E00088221,12,12.0,97.0,0.75253,1.0,4.8113,0.10528
1-129421645,2010-12-15,Y,Milton Ernest Hall Care Home,East of England,Bedford,Milton Ernest,Bedford,MK44 1RJ,52.189453,-0.509985,North East Bedfordshire,"Brown, Pamela",Y,Y,,,,,,Y,Y,,,2,2,E06000055,E02003618,E00088265,29,24.0,84.0,0.88616,1.0,2.4383,0.01668
1-129459930,2010-12-20,Y,74 Old Ford End,East of England,Bedford,Queens Park,Bedford,MK40 4LY,52.132166,-0.492714,Bedford,"Cannon, Andrew",,,Y,,,Y,,,,,Y,1,1,E06000055,E02003628,E00088528,6,6.0,100.0,0.58346,,,
1-129995359,2010-12-13,Y,George Beal House,East of England,Bedford,Off Williamson Road,Bedford,MK42 7HL,52.110666,-0.504552,Bedford,"Walker, Catherine",,,Y,,,Y,,,,,Y,3,3,E06000055,E02003633,E00088436,12,31.0,256.0,0.9633,45.0,371.309,0.01605
1-130251927,2011-01-10,Y,The Willows Residential and Nursing Home,East of England,Bedford,73 Shakespeare Road,Bedford,MK40 2DW,52.144895,-0.481952,Bedford,"Thayanandarajah, Sumithra",Y,Y,,,Y,,,Y,Y,,Y,4,4,E06000055,E02003625,E00088357,32,30.0,93.0,0.90258,2.0,5.9155,0.07069
1-130784599,2011-01-27,Y,Waterloo House Care Home Limited,East of England,Bedford,36 Waterloo Road,Bedford,MK40 3PQ,52.135701,-0.460128,Bedford,"Camiah, Vijaya",,,Y,,Y,,,Y,Y,,Y,2,2,E06000055,E02003627,E00088195,24,22.0,94.0,0.72788,1.0,2.9463,0.2226
1-1331903486,2014-04-07,Y,Brookside,East of England,Bedford,99 High Street,Bedford,MK42 7BS,52.115212,-0.503597,Bedford,"Walker, Catherine",,,Y,,,Y,,Y,Y,Y,Y,3,3,E06000055,E02003633,E00088428,22,17.0,77.0,0.83675,2.0,7.873,0.15207
1-1332716355,2014-04-07,Y,Rivermead,East of England,Bedford,Halsey Road,Bedford,MK42 8AU,52.121107,-0.493452,Bedford,"Walker, Catherine",,,Y,,Y,,,Y,Y,,,3,3,E06000055,E02003631,E00088407,33,32.0,96.0,0.89979,2.0,4.6289,0.08045
1-1332839285,2014-04-07,Y,Parkside,East of England,Bedford,21 Bedford Road,Bedford,MK42 8AB,52.125518,-0.481894,Bedford,"Walker, Catherine",,,Y,,Y,Y,,Y,Y,,,1,1,E06000055,E02003631,E00088411,31,30.0,97.0,0.87365,,,
1-1332875228,2014-04-07,Y,Highfield,East of England,Bedford,Avon Drive,Bedford,MK41 7AH,52.159732,-0.459898,Bedford,"Walker, Catherine",,,Y,,Y,,,Y,Y,,,3,3,E06000055,E02003620,E00088155,34,33.0,97.0,0.93769,1.0,2.9412,0.00974
1-1332875508,2014-04-07,Y,Puttenhoe,East of England,Bedford,180 Putnoe Street,Bedford,MK41 8HQ,52.154843,-0.440873,Bedford,"Walker, Catherine",,,Y,,Y,,,Y,Y,,,2,2,E06000055,E02003621,E00088506,29,15.0,52.0,0.8776,20.0,68.2724,0.06443
1-1332901354,2014-04-07,Y,Southway,East of England,Bedford,290 London Road,Bedford,MK42 0PX,52.120316,-0.452464,Bedford,"Walker, Catherine",,,Y,,Y,,,Y,Y,,,5,5,E06000055,E02003629,E00088464,42,40.0,95.0,0.91988,1.0,2.9161,0.04424
1-133435618,2010-11-25,Y,Byron Court,East of England,Bedford,55 Chaucer Road,Bedford,MK40 2AL,52.141948,-0.482154,Bedford,"Spurling, Julian",,,Y,,,Y,,,,,,5,5,E06000055,E02003625,E00088356,7,7.0,94.0,0.85085,1.0,7.8246,0.19132
1-133435656,2010-11-25,Y,CareTech Community Services Limited - 82 Chaucer Road,East of England,Bedford,82 Chaucer Road,Bedford,MK40 2AP,52.14193,-0.482885,Bedford,"Spurling, Julian",,,Y,,,Y,,,,,,4,4,E06000055,E02003625,E00088367,8,8.0,100.0,0.85231,0.0,0.0,0.18301
1-1361065198,2014-04-28,Y,Pathway House,East of England,Bedford,The Lane,Bedford,MK44 3AS,52.198684,-0.311241,North East Bedfordshire,"Jones, Carol",,,Y,,,Y,Y,,,,Y,1,1,E06000055,E02003619,E00088556,12,10.0,83.0,0.8863,,,
1-136255544,2010-11-24,Y,Kimbolton,East of England,Bedford,7 Kimbolton Avenue,Bedford,MK40 3AD,52.144382,-0.456321,Bedford,"Tydeman, Justin",,,Y,,,Y,,,Y,,,2,2,E06000055,E02003624,E00088276,6,6.0,100.0,0.72995,0.0,0.0,0.23042
1-136255573,2010-11-24,Y,Oaklands,East of England,Bedford,15 Oaklands Road,Bedford,MK40 3AG,52.14338,-0.456662,Bedford,"Tydeman, Justin",,,Y,,,Y,,,Y,,,2,2,E06000055,E02003624,E00088278,7,6.0,86.0,0.80215,1.0,20.2031,0.10634
1-1720213779,2014-11-05,Y,Victoria Cottage,East of England,Bedford,37 St Andrews Road,Bedford,MK40 2LW,52.146182,-0.461286,Bedford,"Booth, Mark",,,Y,,,Y,,Y,Y,,Y,5,5,E06000055,E02003624,E00088270,12,10.0,83.0,0.83726,1.0,5.8926,0.23041
1-1876623496,2015-01-20,Y,Autism Care UK (Bedford),East of England,Bedford,16 St Andrews Road,Bedford,MK40 2LJ,52.144676,-0.460929,Bedford,"Tydeman, Justin",,,Y,,,Y,,,Y,,,5,5,E06000055,E02003624,E00088274,9,8.0,89.0,0.99889,1.0,7.8567,0.00044
1-1910458681,2015-02-13,Y,Bedford Charter House,East of England,Bedford,Charter House,Bedford,MK40 2PU,52.141145,-0.460153,Bedford,"Taylor, Marie",,,Y,,Y,,,Y,Y,,,6,6,E06000055,E02003624,E00088281,72,61.0,85.0,0.75479,8.0,11.6424,0.08255
1-2174285107,2015-08-13,Y,Reach Care Services - Arden House,East of England,Bedford,19-23 Shakespeare Road,Bedford,MK40 2DZ,52.140802,-0.480185,Bedford,"Khan, Khuram",,,Y,,Y,,Y,Y,,,Y,3,3,E06000055,E02003625,E00088355,24,16.0,65.0,0.78939,2.0,9.6225,0.15713
1-2476083865,2016-03-21,Y,The Marbrook Centre,East of England,Bedford,Phoenix Park,St Neots,PE19 8EP,52.206451,-0.293318,North East Bedfordshire,"McAnulty, Lesa",Y,Y,,,Y,Y,Y,Y,Y,Y,Y,1,1,E06000055,E02003619,E00088556,81,18.0,22.0,0.77291,,,
1-2734143125,2016-07-22,Y,Lillibet Lodge,East of England,Bedford,6 Rothsay Road,Bedford,MK40 3PW,52.135582,-0.457911,Bedford,"Krishnankutty, Sunilkumar",,,Y,,Y,,Y,Y,Y,Y,Y,5,5,E06000055,E02003627,E00088195,25,23.0,92.0,0.91485,1.0,5.6569,0.13671
1-2962555427,2016-10-04,Y,Loveys Lodge,East of England,Bedford,14 Beresford Road,Bedford,MK40 3SD,52.134879,-0.446787,Bedford,"Hesford, Alison",,,Y,,,Y,,,Y,,,4,4,E06000055,E02003627,E00088202,4,4.0,94.0,0.91832,0.0,12.5,0.12425
1-307260201,2011-09-20,Y,Aurora,East of England,Bedford,7 Linden Road,Bedford,MK40 2DD,52.143075,-0.480304,Bedford,"Melo, Isabel",,,Y,,Y,Y,,,Y,Y,,2,2,E06000055,E02003625,E00088342,8,6.0,69.0,0.65509,4.0,44.1942,0.06083
1-313657728,2011-09-29,Y,22 De Parys Avenue,East of England,Bedford,22 De Parys Avenue,Bedford,MK40 2TW,52.141442,-0.467353,Bedford,"Morgan, Edward",,,Y,,,Y,Y,,,,Y,0,0,E06000055,E02003624,E00088283,7,7.0,95.37572403137906,,,,
1-324565603,2011-11-08,Y,Park House,East of England,Bedford,28 St Andrews Road,Bedford,MK40 2LW,52.146182,-0.461286,Bedford,"John, Nicky",,,Y,,,,Y,Y,Y,Y,Y,0,0,E06000055,E02003624,E00088270,12,12.0,96.05536372178946,,,,
1-341636934,2011-11-25,Y,The Airedale Nursing Home,East of England,Bedford,44 Park Avenue,Bedford,MK40 2NF,52.147592,-0.457671,Bedford,"Kamyar, Touraj",Y,Y,,,Y,,,Y,Y,Y,Y,3,3,E06000055,E02003624,E00088270,57,50.0,88.0,0.79375,4.0,7.0175,0.30636
1-347389985,2011-12-20,Y,Peter's Place,East of England,Bedford,8 The Crescent,Bedford,MK40 2RU,52.140777,-0.472958,Bedford,"Thasan, Andrea",Y,Y,Y,,,Y,,,Y,,Y,4,4,E06000055,E02003625,E00088353,13,13.0,100.0,0.85022,0.0,0.0,0.11086
1-376081091,2012-04-23,Y,Manton Heights Care Centre,East of England,Bedford,"Woodlands, off Manton Lane",Bedford,MK41 7LW,52.148963,-0.478832,Bedford,"Rai, Rabinder",,,Y,,Y,,,Y,Y,Y,Y,4,4,E06000055,E02003625,E00088357,91,60.0,66.0,0.81881,5.0,5.2606,0.2184
1-377092450,2012-02-14,Y,Francis House,East of England,Bedford,10 Gibbons Road,Bedford,MK40 1DQ,52.136633,-0.477148,Bedford,"Queeley, Brenda",,,Y,,,Y,Y,,Y,,Y,0,0,E06000055,E02003627,E00088222,6,6.0,99.89096919703788,,,,
1-3955910547,2017-09-08,Y,Avon's House,East of England,Bedford,10 Bure Close,Bedford,MK41 7TX,52.162439,-0.458576,Bedford,"Gohel, Kiran",,,Y,,,Y,,,,,,1,1,E06000055,E02003620,E00088151,4,3.0,75.0,0.92501,,,
1-4180678068,2018-01-12,Y,Hepworth House,East of England,Bedford,1 St Georges Road,Bedford,MK40 2LS,52.146534,-0.459959,Bedford,"Mawani, Asgerali",,,Y,,Y,,,Y,Y,Y,,1,1,E06000055,E02003624,E00088272,18,17.0,94.0,0.92721,,,
1-4254725047,2017-09-07,Y,The Crown,East of England,Bedford,Britannia Road,Bedford,MK42 9ET,52.13001,-0.471924,Bedford,"Davis, Ari",,,Y,,,Y,,,,,Y,3,3,E06000055,E02003630,E00088240,7,2.0,29.0,0.95852,1.0,14.2857,0.07025
1-4310881781,2017-09-28,Y,Florence House,East of England,Bedford,11 Cranfield Road,Bedford,MK43 9EB,52.093608,-0.530917,Mid Bedfordshire,"Brown, Paulyn",,,Y,Y,,Y,Y,,,,Y,2,2,E06000055,E02003635,E00183516,4,3.0,75.0,0.82749,0.0,0.0,0.24267
1-456518091,2012-08-23,Y,Evergreen House,East of England,Bedford,59 Chantry Road,Bedford,MK42 7QU,52.111558,-0.494796,Bedford,"Melo, Isabel",,,Y,,,Y,Y,,,Y,Y,3,3,E06000055,E02003633,E00088435,6,5.0,83.0,0.88206,2.0,28.8675,0.1613
1-523403409,2012-11-16,Y,1 Lansdowne Road,East of England,Bedford,1 Lansdowne Road,Bedford,MK40 2BY,52.141095,-0.476674,Bedford,"Bradbury, Nick",,,Y,,,Y,,Y,Y,Y,Y,6,6,E06000055,E02003625,E00183505,14,12.0,85.0,0.77526,1.0,5.3769,0.21823
1-523519025,2012-11-16,Y,The Leys,East of England,Bedford,Park Lane,Bedford,MK44 1LX,52.231875,-0.534542,North East Bedfordshire,"Bradbury, Nick",,,Y,,,Y,,Y,Y,Y,Y,2,2,E06000055,E02003616,E00088568,9,8.0,89.0,0.84685,1.0,15.7135,0.0
1-523519169,2012-11-16,Y,182 Bromham Road,East of England,Bedford,182 Bromham Road,Bedford,MK40 4BP,52.138886,-0.489492,Bedford,"Bradbury, Nick",,,Y,,,Y,,Y,Y,Y,Y,3,3,E06000055,E02003628,E00088540,6,6.0,100.0,0.89567,0.0,0.0,0.06508
1-5439883131,2018-08-03,Y,Lomack Lodge,East of England,Bedford,71 The Links,Bedford,MK42 7LR,52.11499,-0.488313,Bedford,"Odunsi, Lawrence",,,Y,,,Y,Y,Y,Y,Y,Y,1,1,E06000055,E02003633,E00088419,3,1.0,33.0,0.87806,,,
1-6146394505,2019-01-14,Y,Wyboston Lodge,East of England,Bedford,123 The Lane,Bedford,MK44 3AS,52.198684,-0.311241,North East Bedfordshire,"Jones, Carol",,,Y,,,Y,Y,,Y,,Y,1,1,E06000055,E02003619,E00088556,4,4.0,100.0,0.96288,,,
1-618476117,2013-03-19,Y,Rutland Road Care Home,East of England,Bedford,37 Rutland Road,Bedford,MK40 1DG,52.136254,-0.47567,Bedford,"Queeley, Brenda",,,Y,,,Y,Y,Y,,,Y,1,1,E06000055,E02003627,E00088222,5,5.0,100.0,0.9994,,,
1-6524961415,2019-03-05,Y,Elstow Lodge,East of England,Bedford,Wilstead Road,Bedford,MK42 9YD,52.111938,-0.466394,Mid Bedfordshire,"Stokes, Julie",,,Y,,,Y,,Y,,,Y,4,4,E06000055,E02007011,E00173778,10,8.0,85.0,0.81141,1.0,5.7735,0.15437
1-6803582072,2019-04-29,Y,Creative Support - The Glade,East of England,Bedford,3 The Glade,Bedford,MK43 8HJ,52.152969,-0.549895,North East Bedfordshire,"Leigh, Colette",,,Y,,Y,Y,,Y,Y,Y,Y,2,2,E06000055,E02003623,E00088178,8,7.0,88.0,0.91972,1.0,17.6777,0.06736
1-6803582170,2019-04-29,Y,Creative Support - High Street,East of England,Bedford,4 High Street,Bedford,MK43 7RG,52.174019,-0.524628,North East Bedfordshire,"Leigh, Colette",,,Y,,Y,Y,,Y,Y,Y,Y,1,1,E06000055,E02003618,E00088491,6,6.0,100.0,0.99811,,,
1-6804740821,2019-04-30,Y,Creative Support - Dove Lane,East of England,Bedford,7 Dove Lane,Bedford,MK43 7DF,52.202061,-0.607401,North East Bedfordshire,"Leigh, Colette",,,Y,,,Y,,Y,Y,Y,Y,1,1,E06000055,E02003617,E00088374,6,5.0,83.0,0.8664,,,
1-6804740849,2019-04-30,Y,Creative Support - The Houghtons,East of England,Bedford,4 Sandy Road,Bedford,MK41 9TH,52.141725,-0.43211,Bedford,"Leigh, Colette",,,Y,,,Y,,Y,Y,Y,Y,1,1,E06000055,E02003626,E00088484,6,6.0,100.0,0.99908,,,
1-6972355787,2019-06-06,Y,The Avenue,East of England,Bedford,3 The Avenue,Bedford,MK40 1EF,52.138211,-0.478248,Bedford,"Melo, Isabel",,,Y,,,Y,Y,Y,,,Y,0,0,E06000055,E02003627,E00088213,6,6.0,94.81152128795384,,,,
1-719213394,2013-05-20,Y,Milton House,East of England,Bedford,39-41 Spenser Road,Bedford,MK40 2BE,52.141955,-0.483396,Bedford,"Bailey, Kaye",,,Y,,,Y,,Y,,,Y,7,7,E06000055,E02003625,E00088343,13,9.0,68.0,0.86474,1.0,8.2234,0.11816
1-7344081375,2019-11-28,Y,Baycroft Kempston,East of England,Bedford,Fletcher Road,Bedford,MK42 7FY,52.105082,-0.508587,Bedford,*,Y,Y,,,Y,,Y,Y,Y,Y,Y,1,1,E06000055,E02003633,E00183427,80,9.0,11.0,0.84478,,,
1-107949152,2011-01-20,Y,Rosalyn House,East of England,Central Bedfordshire,King Street,Dunstable,LU5 5TT,51.90426,-0.520317,South West Bedfordshire,"Andrew, Robert",Y,Y,,,Y,,Y,Y,Y,Y,,6,6,E06000056,E02003644,E00088733,46,42.0,91.0,0.93826,2.0,5.2655,0.02968
1-108422541,2010-12-14,Y,Chiltern View,East of England,Central Bedfordshire,198-200 West Street,Dunstable,LU6 1NX,51.884539,-0.52804,South West Bedfordshire,"McQuinn, Stephen",,,Y,,Y,,,,,,,5,5,E06000056,E02003647,E00088680,36,25.0,69.0,0.91249,4.0,11.2834,0.06609
1-109157616,2011-02-03,Y,Village Green Care Home,East of England,Central Bedfordshire,Bedford Road,Bedford,MK43 0ND,52.062076,-0.549596,Mid Bedfordshire,"Badiani, Aman",Y,Y,,,,,,Y,Y,,Y,8,8,E06000056,E02003607,E00087962,60,26.0,43.0,0.87286,19.0,31.6604,0.07478
1-109510296,2011-01-13,Y,Woodside Nursing and Residential Care Home,East of England,Central Bedfordshire,The Old Vicarage,Luton,LU1 4BJ,51.855588,-0.432114,Luton South,"Balog, Gelu",Y,Y,Y,,Y,Y,,Y,Y,Y,,6,6,E06000056,E02003651,E00088662,27,19.0,70.0,0.92525,3.0,9.7757,0.07655
1-110906063,2010-10-01,Y,The Limes,East of England,Central Bedfordshire,85 High Street,Henlow,SG16 6AB,52.032839,-0.286189,North East Bedfordshire,"Wilkinson, Joan",,,Y,,Y,,Y,Y,Y,,Y,4,4,E06000056,E02003608,E00087934,28,24.0,85.0,0.93801,4.0,13.7936,0.03895
1-110962885,2011-01-04,Y,Elm Lodge Nursing and Residential Home,East of England,Central Bedfordshire,18 Stoke Road,Leighton Buzzard,LU7 2SW,51.918382,-0.673064,South West Bedfordshire,*,Y,Y,,,Y,,,Y,Y,,Y,4,4,E06000056,E02003640,E00088787,64,58.0,91.0,0.90329,2.0,3.4646,0.08528
1-112452889,2011-01-13,Y,Knoll House,East of England,Central Bedfordshire,Studham Lane,Studham,LU6 2QJ,51.842831,-0.524737,South West Bedfordshire,"Martin, Teresa",,,Y,,Y,,Y,Y,Y,Y,,2,2,E06000056,E02003650,E00088774,22,16.0,70.0,0.85673,2.0,9.6424,0.16971
1-112894246,2011-01-18,Y,Orchard Lodge Care Home,East of England,Central Bedfordshire,Stanbridge Road,Leighton Buzzard,LU7 9PN,51.908477,-0.583155,South West Bedfordshire,*,Y,Y,,,,,,Y,Y,,,5,5,E06000056,E02003637,E00088914,28,17.0,61.0,0.94282,8.0,27.7102,0.03853
1-116384855,2011-01-05,Y,Redwood House,East of England,Central Bedfordshire,54 Sharpenhoe Road,Bedford,MK45 4SD,51.965592,-0.429414,Mid Bedfordshire,"Ralphs, Stephen",,,Y,,,Y,Y,,,,Y,0,0,E06000056,E02003636,E00088637,7,7.0,95.21565888993057,,,,
1-119126310,2011-03-23,Y,Hubbard Close,East of England,Central Bedfordshire,15 Hubbard Close,Flitwick,MK45 1XL,51.998407,-0.495899,Mid Bedfordshire,"Burslem, Sarah",,,Y,,,Y,,,,,,4,4,E06000056,E02003614,E00087903,5,4.0,85.0,0.97545,1.0,19.1485,0.03288
1-119126390,2011-03-23,Y,Saxon Close,East of England,Central Bedfordshire,2 Saxon Close,Flitwick,MK45 1UT,52.009215,-0.490335,Mid Bedfordshire,"Burslem, Sarah",,,Y,,,Y,,,,,,2,2,E06000056,E02003613,E00087878,6,6.0,92.0,0.99924,1.0,11.7851,0.00022
1-119129484,2011-03-23,Y,The Grove -2,East of England,Central Bedfordshire,2 The Grove,Bedford,MK45 5LX,51.983909,-0.505486,Mid Bedfordshire,"Burslem, Sarah",,,Y,,,Y,,,,,,3,3,E06000056,E02003615,E00088118,7,7.0,100.0,0.99897,0.0,0.0,0.00074
1-119129498,2011-03-23,Y,The Grove -4,East of England,Central Bedfordshire,4 The Grove,Bedford,MK45 5LX,51.983909,-0.505486,Mid Bedfordshire,"Burslem, Sarah",,,Y,,,Y,,,,,,5,5,E06000056,E02003615,E00088118,7,7.0,100.0,0.86162,0.0,0.0,0.19093
1-119129512,2011-03-23,Y,The Grove -6,East of England,Central Bedfordshire,6 The Grove,Bedford,MK45 5LX,51.983909,-0.505486,Mid Bedfordshire,"Burslem, Sarah",,,Y,,,Y,,,,,,3,3,E06000056,E02003615,E00088118,7,7.0,95.0,0.91277,1.0,8.2479,0.15006
1-120087522,2011-01-12,Y,Agate House - Care Home with Nursing Physical Disabilities,East of England,Central Bedfordshire,Woburn Street,Bedford,MK45 2HX,52.03208,-0.497954,Mid Bedfordshire,"Fenn, Hugh",Y,Y,,,,,,Y,Y,,Y,4,4,E06000056,E02003610,E00087749,36,33.0,92.0,0.88103,1.0,3.4953,0.16157
1-120701911,2011-01-26,Y,HF Trust - 117 a & b Hitchin Road,East of England,Central Bedfordshire,117 A & B Hitchin Road,Shefford,SG17 5JD,52.029454,-0.320823,Mid Bedfordshire,"Gratton, Becs",,,Y,,,Y,,,,,,3,3,E06000056,E02003609,E00088060,12,11.0,92.0,0.75601,0.0,0.0,0.20151
1-120702231,2011-01-26,Y,HF Trust - Hollycroft,East of England,Central Bedfordshire,90 Church Street,Langford,SG18 9QA,52.059966,-0.270768,North East Bedfordshire,"Gratton, Becs",,,Y,,,Y,,,,,,2,2,E06000056,E02003608,E00087945,8,7.0,88.0,0.67669,0.0,0.0,0.29088
1-121852509,2010-12-10,Y,Sheridan House,East of England,Central Bedfordshire,8 Bedford Road,Sandy,SG19 1EL,52.129262,-0.29201,North East Bedfordshire,"Jones, Carol",,,Y,,,Y,,,,,,4,4,E06000056,E02003600,E00088030,9,8.0,92.0,0.88595,1.0,10.6381,0.13082
1-121919707,2010-12-23,Y,Beaumont Park Nursing and Residential Home,East of England,Central Bedfordshire,Shortmead Street,Biggleswade,SG18 0AT,52.088819,-0.26744,North East Bedfordshire,"Gidlow, Helen",Y,Y,,,Y,,,Y,Y,,Y,7,7,E06000056,E02003603,E00177168,46,29.0,63.0,0.83408,5.0,10.7969,0.20738
1-125711832,2011-01-24,Y,Taymer Nursing Home,East of England,Central Bedfordshire,Barton Road,Silsoe,MK45 4QP,52.000248,-0.426234,Mid Bedfordshire,"Andrew, Robert",Y,Y,,,Y,,,Y,Y,,,4,4,E06000056,E02003615,E00177152,30,28.0,93.0,0.95389,1.0,2.7217,0.02747
1-126412824,2011-01-17,Y,The White House,East of England,Central Bedfordshire,High Street,Leighton Buzzard,LU7 9PQ,51.917198,-0.610983,South West Bedfordshire,"Janes, Kirsty",,,Y,,Y,,,Y,,,Y,4,4,E06000056,E02003637,E00177201,28,17.0,62.0,0.80271,5.0,18.9824,0.21934
1-126412841,2011-01-17,Y,Tudor House,East of England,Central Bedfordshire,76 West Street,Dunstable,LU6 1NX,51.884539,-0.52804,South West Bedfordshire,"Janes, Kirsty",,,Y,,Y,,,Y,,,,3,3,E06000056,E02003647,E00088680,18,13.0,72.0,0.90866,0.0,0.0,0.11023
1-129460569,2010-12-20,Y,60 Bullpond Lane,East of England,Central Bedfordshire,Bullpond Lane,Dunstable,LU6 3BJ,51.880366,-0.519281,South West Bedfordshire,"Cannon, Andrew",,,Y,,,Y,,,,,Y,1,1,E06000056,E02003649,E00088969,6,6.0,100.0,0.99908,,,
1-130953724,2010-12-14,Y,Linsell House,East of England,Central Bedfordshire,Ridgeway Avenue,Dunstable,LU5 4QJ,51.889972,-0.502458,South West Bedfordshire,"Mitchelmore, Stuart",Y,,Y,,,Y,,,Y,Y,,2,2,E06000056,E02003645,E00088750,16,16.0,100.0,0.906,0.0,0.0,0.05369
1-1371852041,2014-04-24,Y,West Hill Place,East of England,Central Bedfordshire,12 Burrows Close,Milton Keynes,MK17 8SN,52.016491,-0.647416,Mid Bedfordshire,"Bakewell, Anne",,,Y,,,Y,,,,,Y,2,2,E06000056,E02003605,E00087779,6,5.0,83.0,0.99744,0.0,0.0,0.00278
1-137524302,2011-01-19,Y,Orchid Lawns,East of England,Central Bedfordshire,Steppingley Hospital Grounds,Steppingley,MK45 1AB,52.012285,-0.511827,Mid Bedfordshire,"Cresswell, Rebekah",Y,Y,,,Y,,Y,Y,,,,6,6,E06000056,E02003614,E00087912,24,17.0,72.0,0.87735,4.0,17.7593,0.17213
1-137524320,2011-01-19,Y,Potton House,East of England,Central Bedfordshire,Potton Road,Biggleswade,SG18 0EL,52.100321,-0.24686,North East Bedfordshire,"Cresswell, Rebekah",Y,Y,,,Y,,Y,Y,,,,4,4,E06000056,E02003604,E00177214,24,20.0,83.0,0.79588,6.0,23.5702,0.24856
1-141541186,2010-12-22,Y,Chase House Limited,East of England,Central Bedfordshire,House Lane,Arlesey,SG15 6YA,52.019008,-0.26031,North East Bedfordshire,"Mcguire, Deirdre",Y,Y,,,Y,,Y,Y,Y,,Y,4,4,E06000056,E02003608,E00171372,50,48.0,96.0,0.81651,2.0,3.4157,0.21825
1-1547491839,2014-08-08,Y,Allison House Residential Home,East of England,Central Bedfordshire,Swan Lane,Sandy,SG19 1NE,52.126796,-0.295778,North East Bedfordshire,"Mitchelmore, Stuart",,,Y,,Y,Y,,Y,Y,,,3,3,E06000056,E02003600,E00088019,42,38.0,90.0,0.96123,3.0,7.6537,0.01477
1-1548075487,2014-08-08,Y,Ferndale Residential Home,East of England,Central Bedfordshire,Easton Road,Flitwick,MK45 1HB,52.004017,-0.490991,Mid Bedfordshire,"Mitchelmore, Stuart",,,Y,,Y,,,Y,Y,,Y,3,3,E06000056,E02003613,E00087881,30,23.0,78.0,0.95465,6.0,20.367,0.03667
1-1548402360,2014-08-08,Y,Abbotsbury Residential Home,East of England,Central Bedfordshire,Mead End,Biggleswade,SG18 8JU,52.081224,-0.254404,North East Bedfordshire,"Mitchelmore, Stuart",,,Y,,Y,,,Y,Y,,,3,3,E06000056,E02003604,E00087796,32,23.0,72.0,0.74955,13.0,40.8647,0.21218
1-1548928831,2014-08-08,Y,Westlands Residential Home,East of England,Central Bedfordshire,Duncombe Drive,Leighton Buzzard,LU7 1SD,51.914626,-0.660569,South West Bedfordshire,"Mitchelmore, Stuart",,,Y,,Y,,,Y,Y,,Y,2,2,E06000056,E02003639,E00088616,30,22.0,73.0,0.96796,4.0,14.1421,0.00633
1-161505216,2011-01-28,Y,Ashton Lodge,East of England,Central Bedfordshire,Ashton Road,Dunstable,LU6 1NP,51.890519,-0.525912,South West Bedfordshire,"Khosla, Anil",,,Y,,Y,,,Y,,,,3,3,E06000056,E02003647,E00088687,54,46.0,86.0,0.90843,5.0,9.3208,0.02644
1-163036383,2011-01-25,Y,Friars Lodge,East of England,Central Bedfordshire,18-20 Priory Road,Dunstable,LU5 4HR,51.88548,-0.514827,South West Bedfordshire,"Janes, Kirsty",,,Y,,Y,,,Y,,,,4,4,E06000056,E02003647,E00177137,20,14.0,71.0,0.89295,3.0,14.3614,0.17733
1-164429850,2011-03-23,Y,The Knolls Care Centre,East of England,Central Bedfordshire,Plantation Road,Leighton Buzzard,LU7 3JE,51.93598,-0.665218,South West Bedfordshire,"Freeman, Bernard",Y,Y,,,Y,,,Y,Y,,Y,6,6,E06000056,E02003638,E00088871,56,45.0,81.0,0.93782,4.0,6.6256,0.04951
1-1649176588,2014-10-01,Y,Swiss Cottage Care Home,East of England,Central Bedfordshire,Plantation Road,Leighton Buzzard,LU7 3HU,51.934175,-0.666256,South West Bedfordshire,"Auckland, Melanie",Y,Y,,,Y,,,Y,Y,,Y,6,6,E06000056,E02003638,E00088871,85,47.0,55.0,0.91931,11.0,12.6582,0.11867
1-1755915934,2014-11-24,Y,New Meppershall Care Home,East of England,Central Bedfordshire,79 Shefford Road,Meppershall,SG17 5LL,52.022724,-0.333103,Mid Bedfordshire,"Andrew, Robert",Y,Y,,,Y,,,Y,Y,Y,Y,5,5,E06000056,E02003611,E00087843,81,69.0,85.0,0.95868,5.0,5.9593,0.02144
1-2021485147,2015-04-16,Y,Dukeminster Court,East of England,Central Bedfordshire,Dukeminster Estate,Dunstable,LU5 4FF,51.888422,-0.513586,South West Bedfordshire,"Mynott, Stewart",,,Y,,Y,,Y,Y,Y,Y,Y,6,6,E06000056,E02003647,E00177106,75,62.0,83.0,0.90797,11.0,15.1789,0.10734
1-252073648,2011-06-21,Y,Pemdale,East of England,Central Bedfordshire,26a Nursery Close,Potton,SG19 2QE,52.128748,-0.228149,North East Bedfordshire,"Jhuty, Davinder",,,Y,,,Y,,,Y,,Y,4,4,E06000056,E02003601,E00177226,6,5.0,88.0,0.86417,1.0,15.9571,0.2046
1-253077763,2011-08-14,Y,Franklin Avenue,East of England,Central Bedfordshire,18 Franklin Avenue,Bedford,MK45 4HF,51.968121,-0.428932,Mid Bedfordshire,"Jhuty, Davinder",,,Y,,,Y,,,,Y,,3,3,E06000056,E02003636,E00088636,6,6.0,94.0,0.9428,1.0,9.6225,0.04903
1-290791201,2011-10-19,Y,Carrington House Limited,East of England,Central Bedfordshire,Carrington House,Leighton Buzzard,LU7 3HQ,51.921791,-0.65259,South West Bedfordshire,"Seaton, Georgina",,,Y,,Y,,,Y,Y,,Y,5,5,E06000056,E02003639,E00088882,60,57.0,94.0,0.85955,3.0,4.9441,0.12878
1-293655878,2011-08-11,Y,Penniston Barn,East of England,Central Bedfordshire,Wadelow Grange,Milton Keynes,MK17 9ER,51.978189,-0.518927,Mid Bedfordshire,"Gohel, Kiran",,,Y,,,Y,,,,,Y,5,5,E06000056,E02003615,E00088120,6,6.0,97.0,0.9381,0.0,7.4536,0.12885
1-3029415097,2017-01-31,Y,Ridgeway Lodge Care Home,East of England,Central Bedfordshire,Brandreth Avenue,Dunstable,LU5 4RE,51.891178,-0.501851,South West Bedfordshire,"Hall, Antony",,,Y,,Y,,,Y,Y,,Y,6,6,E06000056,E02003645,E00088750,61,54.0,89.0,0.94787,7.0,11.2507,0.05521
1-309727915,2011-09-19,Y,Sharnbrook Care Home Limited,East of England,Central Bedfordshire,17a Park Road North,Dunstable,LU5 5LD,51.906011,-0.512943,South West Bedfordshire,"Philips, John",,,Y,,Y,,,Y,Y,,,2,2,E06000056,E02003644,E00088743,24,22.0,92.0,0.84425,0.0,0.0,0.19728
1-314807737,2011-10-11,Y,Lady Spencer House,East of England,Central Bedfordshire,52 High Street,Houghton Regis,LU5 5BJ,51.903715,-0.522685,South West Bedfordshire,"Seaton, Georgina",,,Y,,Y,,,Y,,,,4,4,E06000056,E02003644,E00088747,24,22.0,92.0,0.92187,1.0,5.8926,0.06159
1-4459463847,2017-11-02,Y,Oak Manor,East of England,Central Bedfordshire,Ivel Road,Shefford,SG17 5UB,52.03223,-0.332746,Mid Bedfordshire,"Ryan, Daniel",,,Y,,Y,,,,Y,,,0,0,E06000056,E02003609,E00177209,64,33.0,52.06715373068115,,,,
1-4658901891,2018-04-30,Y,Houghton Regis Community Care Scheme,East of England,Central Bedfordshire,Roman Court,Dunstable,LU5 5UB,51.904553,-0.522178,South West Bedfordshire,"Heginbotham, Martyn",,,Y,,,Y,,Y,Y,Y,Y,4,4,E06000056,E02003644,E00088747,16,8.0,52.0,0.83706,2.0,11.8311,0.21464
1-5527275570,2018-07-25,Y,Caddington Grove,East of England,Central Bedfordshire,175 London Road,Dunstable,LU6 3DX,51.874991,-0.503845,South West Bedfordshire,"Hill, Paul",Y,Y,,,Y,,,Y,Y,,Y,1,1,E06000056,E02003648,E00088814,66,28.0,42.0,0.92005,,,
1-5810948543,2018-10-03,Y,Penrose Court,East of England,Central Bedfordshire,Delius Road,Biggleswade,SG18 8UA,52.0932,-0.242672,North East Bedfordshire,"Ridgard, Christopher",Y,Y,,,Y,,Y,Y,Y,Y,Y,1,1,E06000056,E02003604,E00177174,65,17.0,26.0,0.97673,,,
1-659695293,2013-03-21,Y,HF Trust - Clifton View,East of England,Central Bedfordshire,72a Broad Street,Shefford,SG17 5RP,52.033805,-0.298738,Mid Bedfordshire,"Gratton, Becs",,,Y,,,Y,,Y,,,Y,2,2,E06000056,E02003611,E00087838,9,8.0,94.0,0.99924,1.0,7.8567,0.00022
1-712969582,2013-04-25,Y,Woodland House,East of England,Central Bedfordshire,Woodend,Milton Keynes,MK17 9ER,51.978189,-0.518927,Mid Bedfordshire,"Gohel, Kiran",,,Y,,,Y,,,,,Y,2,2,E06000056,E02003615,E00088120,4,2.0,50.0,0.7091,1.0,35.3553,0.23802
1-712969967,2013-04-25,Y,The Bungalow,East of England,Central Bedfordshire,Woodend,Milton Keynes,MK17 9ER,51.978189,-0.518927,Mid Bedfordshire,"Gohel, Kiran",,,Y,,,Y,,,,,Y,4,4,E06000056,E02003615,E00088120,4,12.0,294.0,0.9325,11.0,268.7742,0.06016
1-731483592,2013-05-15,Y,Park House Nursing Care Centre,East of England,Central Bedfordshire,Mill Lane,Sandy,SG19 1NL,52.124798,-0.292509,North East Bedfordshire,"Tillisch, John",Y,Y,,,,,,Y,,,,5,5,E06000056,E02003600,E00088021,34,26.0,77.0,0.97912,2.0,7.3235,0.0047
1-7371753855,2019-08-22,Y,Baycroft Flitwick,East of England,Central Bedfordshire,101 Ampthill Road,Flitwick,MK45 1BE,52.015817,-0.501815,Mid Bedfordshire,*,Y,Y,,,Y,,Y,Y,Y,Y,Y,2,2,E06000056,E02003613,E00087872,75,18.0,24.0,0.74242,1.0,1.8856,0.05162
1-7786591615,2019-11-06,Y,Baycroft Fairfield,East of England,Central Bedfordshire,"Hitchin Road, Fairfield",Hitchin,SG5 4SW,52.003556,-0.242366,North East Bedfordshire,*,Y,Y,,,Y,,,Y,,,,1,1,E06000056,E02003612,E00177057,75,10.0,13.0,0.95462,,,
1-9030869615,2020-06-11,Y,Mansgrove Farm House,East of England,Central Bedfordshire,Common Road,Dunstable,LU6 2NL,51.827375,-0.53199,South West Bedfordshire,"Brown, Paulyn",,,Y,,,Y,Y,,Y,Y,Y,1,1,E06000056,E02003650,E00088775,5,3.0,60.0,0.74316,,,
1-9031525702,2020-06-11,Y,The Courtyard,East of England,Central Bedfordshire,The Oaks,Bedford,MK45 4EL,52.011237,-0.427029,Mid Bedfordshire,"Brown, Paulyn",,,Y,,,Y,Y,,Y,Y,Y,0,0,E06000056,E02003615,E00088091,2,2.0,95.92960839413608,,,,
1-9092380245,2020-06-23,Y,Richmond Manor,East of England,Central Bedfordshire,14 Dunstable Street,Bedford,MK45 2JT,52.027908,-0.495216,Mid Bedfordshire,"Hill, Paul",Y,Y,,,Y,,,Y,,,,2,2,E06000056,E02003610,E00087738,69,23.0,33.0,0.79914,10.0,14.3471,0.25367
1-118135496,2011-01-31,Y,Woodlands Care Centre,East of England,Cambridge,Hawkins Road,Cambridge,CB4 2RD,52.226166,0.135499,Cambridge,"Rai, Rabinder",Y,Y,,,Y,,,Y,Y,,Y,4,4,E07000008,E02003719,E00187679,109,102.0,94.0,0.96658,2.0,2.1187,0.06241
1-120415751,2011-01-31,Y,Cambridge Manor Care Home,East of England,Cambridge,33 Milton Road,Cambridge,CB4 1UZ,52.215854,0.125474,Cambridge,"Kollamparampil Kuriakose, Anoop",Y,Y,,,,,,Y,,,Y,4,4,E07000008,E02003722,E00090843,89,58.0,65.0,0.84571,35.0,39.4847,0.03327
1-122278900,2010-12-29,Y,Pauline Burnet House,East of England,Cambridge,1 Pippin Drive,Cambridge,CB4 1GL,52.225195,0.152832,Cambridge,"Ford, Derek",,,Y,,,Y,,,Y,,,4,4,E07000008,E02003721,E00090647,9,8.0,92.0,0.86953,0.0,5.5556,0.23869
1-123050545,2010-12-30,Y,Alex Wood House,East of England,Cambridge,3a Fortescue Road,Cambridge,CB4 2JS,52.226698,0.123971,Cambridge,"Taylor, Denise",,,Y,,,,,Y,,,,4,4,E07000008,E02003720,E00090553,36,32.0,90.0,0.92818,2.0,5.319,0.0922
1-123050561,2010-12-30,Y,Langdon House,East of England,Cambridge,20 Union Lane,Cambridge,CB4 1QB,52.219385,0.136549,Cambridge,"Taylor, Denise",,,Y,,,,,Y,,,,4,4,E07000008,E02003721,E00090651,52,47.0,90.0,0.74257,3.0,5.2077,0.1658
1-124698218,2011-02-02,Y,Primrose Croft Care Home,East of England,Cambridge,Primrose Croft,Cambridge,CB4 3EH,52.215892,0.120629,Cambridge,"Jones, Louise",,,Y,,Y,,,Y,,,,4,4,E07000008,E02003722,E00090839,38,29.0,77.0,0.92918,6.0,14.6323,0.08948
1-125173893,2010-11-24,Y,Buchan House Care Home,East of England,Cambridge,Buchan Street,Cambridge,CB4 2XF,52.232052,0.122733,Cambridge,"Jones, Louise",Y,Y,,,Y,,,Y,,,,4,4,E07000008,E02003719,E00090695,66,59.0,89.0,0.82884,3.0,5.1008,0.14697
1-125950803,2010-11-29,Y,Brook House Care Home,East of England,Cambridge,45 Seymour Street,Cambridge,CB1 3DJ,52.198669,0.154769,Cambridge,"Jones, Louise",,,Y,,Y,,,Y,,,,4,4,E07000008,E02003727,E00090775,35,30.0,86.0,0.84104,2.0,4.8795,0.15259
1-129663748,2010-12-22,Y,St Georges Court Care Home,East of England,Cambridge,Russell Street,Cambridge,CB2 1HT,52.196417,0.128495,Cambridge,"Jones, Louise",Y,Y,,,,,,Y,,,,6,6,E07000008,E02007087,E00090808,76,65.0,86.0,0.92123,5.0,6.374,0.11388
1-131631228,2010-12-29,Y,Cambridgeshire County Council - 40/44 Russell Street Cambridge,East of England,Cambridge,40-44 Russell Street,Cambridge,CB2 1HT,52.196417,0.128495,Cambridge,"Black, Charlotte",,,Y,,,Y,,,,,Y,3,3,E07000008,E02007087,E00090808,9,4.0,48.0,0.85091,2.0,16.9725,0.25691
1-137749896,2011-03-16,Y,Browns Field House,East of England,Cambridge,25 Sherbourne Close,Cambridge,CB4 1RT,52.225182,0.146623,Cambridge,"Garrett, Lesley",,,Y,,Y,,,Y,,,Y,6,6,E07000008,E02003721,E00090657,29,20.0,69.0,0.84442,6.0,20.4585,0.12925
1-152895973,2011-01-31,Y,Cherry Hinton Nursing Home,East of England,Cambridge,369 Cherry Hinton Road,Cambridge,CB1 8DB,52.186062,0.158739,Cambridge,"Kollamparampil Kuriakose, Anoop",Y,Y,,,Y,,,Y,,,Y,5,5,E07000008,E02003728,E00090617,60,42.0,70.0,0.79659,14.0,23.1361,0.15677
1-3112356346,2017-01-31,Y,The Cambridge Care Home,East of England,Cambridge,5 High Street,Cambridge,CB4 1NQ,52.217465,0.138081,Cambridge,"Hall, Antony",Y,Y,,,Y,,,Y,,,,5,5,E07000008,E02003721,E00090645,90,47.0,52.0,0.83946,31.0,34.0062,0.13705
1-3289009999,2017-02-01,Y,Winston House,East of England,Cambridge,19 Brooklands Avenue,Cambridge,CB2 8BG,52.192327,0.130421,Cambridge,"Templeton, Robert",,,Y,,,,Y,,,,,2,2,E07000008,E02007087,E00167360,25,20.0,82.0,0.86854,2.0,8.4853,0.15772
1-113776760,2010-12-02,Y,Holly Cottage LLP,East of England,East Cambridgeshire,Holly Cottage,Ely,CB6 1AE,52.40167,0.261556,South East Cambridgeshire,"Bent, Wayne",,,Y,,,Y,,,,,,2,2,E07000009,E02003734,E00090970,6,6.0,92.0,0.9994,1.0,11.7851,0.0
1-114180661,2010-12-02,Y,Guyatt House,East of England,East Cambridgeshire,42 The Causeway,Cambridge,CB25 0DU,52.277825,0.326272,South East Cambridgeshire,"Stocks, Rupert",,,Y,,,Y,,,,,Y,2,2,E07000009,E02003739,E00090883,9,9.0,100.0,0.9497,0.0,0.0,0.0
1-117976970,2010-12-22,Y,Queens Court,East of England,East Cambridgeshire,2 Downing Close,Cambridge,CB25 9DD,52.221644,0.261869,South East Cambridgeshire,"Ryan, Daniel",,,Y,,Y,,,Y,,,,4,4,E07000009,E02003740,E00090854,55,52.0,94.0,0.9635,0.0,0.9091,0.03675
1-124141242,2010-11-03,Y,The Brambles,East of England,East Cambridgeshire,The Brambles 104 Station Road,Ely,CB7 5DZ,52.334433,0.331526,South East Cambridgeshire,*,Y,,Y,,,Y,,,,,,4,4,E07000009,E02003737,E00091055,4,4.0,94.0,0.96673,0.0,12.5,0.06217
1-125856119,2011-02-15,Y,Hilton Park Care Centre,East of England,East Cambridgeshire,Bottisham,Cambridge,CB25 9BX,52.218843,0.270832,South East Cambridgeshire,"O'Reilly, Michael",Y,Y,,,Y,,Y,Y,Y,,Y,2,2,E07000009,E02003740,E00090856,93,80.0,87.0,0.86318,9.0,9.8843,0.17357
1-125856137,2011-02-15,Y,Hilton Park - Oaklands,East of England,East Cambridgeshire,Bottisham,Cambridge,CB25 9BX,52.218843,0.270832,South East Cambridgeshire,"O'Reilly, Michael",Y,Y,,,Y,,Y,Y,Y,,Y,2,2,E07000009,E02003740,E00090856,54,51.0,94.0,0.87593,1.0,2.6189,0.10603
1-126608075,2010-12-24,Y,Eden View,East of England,East Cambridgeshire,High Street,Cambridge,CB25 9BB,52.218976,0.267356,South East Cambridgeshire,"Thompson, Gary",Y,Y,,,,,,,Y,,,3,3,E07000009,E02003740,E00090856,10,9.0,90.0,0.97,1.0,10.0,0.03501
1-129770942,2010-11-23,Y,The Limes 1,East of England,East Cambridgeshire,5 Church Lane,Ely,CB6 1PS,52.457416,0.304096,North East Cambridgeshire,"Chisnall, Gaynor",Y,Y,,,Y,,Y,,,,,3,3,E07000009,E02003732,E00091032,19,19.0,98.0,0.86653,1.0,3.0387,0.15606
1-132388417,2010-11-30,Y,Robinson House,East of England,East Cambridgeshire,24c Fordham Road,Ely,CB7 5AQ,52.328219,0.343871,South East Cambridgeshire,"Cresswell, Rebekah",,,Y,Y,,Y,,,,,Y,4,4,E07000009,E02003737,E00091062,10,10.0,98.0,0.81445,0.0,5.0,0.20533
1-134123858,2010-12-03,Y,Fen House,East of England,East Cambridgeshire,143 Lynn Road,Ely,CB6 1SD,52.413255,0.271207,South East Cambridgeshire,"Bygrave, Anne",Y,,Y,,,,,Y,Y,,Y,2,2,E07000009,E02003734,E00090933,25,20.0,82.0,0.82538,2.0,8.4853,0.18197
1-2079988863,2015-06-03,Y,Fair Haven Care Home,East of England,East Cambridgeshire,102 Station Road,Ely,CB7 5DZ,52.334433,0.331526,South East Cambridgeshire,"Ravivaruman, Kanagasooriam",,,Y,,Y,,,Y,,,,4,4,E07000009,E02003737,E00091055,30,26.0,85.0,0.91819,2.0,6.3828,0.09392
1-2964252978,2016-11-01,Y,Burwell,East of England,East Cambridgeshire,16 and 18 Hawthorn Way,Cambridge,CB25 0DQ,52.281988,0.331753,South East Cambridgeshire,"Cannon, Andrew",,,Y,,,Y,Y,Y,Y,Y,Y,5,5,E07000009,E02003739,E00090877,8,7.0,88.0,0.84076,1.0,8.8388,0.17037
1-307297384,2011-09-30,Y,Lily House,East of England,East Cambridgeshire,Lynn Road,Ely,CB6 1SD,52.413255,0.271207,South East Cambridgeshire,"Boote, Alison",,,Y,,Y,,,Y,,,Y,4,4,E07000009,E02003734,E00090933,44,35.0,80.0,0.78557,5.0,11.134,0.20929
1-315212139,2011-09-30,Y,The Gables,East of England,East Cambridgeshire,93 Ely Road,Cambridge,CB6 1HJ,52.446998,0.298821,North East Cambridgeshire,"Morgan, Edward",Y,Y,,,Y,Y,,,,,,3,3,E07000009,E02003732,E00091013,16,10.0,60.0,0.75148,3.0,20.0909,0.21602
1-3892776605,2017-06-08,Y,Laburnum Lodge,East of England,East Cambridgeshire,2 Victoria Street,Ely,CB6 1LX,52.456089,0.309414,North East Cambridgeshire,"Sarathchandra, Iroshan",,,Y,,Y,,,Y,Y,Y,Y,4,4,E07000009,E02003732,E00091021,22,20.0,90.0,0.90967,1.0,4.3519,0.06824
1-439906916,2012-08-08,Y,Soham Lodge,East of England,East Cambridgeshire,Soham Bypass,Ely,CB7 5WZ,52.343291,0.345167,South East Cambridgeshire,"Lidford, David",Y,Y,,,Y,,Y,Y,,,Y,7,7,E07000009,E02003737,E00091046,34,24.0,70.0,0.92123,2.0,5.2141,0.09548
1-4525845453,2017-11-17,Y,Littleport Grange,East of England,East Cambridgeshire,"Grange Lane, Ely Road",Ely,CB6 1HW,52.449939,0.295074,North East Cambridgeshire,"Farebrother, Colin",,,Y,,Y,,,Y,,,Y,4,4,E07000009,E02003732,E00187704,80,52.0,65.0,0.95115,9.0,11.0102,0.01736
1-5473401801,2018-09-18,Y,The Firs Residential Care Home,East of England,East Cambridgeshire,Tower Farm,Ely,CB6 2TD,52.432745,0.23313,North East Cambridgeshire,"Kumanan, Arasaratnam",,,Y,,Y,,,Y,Y,,Y,4,4,E07000009,E02003733,E00090905,29,24.0,83.0,0.90791,3.0,10.9044,0.07619
1-7046824957,2019-08-09,Y,The Orchards,East of England,East Cambridgeshire,2 Forsythia Road,Ely,CB6 1DP,52.412483,0.268785,South East Cambridgeshire,"Clarges, Julie",,,Y,,Y,,,Y,Y,Y,,1,1,E07000009,E02003734,E00090939,66,25.0,38.0,0.71409,,,
1-9173028205,2020-09-21,Y,Alderton House,East of England,East Cambridgeshire,5 Wellington Street,Ely,CB6 1PN,52.457702,0.30651,North East Cambridgeshire,"Collier, Sam",,,Y,,,Y,,,,,Y,5,5,E07000009,E02003732,E00091022,9,9.0,96.0,0.99668,1.0,6.0858,0.0039
1-9191784673,2020-12-02,Y,Vera James House,East of England,East Cambridgeshire,Chapel Street,Ely,CB6 1TA,52.400107,0.260065,South East Cambridgeshire,"Macalister, George",,,Y,,Y,,,Y,,,,6,6,E07000009,E02003734,E00090963,42,35.0,83.0,0.91416,4.0,10.5856,0.07758
1-10205172843,2021-03-05,Y,Conifer Lodge,East of England,Fenland,134 North Brink,Wisbech,PE13 1LL,52.658148,0.147564,North East Cambridgeshire,"Tang, Sylvia",Y,Y,,,,Y,Y,Y,,,Y,4,4,E07000010,E02003744,E00091287,13,12.0,96.0,0.8853,1.0,4.4412,0.15971
1-106800639,2011-02-04,Y,Springfield Residential Home,East of England,Fenland,63 The Causeway,March,PE15 9NY,52.542186,0.085696,North East Cambridgeshire,"Taylor, Mikhal",,,Y,,Y,,,Y,,,,3,3,E07000010,E02003750,E00091255,29,22.0,77.0,0.82009,6.0,22.1693,0.13677
1-108817795,2010-11-29,Y,The Chestnuts Residential Care Home,East of England,Fenland,169 Norwich Road,Wisbech,PE13 3TA,52.665545,0.171427,North East Cambridgeshire,*,,,Y,,Y,,,Y,,,,3,3,E07000010,E02003743,E00091129,28,24.0,85.0,0.93106,1.0,4.1239,0.08203
1-109928480,2010-11-25,Y,Askham House,East of England,Fenland,13 Benwick Road,March,PE15 0TX,52.498151,0.04892,North East Cambridgeshire,"Nasser, Aliyyah-Begum",Y,Y,,,,,Y,Y,,,,1,1,E07000010,E02003751,E00091142,29,26.0,90.0,0.9583,,,
1-109928507,2010-11-25,Y,Askham Place,East of England,Fenland,13 Benwick Road,March,PE15 0TX,52.498151,0.04892,North East Cambridgeshire,"Nasser, Aliyyah-Begum",Y,Y,,,,,,,Y,,Y,2,2,E07000010,E02003751,E00091142,16,16.0,97.0,0.84518,1.0,4.4194,0.08766
1-118135549,2011-01-31,Y,Orchard House Care Home,East of England,Fenland,107 Money Bank,Wisbech,PE13 2JF,52.660643,0.17108,North East Cambridgeshire,"Rai, Rabinder",Y,Y,,,Y,,Y,Y,Y,,,5,5,E07000010,E02003744,E00091164,67,46.0,68.0,0.93281,4.0,6.2793,0.03182
1-122304269,2011-02-16,Y,Clovelly House,East of England,Fenland,44 Station Road,March,PE15 8LE,52.552018,0.090587,North East Cambridgeshire,*,,,Y,,,,,Y,,,,6,6,E07000010,E02003748,E00091199,21,18.0,86.0,0.9099,3.0,12.0468,0.08474
1-122505486,2010-10-25,Y,Keneydon House,East of England,Fenland,2 Delph Street,Whittlesey,PE7 1QQ,52.559923,-0.127605,North East Cambridgeshire,"Welham, Matthew",,,Y,,Y,,,Y,,,,9,9,E07000010,E02003747,E00091331,21,16.0,74.0,0.78993,2.0,11.1958,0.20593
1-123039495,2010-11-26,Y,Langley Lodge Residential Home,East of England,Fenland,26 Queens Road,Wisbech,PE13 2PE,52.662145,0.158215,North East Cambridgeshire,*,,,Y,,,,,Y,,,,4,4,E07000010,E02003744,E00091273,20,19.0,96.0,0.97329,1.0,4.7871,0.00899
1-125340022,2010-12-09,Y,Swan House Care Home,East of England,Fenland,Swan Drive,Chatteris,PE16 6EX,52.457422,0.051852,North East Cambridgeshire,"Southall, Natasha",Y,Y,,,Y,,,Y,Y,Y,,4,4,E07000010,E02003752,E00091120,40,37.0,92.0,0.94123,3.0,8.0039,0.05722
1-125369757,2010-11-16,Y,Aliwal Manor Care Home,East of England,Fenland,Turners Lane,Whittlesey,PE7 1EH,52.554927,-0.129543,North East Cambridgeshire,"Jones, Louise",,,Y,,Y,,,Y,,,,4,4,E07000010,E02003747,E00091327,32,30.0,95.0,0.85529,2.0,5.337,0.09509
1-125606201,2010-12-07,Y,Glennfield Care Home,East of England,Fenland,Money Bank,Wisbech,PE13 2JF,52.660643,0.17108,North East Cambridgeshire,"Jones, Louise",Y,Y,,,Y,,,Y,,,,4,4,E07000010,E02003744,E00091164,88,81.0,92.0,0.94352,8.0,8.6729,0.04555
1-125851715,2010-12-02,Y,Cedar Court Nursing Home,East of England,Fenland,37 New Road,Peterborough,PE7 1SU,52.553955,-0.121531,North East Cambridgeshire,"Somani, Nitesh",Y,Y,,,Y,,,Y,,,,4,4,E07000010,E02003747,E00091188,25,24.0,95.0,0.88675,2.0,6.0,0.11472
1-125861869,2011-02-15,Y,Rose Lodge,East of England,Fenland,Walton Road,Wisbech,PE13 3EP,52.677369,0.174306,North East Cambridgeshire,"O'Reilly, Michael",Y,Y,,,Y,,Y,Y,Y,,Y,5,5,E07000010,E02003743,E00091360,58,53.0,92.0,0.80429,2.0,3.7378,0.20519
1-128531913,2010-11-30,Y,Belmont Road,East of England,Fenland,9-10 Belmont Road,March,PE15 8RQ,52.552813,0.09238,North East Cambridgeshire,"Cresswell, Rebekah",,,Y,,,Y,,,Y,,Y,3,3,E07000010,E02003748,E00091199,13,13.0,100.0,0.93516,0.0,0.0,0.05984
1-128531947,2010-11-30,Y,Conquest Lodge,East of England,Fenland,Dagless Way,March,PE15 8QY,52.564701,0.090792,North East Cambridgeshire,"Cresswell, Rebekah",,,Y,,,Y,Y,Y,Y,,Y,3,3,E07000010,E02003746,E00091241,19,18.0,93.0,0.9646,2.0,8.0396,0.0256
1-131631213,2010-12-29,Y,Cambridgeshire County Council - 20 Alder Close March,East of England,Fenland,20 Alder Close,March,PE15 8PY,52.563334,0.094357,North East Cambridgeshire,"Black, Charlotte",,,Y,,,Y,,,,,Y,3,3,E07000010,E02003746,E00091241,5,3.0,53.0,0.72766,1.0,23.094,0.21426
1-1612857810,2014-09-02,Y,Lyncroft Care Home,East of England,Fenland,81 Clarkson Avenue,Wisbech,PE13 2EA,52.668806,0.168113,North East Cambridgeshire,"Richmond, Helen",,,Y,,Y,,,Y,,,Y,5,5,E07000010,E02003743,E00091127,53,39.0,74.0,0.96572,9.0,17.5279,0.03032
1-210273305,2011-05-06,Y,Askham Hall,East of England,Fenland,13 Benwick Road,March,PE15 0TX,52.498151,0.04892,North East Cambridgeshire,"Nasser, Aliyyah-Begum",Y,Y,,,Y,,,Y,,,,0,0,E07000010,E02003751,E00091142,26,21.0,80.44806135901693,,,,
1-210273787,2011-05-06,Y,Askham Court,East of England,Fenland,13 Benwick Road,March,PE15 0TX,52.498151,0.04892,North East Cambridgeshire,"Nasser, Aliyyah-Begum",Y,Y,,,,,,,Y,,Y,4,4,E07000010,E02003751,E00091142,12,12.0,96.0,0.89817,1.0,4.8113,0.13233
1-2343510821,2015-12-14,Y,Aria Court,East of England,Fenland,Coronation Close,March,PE15 9PP,52.538958,0.084186,North East Cambridgeshire,"Tickell, Lynda",Y,Y,,,Y,,,Y,Y,,Y,0,0,E07000010,E02003750,E00091261,92,82.0,88.95677631735875,,,,
1-3015428856,2017-01-31,Y,The Elms Care Home,East of England,Fenland,2 Arnolds Lane,Peterborough,PE7 1QD,52.560096,-0.126063,North East Cambridgeshire,"Hall, Antony",Y,Y,,,Y,,,Y,Y,,,5,5,E07000010,E02003747,E00091325,37,29.0,78.0,0.71966,1.0,4.0088,0.16189
1-3015429362,2017-01-31,Y,The Gables Care Home,East of England,Fenland,101 Coates Road,Peterborough,PE7 2BD,52.559086,-0.083751,North East Cambridgeshire,"Hall, Antony",Y,Y,,,Y,,Y,Y,,,Y,4,4,E07000010,E02003749,E00091112,55,41.0,75.0,0.82615,11.0,20.4293,0.13377
