Location ID,Location HSCA start date,Care home?,Location Name,Location Region,Location Local Authority,Location Street Address,Location City,Location Postal Code,Location Latitude,Location Longitude,Location Parliamentary Constituency,Provider Nominated Individual Name,"Regulated activity - Treatment of disease, disorder or injury",Service type - Care home service with nursing,Service type - Care home service without nursing,Service user band - Children 0-18 years,Service user band - Dementia,Service user band - Learning disabilities or autistic spectrum disorder,Service user band - Mental Health,Service user band - Older People,Service user band - Physical Disability,Service user band - Sensory Impairment,Service user band - Younger Adults,num_values_found,num_values_found.1,lad,msoa,area,Care homes beds,occupancy_mean,%occupancy_mean,probability_mean,occupancy_std,%occupancy_std,probability_std
1-111443631,2011-01-20,Y,St Leonards Place,South East,Medway,96 Maidstone Road,Chatham,ME4 6DG,51.377218,0.522515,Chatham and Aylesford,"Martin, Russell",,Y,,,,Y,,,,,,3,3,E06000035,E02003328,E00081016,3,3.0,111.0,0.77542,1.0,19.245,0.29437
1-112512069,2011-01-21,Y,Frindsbury House,South East,Medway,42 Hollywood Lane,Rochester,ME3 8AL,51.411437,0.506666,Rochester and Strood,"Studd, Paul",,,Y,,,Y,,,Y,,,2,2,E06000035,E02003317,E00081623,23,22.0,93.0,0.98085,1.0,3.0744,0.01482
1-112601005,2011-01-05,Y,PILS Care,South East,Medway,Phoenix Road,Chatham,ME5 8RU,51.335568,0.540414,Chatham and Aylesford,*,,,Y,,Y,Y,,Y,,,Y,2,2,E06000035,E02003351,E00081186,3,2.0,83.0,0.93225,1.0,23.5702,0.09451
1-114358668,2011-03-01,Y,Apna Ghar Residential Home,South East,Medway,1 Kingswood Road,Gillingham,ME7 1EA,51.387599,0.552294,Gillingham and Rainham,*,,,Y,,,,Y,Y,,,Y,1,1,E06000035,E02003322,E00081059,3,2.0,67.0,0.99811,,,
1-118106417,2011-01-19,Y,The White House,South East,Medway,95-97 Maidstone Road,Chatham,ME4 6HY,51.367133,0.519748,Chatham and Aylesford,*,,,Y,,Y,,,Y,,,,5,5,E06000035,E02003340,E00080974,38,21.0,56.0,0.85216,4.0,9.7759,0.12643
1-118821736,2011-01-19,Y,Holly Lodge Residential Home,South East,Medway,208 Maidstone Road,Chatham,ME4 6HS,51.366129,0.51873,Rochester and Strood,"Garcha, Dabinder",,,Y,,Y,,,,,,,2,2,E06000035,E02003334,E00081512,22,12.0,57.0,0.75973,9.0,41.7836,0.31568
1-118851545,2011-01-20,Y,Steven Lodge,South East,Medway,22 Steven Close,Chatham,ME4 5NG,51.374848,0.533564,Chatham and Aylesford,"Agbetorwoka, Daniel",,,Y,,Y,Y,,,,,Y,2,2,E06000035,E02003335,E00080989,3,2.0,67.0,0.60307,0.0,0.0,0.25157
1-118853872,2010-12-14,Y,Berengrove Park Nursing Home,South East,Medway,45 Park Avenue,Gillingham,ME7 4AQ,51.375561,0.555791,Gillingham and Rainham,"Benaragama, Lalitha",Y,Y,,,Y,,,Y,,,,6,6,E06000035,E02003332,E00081761,39,32.0,81.0,0.88686,2.0,5.9951,0.10223
1-120785190,2011-01-21,Y,The Kent Autistic Trust - 11a Curlew Crescent,South East,Medway,11a Curlew Crescent,Strood,ME2 2RF,51.39223,0.46157,Rochester and Strood,"Hagan, Joan",,,Y,,,Y,,,,,,3,3,E06000035,E02003321,E00081640,6,6.0,100.0,0.95786,0.0,0.0,0.05854
1-120785236,2011-01-21,Y,The Kent Autistic Trust - 52a River Drive,South East,Medway,52a River Drive,Rochester,ME2 3JR,51.39522,0.477113,Rochester and Strood,"Hagan, Joan",,,Y,,,Y,,,,,,3,3,E06000035,E02003321,E00081671,6,3.0,56.0,0.96301,2.0,25.4588,0.06248
1-120785250,2011-01-21,Y,The Kent Autistic Trust - 30 The Close,South East,Medway,30 The Close,Rochester,ME1 1SD,51.382338,0.500577,Rochester and Strood,"Hagan, Joan",,,Y,,,Y,,,,,,3,3,E06000035,E02003327,E00081548,6,5.0,89.0,0.98037,1.0,19.245,0.01579
1-121477645,2011-01-10,Y,Heatherdale Healthcare Limited,South East,Medway,204 Hempstead Road,Gillingham,ME7 3QG,51.349436,0.571313,Gillingham and Rainham,"Sanghera, Baljit",Y,Y,,,,,,Y,,,,5,5,E06000035,E02003348,E00081137,43,38.0,87.0,0.90701,3.0,6.2834,0.11344
1-124270785,2010-12-07,Y,Acorn House Residential Home Limited,South East,Medway,39 Maidstone Road,Chatham,ME4 6DP,51.374505,0.521935,Chatham and Aylesford,"Rose, Bradley",,,Y,,Y,,,Y,,,,6,6,E06000035,E02003334,E00080972,20,14.0,70.0,0.8521,5.0,25.4951,0.20912
1-124995259,2011-01-07,Y,Grace Manor Care Centre,South East,Medway,348 Grange Road,Gillingham,ME7 2UD,51.387106,0.576041,Gillingham and Rainham,"Willis-Read, Rosamunde",Y,Y,,,Y,Y,Y,Y,Y,Y,Y,8,8,E06000035,E02003323,E00167417,60,51.0,85.0,0.89998,4.0,6.0912,0.06085
1-125730516,2011-01-24,Y,Welcome House - Nickleby Lodge,South East,Medway,32 The Close,Rochester,ME1 1SD,51.382338,0.500577,Rochester and Strood,*,,,Y,,,,Y,,,,,5,5,E06000035,E02003327,E00081548,10,6.0,58.0,0.98826,1.0,8.3666,0.0111
1-125730616,2011-01-24,Y,Welcome House - Leeza Court,South East,Medway,9 London Road,Gillingham,ME8 7RG,51.365026,0.601294,Gillingham and Rainham,*,,,Y,,,,Y,,,,,6,6,E06000035,E02003342,E00081344,16,13.0,83.0,0.81128,1.0,7.5691,0.14473
1-125730630,2011-01-24,Y,Welcome House - The Chestnuts,South East,Medway,10 Watts Avenue,Rochester,ME1 1RX,51.383429,0.500838,Rochester and Strood,*,,,Y,,,,Y,,,,,5,5,E06000035,E02003327,E00081544,15,10.0,69.0,0.96958,2.0,12.1106,0.03079
1-125855962,2011-02-15,Y,Friston House,South East,Medway,414 City Way,Rochester,ME1 2BQ,51.366637,0.508902,Rochester and Strood,"O'Reilly, Michael",Y,Y,,,Y,,,Y,,,Y,3,3,E06000035,E02003339,E00081479,81,79.0,97.0,0.96048,1.0,1.4256,0.04255
1-126576310,2011-01-24,Y,Avenues South East - 25 Beacon Close,South East,Medway,25 Beacon Close,Gillingham,ME8 9AP,51.358244,0.598094,Gillingham and Rainham,"Gower-Smith, Daniel",,,Y,,,Y,,,,,,1,1,E06000035,E02003342,E00081327,3,2.0,67.0,0.99427,,,
1-126576334,2011-01-24,Y,Avenues South East - 2a Higham Road,South East,Medway,Wainscott,Rochester,ME3 8BB,51.413396,0.510944,Rochester and Strood,"Gower-Smith, Daniel",,,Y,,,Y,,,,,,0,0,E06000035,E02003317,E00167402,4,4.0,99.85984401893953,,,,
1-126576382,2011-01-24,Y,Avenues South East - 74 Wilson Avenue,South East,Medway,74 Wilson Avenue,Rochester,ME1 2RL,51.364052,0.515772,Rochester and Strood,"Gower-Smith, Daniel",,,Y,,,Y,,,Y,,,4,4,E06000035,E02003339,E00081483,6,4.0,75.0,0.97819,1.0,9.6225,0.03287
1-126576395,2011-01-24,Y,Avenues South East - 320 Hempstead Road,South East,Medway,320 Hempstead Road,Gillingham,ME7 3QH,51.346572,0.569874,Gillingham and Rainham,"Gower-Smith, Daniel",,,Y,,,Y,,,Y,,,2,2,E06000035,E02003348,E00081137,4,4.0,100.0,0.75324,0.0,0.0,0.0
1-129076431,2010-12-10,Y,Rogers House,South East,Medway,Drewery Drive,Gillingham,ME8 0NX,51.34892,0.585761,Gillingham and Rainham,"Redman, Jill",,,Y,,Y,,,Y,,,,4,4,E06000035,E02003348,E00081140,43,35.0,82.0,0.94904,8.0,19.2125,0.02354
1-131512699,2011-03-10,Y,Chimnies Residential Care Home,South East,Medway,Chimnies,Rochester,ME3 9PD,51.462989,0.638898,Rochester and Strood,"Ong, Kim",,,Y,,Y,,,Y,,,,4,4,E06000035,E02003314,E00081236,29,20.0,71.0,0.92776,3.0,11.7781,0.04592
1-136882742,2010-12-06,Y,Orchard View,South East,Medway,"1, Parsonage Lane",Rochester,ME2 4HP,51.402229,0.505746,Rochester and Strood,"Collier, Sam",,,Y,,,Y,,,,,,3,3,E06000035,E02003319,E00081567,9,7.0,81.0,0.79772,1.0,12.83,0.22342
1-136882799,2010-12-06,Y,Rochester House,South East,Medway,221 Maidstone Road,Rochester,ME1 3BU,51.379766,0.502679,Rochester and Strood,"Collier, Sam",,,Y,,,Y,,,,,,4,4,E06000035,E02003330,E00081452,10,10.0,98.0,0.97478,0.0,5.0,0.00989
1-137436574,2011-01-24,Y,Pembroke House,South East,Medway,11 Oxford Road,Gillingham,ME7 4BS,51.378148,0.555102,Gillingham and Rainham,"Brown, Carole",Y,Y,,,,,,Y,,,,3,3,E06000035,E02003326,E00081749,55,49.0,89.0,0.91795,3.0,5.4545,0.00949
1-1386007651,2014-05-09,Y,Millstream House,South East,Medway,4 Mill Road,Rochester,ME2 3BT,51.40187,0.497271,Rochester and Strood,"Cannon, Andrew",,,Y,,,Y,,,Y,,Y,4,4,E06000035,E02003319,E00081577,22,15.0,68.0,0.90627,3.0,15.7459,0.08156
1-1386007795,2014-05-09,Y,Ridgeway,South East,Medway,11 Park Avenue,Gillingham,ME7 4AS,51.376924,0.556385,Gillingham and Rainham,"Cannon, Andrew",,,Y,,,Y,,,,,Y,4,4,E06000035,E02003326,E00081749,6,5.0,88.0,0.85993,1.0,15.9571,0.12975
1-1436403312,2014-06-03,Y,351 Maidstone Road,South East,Medway,351 Maidstone Road,Gillingham,ME8 0HU,51.353797,0.591752,Gillingham and Rainham,"Cannon, Andrew",,,Y,,,Y,,,,,Y,4,4,E06000035,E02003343,E00081333,5,4.0,80.0,0.96693,0.0,0.0,0.02144
1-1438812851,2014-06-18,Y,Sir Evelyn Road,South East,Medway,74 Sir Evelyn Road,Rochester,ME1 3LZ,51.364748,0.497147,Rochester and Strood,"Cannon, Andrew",,,Y,,,Y,,,,,Y,2,2,E06000035,E02003337,E00081538,6,5.0,83.0,0.96403,0.0,0.0,0.04852
1-1462963184,2014-07-31,Y,Hawthorn Manor Residential Home,South East,Medway,369 Maidstone Road,Gillingham,ME8 0HX,51.35142,0.590656,Gillingham and Rainham,"Sanghera, Baljit",,,Y,,,,,Y,,,,4,4,E06000035,E02003349,E00081400,37,33.0,90.0,0.86139,2.0,5.5718,0.17754
1-152868472,2011-01-27,Y,36a Birling Avenue,South East,Medway,Rainham,Gillingham,ME8 7EY,51.366288,0.597486,Gillingham and Rainham,"Sutherland, Ian",,,Y,Y,,Y,,Y,,,Y,3,3,E06000035,E02003336,E00081362,7,3.0,43.0,0.76544,1.0,14.2857,0.03979
1-158606408,2011-01-19,Y,Greenford Care Home,South East,Medway,260-262 Nelson Road,Gillingham,ME7 4NA,51.376522,0.551735,Gillingham and Rainham,"Fleming, Fugen",,,Y,,Y,,,Y,,,,7,7,E06000035,E02003332,E00081755,18,16.0,87.0,0.85428,1.0,7.7626,0.18695
1-162217949,2011-04-11,Y,Shaws Wood Residential Care Home,South East,Medway,Mill Road,Strood,ME2 3BU,51.402845,0.495858,Rochester and Strood,"Tricker, Anita",,,Y,,Y,,,Y,,,Y,7,7,E06000035,E02003319,E00081577,39,33.0,86.0,0.92761,4.0,10.6605,0.04127
1-166509791,2011-03-01,Y,5 Mierscourt Close,South East,Medway,5 Mierscourt Close,Rainham,ME8 8JD,51.360776,0.614815,Gillingham and Rainham,*,,,Y,,,Y,,,,,,0,0,E06000035,E02003338,E00081389,1,1.0,99.6743676029849,,,,
1-2031929871,2015-04-28,Y,Downers Court,South East,Medway,1 & 2 Downer Court,Rochester,ME1 2SA,51.365273,0.517175,Rochester and Strood,"Tsigarides, Debbie",,,Y,,,Y,Y,,Y,Y,Y,1,1,E06000035,E02003339,E00081483,3,3.0,100.0,0.99547,,,
1-221575483,2011-06-22,Y,Darland House,South East,Medway,29 Darland Avenue,Gillingham,ME7 3AL,51.370675,0.561252,Gillingham and Rainham,"Riley, Martin",Y,Y,,,Y,,,Y,,,,5,5,E06000035,E02003332,E00081764,40,32.0,81.0,0.85777,13.0,31.4543,0.08326
1-221793115,2011-05-08,Y,Amherst Court,South East,Medway,Palmerston Road,Chatham,ME4 6LU,51.365058,0.524188,Chatham and Aylesford,"Cross, Stuart",,Y,Y,,Y,,,Y,,,,2,2,E06000035,E02003340,E00081010,71,82.0,116.0,0.79877,32.0,44.8166,0.13024
1-228968856,2011-04-09,Y,Rose House,South East,Medway,25 Railway Street,Gillingham,ME7 1XH,51.387285,0.551428,Gillingham and Rainham,"Wordley, Katie",,,Y,,Y,Y,,Y,Y,,,3,3,E06000035,E02003325,E00081063,18,11.0,63.0,0.8757,4.0,22.4525,0.06751
1-231314305,2011-05-03,Y,Charing House,South East,Medway,Canterbury Street,Gillingham,ME7 5AY,51.375428,0.553241,Gillingham and Rainham,"Osman, Cemal",Y,Y,,,Y,Y,,Y,Y,Y,Y,4,4,E06000035,E02003332,E00081755,88,60.0,68.0,0.88359,39.0,44.7868,0.12498
1-235979751,2011-05-27,Y,Yew Tree Holdings Limited,South East,Medway,Yew Tree Lodge,Rochester,ME3 9BJ,51.425681,0.573506,Rochester and Strood,"Ali, Abida",,,Y,,,,,Y,,,,5,5,E06000035,E02003314,E00081268,26,23.0,87.0,0.84948,4.0,15.7645,0.12526
1-291181196,2011-07-11,Y,Ampersand,South East,Medway,Parsonage Lane,Rochester,ME2 4HP,51.402229,0.505746,Rochester and Strood,"Ravichandran, Radha",,,Y,,Y,,,Y,,,,2,2,E06000035,E02003319,E00081567,43,19.0,44.0,0.82913,7.0,16.4443,0.21814
1-2922792981,2016-09-26,Y,Welcome House - Gillingham Homes,South East,Medway,"66, 68 & 72 Milton Road",Gillingham,ME7 5LW,51.376327,0.548289,Gillingham and Rainham,*,,,Y,,,,Y,Y,,,Y,2,2,E06000035,E02003329,E00081127,9,4.0,39.0,0.99924,1.0,7.8567,0.00022
1-304010767,2011-11-04,Y,Copper Beeches,South East,Medway,5 Sylewood Close,Rochester,ME1 3LL,51.363757,0.49593,Rochester and Strood,"Southall, Natasha",Y,Y,,,Y,,,Y,,,,4,4,E06000035,E02003337,E00081538,36,34.0,93.0,0.9691,2.0,4.8113,0.00874
1-3135856666,2016-12-23,Y,Fort Horsted Care Home Ltd,South East,Medway,Primrose Close,Chatham,ME4 6HZ,51.358713,0.513971,Rochester and Strood,"Jana, Jyothi",Y,Y,,,,,,Y,,,,4,4,E06000035,E02003346,E00189741,30,26.0,85.0,0.87535,3.0,8.8192,0.07843
1-3178873232,2016-12-23,Y,Valley View Care Home Ltd,South East,Medway,Maidstone Road,Rochester,ME1 3LT,51.363625,0.498739,Rochester and Strood,"Jana, Jyothi",Y,Y,,,,,,Y,,,,6,6,E06000035,E02003337,E00081538,33,27.0,81.0,0.95076,4.0,10.7849,0.05582
1-3178920426,2016-12-23,Y,Byron Lodge Care Home Ltd,South East,Medway,105-107 Rock Avenue,Gillingham,ME7 5PX,51.378238,0.546455,Gillingham and Rainham,"Jana, Jyothi",Y,Y,,,,,,Y,,,,0,0,E06000035,E02003329,E00081123,28,24.0,86.28041095799075,,,,
1-327546571,2011-11-01,Y,Frindsbury Hall Care Home,South East,Medway,Frindsbury Hill,Rochester,ME2 4JS,51.404736,0.505437,Rochester and Strood,"Harkin, Karen",Y,Y,,,Y,,Y,Y,Y,Y,Y,3,3,E06000035,E02003317,E00081618,74,50.0,67.0,0.84591,3.0,3.4008,0.04757
1-3499265741,2017-02-20,Y,Aquarius Care Home,South East,Medway,8 Watson Avenue,Chatham,ME5 9SH,51.349169,0.509427,Rochester and Strood,*,Y,Y,Y,,Y,,,Y,Y,Y,Y,3,3,E06000035,E02003346,E00081501,20,19.0,93.0,0.95406,3.0,12.5831,0.0257
1-378242787,2012-04-02,Y,Rock House,South East,Medway,109 Rock Avenue,Gillingham,ME7 5PY,51.376407,0.54667,Gillingham and Rainham,"Herkanaidu, Rodney",,,Y,,,,Y,Y,,,Y,4,4,E06000035,E02003329,E00081129,15,13.0,88.0,0.9104,0.0,3.3333,0.07668
1-4158922936,2017-08-29,Y,Durland House Residential Home,South East,Medway,160 High Street,Gillingham,ME8 8AT,51.362067,0.613854,Gillingham and Rainham,"Sturch, Lee",,,Y,,,,,Y,,,,1,1,E06000035,E02003342,E00081312,12,6.0,50.0,0.99743,,,
1-443033772,2012-07-27,Y,The Shrubbery,South East,Medway,35 Frindsbury Road,Rochester,ME2 4TD,51.399646,0.498243,Rochester and Strood,"Wint, Stella",,,Y,,,Y,Y,Y,Y,Y,Y,0,0,E06000035,E02003319,E00081584,15,14.0,94.29230560803656,,,,
1-450745337,2012-08-02,Y,The Brookland,South East,Medway,42C Magpie Hall Road,Chatham,ME4 5ND,51.373174,0.53317,Chatham and Aylesford,"Agbetorwoka, Daniel",,,Y,,,Y,,,,,Y,0,0,E06000035,E02003335,E00081003,1,1.0,98.14532748577145,,,,
1-4564329165,2017-11-27,Y,Jersey Road,South East,Medway,11B Jersey Road,Rochester,ME2 3PB,51.398292,0.485805,Rochester and Strood,"Tsigarides, Debbie",,,Y,,,Y,Y,,,,Y,1,1,E06000035,E02003318,E00081588,4,3.0,75.0,0.92724,,,
1-480975512,2012-11-01,Y,579 Maidstone Road,South East,Medway,579 Maidstone Road,Gillingham,ME8 0LQ,51.341137,0.588381,Gillingham and Rainham,"Cannon, Andrew",,,Y,,,Y,Y,Y,Y,Y,Y,3,3,E06000035,E02003349,E00081415,6,6.0,100.0,0.90506,0.0,0.0,0.0948
1-4856961201,2018-02-28,Y,Castle View House,South East,Medway,9 Castle View Road,Rochester,ME2 3PP,51.396805,0.486817,Rochester and Strood,"Makoni, James",,,Y,,Y,,Y,Y,,,Y,5,5,E06000035,E02003319,E00081556,8,6.0,80.0,0.83794,1.0,11.1803,0.17515
1-556140145,2013-01-16,Y,Star Care Lodge,South East,Medway,15-17 Park Avenue,Gillingham,ME7 4AS,51.376924,0.556385,Gillingham and Rainham,"Garba, Shatu",,,Y,,,,Y,Y,,,Y,2,2,E06000035,E02003326,E00081749,13,8.0,62.0,0.77884,4.0,32.6357,0.26072
1-604816190,2013-05-03,Y,Sinon House Therapeutic Unit,South East,Medway,16 The Terrace,Rochester,ME1 1XN,51.385459,0.506037,Rochester and Strood,"Olyedemi, Michael",,,Y,,,Y,Y,,,,Y,5,5,E06000035,E02003327,E00081541,3,3.0,100.0,0.91926,0.0,0.0,0.1289
1-626011673,2015-07-27,Y,Stuart House,South East,Medway,42-44 Stuart Road,Gillingham,ME7 4AD,51.374854,0.554818,Gillingham and Rainham,"Endeley, Emilia",,Y,,,,Y,Y,,,Y,Y,2,2,E06000035,E02003332,E00081761,11,2.0,23.0,0.9994,1.0,6.4282,0.0
1-6349822560,2019-01-24,Y,Grafton Lodge,South East,Medway,40 Goddington Road,Rochester,ME2 3DE,51.401387,0.495894,Rochester and Strood,"Ratnasingham, Darshini",,,Y,,Y,,,Y,Y,Y,,7,7,E06000035,E02003319,E00081566,22,16.0,73.0,0.8888,2.0,9.6168,0.10916
1-641846551,2013-08-22,Y,Park View Care Home,South East,Medway,Canterbury Street,Gillingham,ME7 5AY,51.375428,0.553241,Gillingham and Rainham,"Osman, Cemal",,,Y,,Y,,,Y,,,Y,3,3,E06000035,E02003332,E00081755,44,27.0,61.0,0.86275,20.0,45.9631,0.12039
1-652204498,2013-03-12,Y,Insight Walderslade,South East,Medway,73 Robin Hood Lane,Chatham,ME5 9NP,51.336459,0.523334,Chatham and Aylesford,"Cashford, Lynda",,,Y,,,Y,,,,,Y,2,2,E06000035,E02003350,E00081722,6,6.0,100.0,0.97715,0.0,0.0,0.03146
1-667611293,2013-04-12,Y,Platters Farm Lodge,South East,Medway,Highfield Road,Gillingham,ME8 0EQ,51.359404,0.593261,Gillingham and Rainham,"Montgomery, Paul",,,Y,,Y,,,Y,,,Y,5,5,E06000035,E02003342,E00081320,43,29.0,68.0,0.89822,7.0,15.8924,0.05807
1-7232850870,2019-08-23,Y,Watts Healthcare Ltd,South East,Medway,209-211,Rochester,ME1 3BU,51.379766,0.502679,Rochester and Strood,"Thind, Jashpal",Y,Y,,,Y,,,Y,Y,Y,Y,1,1,E06000035,E02003330,E00081452,32,1.0,3.0,0.96011,,,
1-845750711,2013-08-12,Y,Ruth Lodge,South East,Medway,6 Ruth Street,Chatham,ME4 5NU,51.374302,0.532169,Chatham and Aylesford,"Agbetorwoka, Daniel",,,Y,,,Y,,,,,Y,2,2,E06000035,E02003335,E00167419,2,2.0,100.0,0.97238,0.0,0.0,0.03639
1-898047552,2013-09-04,Y,Victory Care Home,South East,Medway,Nelson Terrace,Chatham,ME5 7JZ,51.368182,0.548139,Chatham and Aylesford,"Summerson, Raina",,,Y,,Y,,Y,Y,Y,Y,,3,3,E06000035,E02003333,E00081208,61,51.0,83.0,0.89386,4.0,6.6253,0.04889
1-909306102,2013-09-02,Y,Rochester Care Home,South East,Medway,Robert Bean Care Centre,Rochester,ME1 2QT,51.370042,0.513241,Rochester and Strood,"Summerson, Raina",,,Y,,Y,,Y,Y,Y,Y,,3,3,E06000035,E02003339,E00081508,64,54.0,85.0,0.85539,4.0,6.5052,0.04851
1-9173028750,2020-09-21,Y,Kingsdown House,South East,Medway,46 Goddington Road,Kent,ME2 3DE,51.401387,0.495894,Rochester and Strood,"Collier, Sam",,,Y,,,Y,,,Y,,Y,1,1,E06000035,E02003319,E00081566,9,9.0,100.0,0.99908,,,
1-9177059380,2020-09-21,Y,Woodbridge House,South East,Medway,151 Sturdee Avenue,Gillingham,ME7 2HH,51.378589,0.565387,Gillingham and Rainham,"Collier, Sam",,,Y,,,Y,,Y,Y,,Y,3,3,E06000035,E02003326,E00081118,10,8.0,83.0,0.91891,2.0,20.8167,0.05695
1-107928596,2010-12-01,Y,Beech House - Binfield,South East,Bracknell Forest,London Road,Bracknell,RG42 4AB,51.420792,-0.782815,Windsor,"Dhalla, Salim",,,Y,,Y,,,Y,,,,4,4,E06000036,E02003353,E00081795,31,27.0,86.0,0.86569,2.0,4.8387,0.23139
1-108787978,2011-01-18,Y,Far End Residential Home,South East,Bracknell Forest,"Far End, Sandhurst Lodge",Crowthorne,RG45 7QD,51.361064,-0.822232,Bracknell,*,,,Y,,Y,,,Y,,,,3,3,E06000036,E02003363,E00082000,3,3.0,100.0,0.8909,0.0,0.0,0.16509
1-109168717,2011-01-21,Y,The Homestead (Crowthorne) Limited,South East,Bracknell Forest,18 Heath Hill Road North,Crowthorne,RG45 7BX,51.369849,-0.798319,Bracknell,"Minks, Duke",,,Y,,Y,,,Y,,,,1,1,E06000036,E02003363,E00081902,23,17.0,74.0,0.87767,,,
1-111214617,2010-12-07,Y,Pinehurst Care Centre,South East,Bracknell Forest,38-44 Dukes Ride,Crowthorne,RG45 6ND,51.370941,-0.794369,Bracknell,"Willis-Read, Rosamunde",,,Y,,Y,,,Y,,,,3,3,E06000036,E02003363,E00081897,50,39.0,77.0,0.82568,7.0,14.1892,0.13735
1-112860859,2010-11-18,Y,St David's Nursing Home,South East,Bracknell Forest,Ascot Priory,Ascot,SL5 8RS,51.417421,-0.70745,Windsor,"Tanner, David",Y,Y,,,,,,Y,,,,2,2,E06000036,E02003356,E00188478,39,30.0,78.0,0.97876,2.0,5.4393,0.0001
1-112860904,2010-11-18,Y,St Christopher's Care Home,South East,Bracknell Forest,Ascot Priory,Ascot,SL5 8RS,51.417421,-0.70745,Windsor,"Tanner, David",,,Y,,,,,Y,,,,3,3,E06000036,E02003356,E00188478,25,16.0,63.0,0.9824,2.0,6.1101,0.00445
1-118895280,2010-11-16,Y,Fourways Residential Home,South East,Bracknell Forest,45 Scotland Hill,Sandhurst,GU47 8JR,51.34836,-0.80474,Bracknell,"Atkinson, Rowen",,,Y,,Y,,,Y,,,,4,4,E06000036,E02003365,E00082005,20,16.0,78.0,0.91481,3.0,13.2288,0.01649
1-129460261,2010-12-20,Y,The Lodge,South East,Bracknell Forest,21 Roundshead Drive,Bracknell,RG42 3RZ,51.42182,-0.736451,Windsor,"Cannon, Andrew",,,Y,,,Y,,Y,,,Y,4,4,E06000036,E02003354,E00082074,5,4.0,75.0,0.86137,0.0,10.0,0.26705
1-129557137,2010-12-23,Y,Bracknell Care Home,South East,Bracknell Forest,Crowthorne Road,Bracknell,RG12 7DN,51.405355,-0.758283,Bracknell,"Southall, Natasha",Y,Y,,,,,,Y,Y,,,6,6,E06000036,E02003358,E00082093,30,25.0,84.0,0.762,2.0,7.1233,0.22656
1-136373349,2011-01-13,Y,Waymead Short Term Care,South East,Bracknell Forest,St Anthony's Close,Bracknell,RG42 2EB,51.421518,-0.757831,Bracknell,"Doherty, Hannah",,,Y,,,Y,,,,,,3,3,E06000036,E02003355,E00082062,10,20.0,197.0,0.62058,17.0,170.3917,0.29147
1-4084189711,2017-07-21,Y,Astbury Manor Care Home,South East,Bracknell Forest,Crowthorne Road North,Bracknell,RG12 7AU,51.411311,-0.75181,Bracknell,"Matthews, Ian",,,Y,,Y,,Y,Y,Y,Y,Y,2,2,E06000036,E02003358,E00082097,64,47.0,73.0,0.85614,11.0,17.6777,0.15962
1-4277170808,2017-09-20,Y,St Brendan's Care Home,South East,Bracknell Forest,44 Sandhurst Road,Crowthorne,RG45 7HU,51.364886,-0.796594,Bracknell,"Rodgers, Rachel",,,Y,,Y,,,Y,,,,2,2,E06000036,E02003363,E00081993,62,48.0,77.0,0.77505,4.0,6.843,0.21397
1-8089293376,2020-01-06,Y,Bickerton House,South East,Bracknell Forest,Warfield Road,Bracknell,RG12 2JB,51.419828,-0.743553,Bracknell,"Gilbert, Rachel",Y,Y,,,Y,,,Y,Y,,Y,1,1,E06000036,E02003354,E00081818,77,20.0,26.0,0.60266,,,
1-826671172,2013-07-05,Y,Haldane House Nursing Home,South East,Bracknell Forest,127 Yorktown Road,Sandhurst,GU47 9BW,51.345385,-0.796016,Bracknell,"Atkinson, Rowen",Y,Y,,,Y,,,Y,,,,0,0,E06000036,E02003365,E00081834,25,20.0,80.74036126458091,,,,
1-108580491,2010-11-26,Y,The Old Vicarage,South East,West Berkshire,Parsonage Lane,Hungerford,RG17 0JB,51.415385,-1.52101,Newbury,"Elliott, Nicola",,,Y,,,Y,,,,,Y,1,1,E06000037,E02003376,E00082332,13,11.0,85.0,0.96628,,,
1-111256321,2011-01-19,Y,Watson House,South East,West Berkshire,12 Huckleberry Close,Reading,RG8 8EH,51.478843,-1.044967,Reading West,"Carr, Neil",,,Y,,,Y,,Y,,,Y,1,1,E06000037,E02003370,E00082420,7,7.0,100.0,0.85414,,,
1-111256339,2011-01-19,Y,Elizabeth House,South East,West Berkshire,14 Huckleberry Close,Reading,RG8 8EH,51.478843,-1.044967,Reading West,"Carr, Neil",,,Y,,,Y,,Y,,,Y,2,2,E06000037,E02003370,E00082420,8,8.0,94.0,0.99924,1.0,8.8388,0.00022
1-111256355,2011-01-19,Y,Parry House,South East,West Berkshire,15 Huckleberry Close,Reading,RG8 8EH,51.478843,-1.044967,Reading West,"Carr, Neil",,,Y,,,Y,,Y,,,Y,2,2,E06000037,E02003370,E00082420,8,8.0,106.0,0.89686,1.0,8.8388,0.14502
1-111256371,2011-01-19,Y,Slade House,South East,West Berkshire,17 Huckleberry Close,Reading,RG8 8EH,51.478843,-1.044967,Reading West,"Carr, Neil",,,Y,,,Y,,Y,,,Y,2,2,E06000037,E02003370,E00082420,8,8.0,94.0,0.84685,1.0,8.8388,0.0
1-111256387,2011-01-19,Y,Duncan House,South East,West Berkshire,18 Huckleberry Close,Reading,RG8 8EH,51.478843,-1.044967,Reading West,"Carr, Neil",,,Y,,,Y,,Y,,,Y,2,2,E06000037,E02003370,E00082420,8,8.0,100.0,0.82436,0.0,0.0,0.03181
1-111256403,2011-01-19,Y,Yewbank,South East,West Berkshire,19 Huckleberry Close,Reading,RG8 8EH,51.478843,-1.044967,Reading West,"Carr, Neil",,,Y,,,Y,,Y,,,Y,0,0,E06000037,E02003370,E00082420,5,5.0,96.53319107094924,,,,
1-111256419,2011-01-19,Y,Acorn House,South East,West Berkshire,20 Huckleberry Close,Reading,RG8 8EH,51.478843,-1.044967,Reading West,"Carr, Neil",,,Y,,,Y,,Y,,,Y,1,1,E06000037,E02003370,E00082420,5,5.0,100.0,0.92069,,,
1-111256435,2011-01-19,Y,Hazel View,South East,West Berkshire,21 Huckleberry Close,Reading,RG8 8EH,51.478843,-1.044967,Reading West,"Carr, Neil",,,Y,,,Y,,Y,,,Y,3,3,E06000037,E02003370,E00082420,5,5.0,93.0,0.8079,1.0,11.547,0.17403
1-111590066,2011-01-28,Y,Willows Edge,South East,West Berkshire,Hutton Close,Newbury,RG14 1HJ,51.408682,-1.316928,Newbury,"Ross, Sara",,,Y,,Y,,,Y,Y,Y,,2,2,E06000037,E02003385,E00082567,39,26.0,65.0,0.82022,6.0,16.3178,0.01196
1-111590083,2011-01-28,Y,Walnut Close,South East,West Berkshire,Brownsfield Road,Newbury,RG18 3GF,51.404819,-1.266931,Newbury,"Ross, Sara",,,Y,,Y,,,Y,Y,Y,Y,2,2,E06000037,E02003382,E00082484,35,32.0,90.0,0.85673,1.0,2.0203,0.10807
1-111590100,2011-01-28,Y,Notrees,South East,West Berkshire,10 High Street,Hungerford,RG17 9TW,51.399231,-1.452152,Newbury,"Ross, Sara",,,Y,,Y,,,Y,,Y,Y,2,2,E06000037,E02003384,E00082342,18,14.0,78.0,0.64537,1.0,7.8567,0.23915
1-117599838,2011-01-14,Y,Holly Grange Residential Home,South East,West Berkshire,Cold Ash Hill,Thatcham,RG18 9PT,51.427126,-1.266661,Newbury,*,,,Y,,Y,,Y,Y,Y,Y,,5,5,E06000037,E02003373,E00082256,19,11.0,56.0,0.68839,2.0,8.8069,0.21775
1-118278695,2011-01-17,Y,Mrs P M Eales t/a Just Homes - 3 New Hill,South East,West Berkshire,"3 New Hill, Purley On Thames",Reading,RG8 8AY,51.479876,-1.047048,Reading West,*,,,Y,,,Y,,Y,Y,,,2,2,E06000037,E02003370,E00082425,3,2.0,83.0,0.95212,1.0,23.5702,0.05192
1-119110400,2010-12-16,Y,The Walled Garden,South East,West Berkshire,"Calcot Grange, Mill Lane",Reading,RG31 7RS,51.439453,-1.036595,Reading West,"Stevens, Christopher",,,Y,,,Y,,,,,Y,2,2,E06000037,E02003374,E00082207,10,9.0,90.0,0.7417,0.0,0.0,0.08369
1-119614146,2011-01-19,Y,Kestrels,South East,West Berkshire,84 Hambridge Road,Newbury,RG14 5TA,51.399285,-1.309195,Newbury,"Aldridge, Joy",,,Y,,,Y,,,,,,0,0,E06000037,E02003385,E00082576,5,4.0,82.59286676427712,,,,
1-119632241,2011-01-19,Y,Chaffinches,South East,West Berkshire,108 Paynesdown Road,Thatcham,RG19 3TE,51.403743,-1.274568,Newbury,"Aldridge, Joy",,,Y,,,Y,,,,,,4,4,E06000037,E02003380,E00082538,3,3.0,100.0,0.99913,0.0,0.0,8e-05
1-122256007,2010-12-08,Y,Boxgrove House,South East,West Berkshire,Littlehealth Road,Reading,RG31 5TY,51.457361,-1.057103,Reading West,"Prescott, Martin",,,Y,,,Y,,,,,,0,0,E06000037,E02003371,E00172655,11,10.0,91.9462638012439,,,,
1-122256185,2010-12-08,Y,Rowan Cottage,South East,West Berkshire,Sulhamstead Road,Reading,RG30 3SB,51.411396,-1.04945,Wokingham,"Prescott, Martin",,,Y,,,Y,,,,,,3,3,E06000037,E02003381,E00082195,9,9.0,100.0,0.83075,0.0,0.0,0.0464
1-122256241,2010-12-08,Y,Appletrees,South East,West Berkshire,Chapel Row,Newbury,RG7 6PB,51.424727,-1.181275,Newbury,"Prescott, Martin",,,Y,,,Y,,,,,,2,2,E06000037,E02003377,E00082170,8,8.0,94.0,0.98975,1.0,8.8388,0.01182
1-127819024,2010-10-01,Y,Bayford House Care Home,South East,West Berkshire,Rookwood,Newbury,RG20 8LB,51.415978,-1.375609,Newbury,"Pearson, Rebecca",Y,Y,,,,,,Y,,,Y,3,3,E06000037,E02003384,E00082463,59,46.0,79.0,0.90639,4.0,7.0565,0.02005
1-129454094,2010-12-20,Y,30 Broad Lane,South East,West Berkshire,Upper Bucklebury,Reading,RG7 6QJ,51.414186,-1.220451,Newbury,"Cannon, Andrew",,,Y,,,Y,,Y,,,Y,2,2,E06000037,E02003377,E00082171,6,5.0,83.0,0.85142,0.0,0.0,0.20105
1-129459897,2010-12-20,Y,Oaklands,South East,West Berkshire,5 The Green,Reading,RG7 5DR,51.433842,-1.086972,Reading West,"Cannon, Andrew",,,Y,,,Y,,,,,Y,2,2,E06000037,E02003375,E00082562,6,4.0,75.0,0.90111,2.0,35.3553,0.13856
1-130113054,2010-11-25,Y,Thatcham Court Care Home,South East,West Berkshire,Chapel Street,Thatcham,RG18 4QL,51.40378,-1.256103,Newbury,"Pearson, Rebecca",Y,Y,,,Y,,Y,,Y,Y,Y,2,2,E06000037,E02003382,E00082510,60,55.0,92.0,0.93863,7.0,11.7851,0.01735
1-130113115,2010-11-25,Y,Argyles Care Home,South East,West Berkshire,Pound Street,Newbury,RG14 6AE,51.396635,-1.328051,Newbury,"Pearson, Rebecca",Y,Y,,,,,,Y,,,Y,3,3,E06000037,E02003386,E00082449,50,36.0,71.0,0.8287,6.0,12.0554,0.13615
1-130120697,2010-11-25,Y,The Donnington Care Home,South East,West Berkshire,Wantage Road,Newbury,RG14 3BE,51.425281,-1.332507,Newbury,"Pearson, Rebecca",Y,Y,,,,,,Y,,,Y,2,2,E06000037,E02003378,E00082456,40,28.0,70.0,0.85988,4.0,10.6066,0.13219
1-1348855505,2014-04-23,Y,Winchcombe Place,South East,West Berkshire,Maple Crescent,Newbury,RG14 1LN,51.409032,-1.321466,Newbury,"Gilbert, Rachel",Y,Y,,,Y,,Y,Y,Y,,Y,3,3,E06000037,E02003378,E00082388,80,52.0,65.0,0.90331,14.0,17.3355,0.0208
1-136396909,2010-12-30,Y,The Coombe House,South East,West Berkshire,The Coombe,Reading,RG8 9QL,51.52105,-1.155225,Newbury,*,,,Y,,,,,Y,,,,0,0,E06000037,E02003369,E00082137,24,23.0,96.66127290978936,,,,
1-2454464191,2016-08-02,Y,Hungerford Care Home,South East,West Berkshire,Wantage Road,Hungerford,RG17 0PN,51.437087,-1.49227,Newbury,"Southall, Natasha",Y,Y,,,Y,,,Y,,,,3,3,E06000037,E02003376,E00082328,59,34.0,58.0,0.66361,23.0,39.0934,0.26076
1-271352001,2011-07-15,Y,Little Heath Court,South East,West Berkshire,Little Heath Road,Reading,RG31 5TY,51.457361,-1.057103,Reading West,"Prescott, Martin",,,Y,,,Y,,,,,,2,2,E06000037,E02003371,E00172655,8,7.0,88.0,0.90139,1.0,17.6777,0.02729
1-293119881,2011-08-11,Y,1-2 Prior's Court Cottages,South East,West Berkshire,Prior's Court Road,Thatcham,RG18 9JT,51.457719,-1.291988,Newbury,"Butcher, Sarah",,,Y,,,Y,,,,,Y,2,2,E06000037,E02003367,E00082231,6,6.0,92.0,0.96205,1.0,11.7851,0.05237
1-2987105814,2016-10-20,Y,Gracewell of Newbury,South East,West Berkshire,370 London Road,Newbury,RG14 2QH,51.404869,-1.297173,Newbury,"Macdonald, Natalie-Jane",Y,Y,,,Y,,,Y,,,Y,2,2,E06000037,E02003379,E00082242,68,56.0,82.0,0.779,12.0,17.6777,0.26957
1-307297360,2011-09-30,Y,Hollies,South East,West Berkshire,Reading Road,Reading,RG7 3BH,51.402169,-1.051596,Wokingham,"Boote, Alison",Y,Y,,,Y,,,Y,,,Y,2,2,E06000037,E02003381,E00082196,58,50.0,87.0,0.72141,2.0,3.6574,0.02119
1-352636837,2012-01-04,Y,Dimensions Baily Thomas House Haysoms Drive,South East,West Berkshire,Baily Thomas House,Thatcham,RG19 8EX,51.383949,-1.312817,Newbury,"Dodgson, Rachael",,,Y,,,Y,,,,,,1,1,E06000037,E02003386,E00082311,6,5.0,83.0,0.93979,,,
1-353463566,2012-01-04,Y,Dimensions 43 Clayhill Road,South East,West Berkshire,43 Clayhill Road,Reading,RG7 3HF,51.401322,-1.064739,Wokingham,"Dodgson, Rachael",,,Y,,,Y,,,,,,0,0,E06000037,E02003381,E00082185,6,5.0,84.16294656216215,,,,
1-4237082441,2017-09-14,Y,Birchwood,South East,West Berkshire,Birchwood Road,Newbury,RG14 2PP,51.407448,-1.298189,Newbury,"Ross, Sara",Y,Y,,,Y,,,Y,Y,Y,,0,0,E06000037,E02003379,E00082241,60,51.0,84.64633850671878,,,,
1-4391627173,2017-10-12,Y,Purley House,South East,West Berkshire,20 Wintringham Way,Reading,RG8 8BG,51.482889,-1.040577,Reading West,"Hoer, Karen",,,Y,Y,,Y,Y,,,,Y,1,1,E06000037,E02003370,E00082416,3,2.0,67.0,0.95887,,,
1-4518082141,2017-11-21,Y,Gracewell of Newbury,South East,West Berkshire,370 London Road,Newbury,RG14 2QH,51.404869,-1.297173,Newbury,"Macdonald, Natalie-Jane",Y,Y,,,Y,,,Y,Y,,Y,2,2,E06000037,E02003379,E00082242,68,56.0,82.0,0.779,12.0,17.6777,0.26957
1-457362743,2012-08-07,Y,3-4 Priors Court Cottages,South East,West Berkshire,Priors Court Road,Thatcham,RG18 9JT,51.457719,-1.291988,Newbury,"Butcher, Sarah",,,Y,,,Y,,,,,Y,1,1,E06000037,E02003367,E00082231,6,6.0,100.0,0.99908,,,
1-4838742926,2018-02-28,Y,Charlotte House,South East,West Berkshire,4 Charlotte Close,Thatcham,RG18 9TU,51.452064,-1.2774,Newbury,"Butcher, Sarah",,,Y,,,Y,,,,,Y,2,2,E06000037,E02003373,E00082177,5,5.0,100.0,0.95725,0.0,0.0,0.05917
1-5212793699,2018-05-11,Y,Downview Residential Home,South East,West Berkshire,11-12 Down View,Hungerford,RG17 0ED,51.412875,-1.509893,Newbury,*,,,Y,,,Y,,Y,,,Y,2,2,E06000037,E02003376,E00082331,7,7.0,100.0,0.90994,0.0,0.0,0.12606
1-5459432317,2018-08-03,Y,Braeburn Lodge,South East,West Berkshire,Bath Road,Reading,RG7 5JB,51.416686,-1.118884,Wokingham,"Douglas, Grant",,,Y,,Y,,Y,Y,Y,Y,Y,1,1,E06000037,E02003375,E00082476,14,12.0,86.0,0.89637,,,
1-7975133961,2019-12-09,Y,Falkland Grange Care Home,South East,West Berkshire,Monks Lane,Newbury,RG14 7RW,51.381717,-1.336125,Newbury,"Herbert, Lance",Y,Y,,,Y,,,Y,,,,3,3,E06000037,E02003385,E00177261,64,42.0,66.0,0.9211,8.0,13.1039,0.1081
1-883698825,2013-08-05,Y,5-6 Prior's Court Cottages: Bradbury House,South East,West Berkshire,Prior's Court Road,Thatcham,RG18 9JT,51.457719,-1.291988,Newbury,"Butcher, Sarah",,,Y,,,Y,,,,,Y,0,0,E06000037,E02003367,E00082231,8,7.0,92.55438133071507,,,,
1-9173029150,2020-09-21,Y,Newton House,South East,West Berkshire,404 London Road,Thatcham,RG18 3AA,51.404628,-1.294278,Newbury,"Collier, Sam",,,Y,,,Y,,,Y,,Y,1,1,E06000037,E02003379,E00082242,7,6.0,86.0,0.99908,,,
1-9188988988,2020-07-30,Y,Roebuck Rise,South East,West Berkshire,10 Roebuck Rise,Reading,RG31 6TP,51.473966,-1.039051,Reading West,"Hoer, Karen",,,Y,Y,,Y,,,,,Y,1,1,E06000037,E02003370,E00082424,4,2.0,50.0,0.59243,,,
1-9976312106,2020-12-03,Y,Clifford House,South East,West Berkshire,7 Leonardslee Crescent,Newbury,RG14 2FB,51.405526,-1.300102,Newbury,"Teasdale, Emma",,,Y,Y,,Y,,,,Y,Y,0,0,E06000037,E02003379,E00082243,3,3.0,86.77858319687311,,,,
1-108521111,2010-12-01,Y,Chilmington House,South East,Reading,Armadale Court,Reading,RG30 2ES,51.449422,-0.998639,Reading West,"Mitchell, Noreen",,,Y,,Y,Y,,,Y,Y,Y,1,1,E06000038,E02003401,E00082792,7,6.0,86.0,0.95081,,,
1-113446002,2011-01-17,Y,159 Wensley Road,South East,Reading,159 Wensley Road,Reading,RG1 6DU,51.443253,-0.990212,Reading West,*,,,Y,,,Y,Y,,Y,,Y,4,4,E06000038,E02003401,E00082802,4,3.0,81.0,0.99916,0.0,12.5,0.00016
1-117599854,2011-01-14,Y,Moorlands Rest Home,South East,Reading,987 Oxford Road,Reading,RG31 6TN,51.47075,-1.02963,Reading West,*,,,Y,,Y,,Y,Y,,,,3,3,E06000038,E02003393,E00082746,12,10.0,83.0,0.96726,1.0,8.3333,0.04838
1-119835906,2010-12-02,Y,Abbeyfield Reading Society Limited,South East,Reading,11 Maitland Road,Reading,RG1 6NL,51.451875,-0.986899,Reading West,"Davis, Kathleen",,,Y,,,,,Y,,,,0,0,E06000038,E02003401,E00082783,28,25.0,88.21544611545201,,,,
1-120980208,2011-01-18,Y,Mulberry Care Limited,South East,Reading,155a Wokingham Road,Reading,RG6 1LP,51.445434,-0.932923,Reading East,"Ahluwalia, Satbir",,,Y,,Y,,,,,,,2,2,E06000038,E02003400,E00082865,35,27.0,77.0,0.91774,7.0,20.2031,0.08813
1-122256045,2010-12-08,Y,Carisbrooke,South East,Reading,341 Peppard Road,Reading,RG4 8XG,51.488743,-0.962461,Reading East,"Prescott, Martin",,,Y,,,Y,,,,,,0,0,E06000038,E02003389,E00082890,6,5.0,90.66880042665592,,,,
1-122256115,2010-12-08,Y,Hazeldene,South East,Reading,127-131 Wantage Road,Reading,RG30 2SL,51.453608,-1.004462,Reading West,"Prescott, Martin",,,Y,Y,,Y,,,,,,2,2,E06000038,E02003396,E00082628,10,10.0,95.0,0.84815,1.0,7.0711,0.21345
1-122256157,2010-12-08,Y,Parkview,South East,Reading,1 Armour Road,Reading,RG31 6EX,51.461389,-1.037156,Reading West,"Prescott, Martin",,,Y,,,Y,,,,,,1,1,E06000038,E02003393,E00083015,9,8.0,89.0,0.99427,,,
1-122256171,2010-12-08,Y,Peppard House,South East,Reading,45 Woodcote Road,Reading,RG4 7BB,51.473378,-0.988439,Reading East,"Prescott, Martin",,,Y,,,Y,,,,,,1,1,E06000038,E02003390,E00082972,7,6.0,86.0,0.92069,,,
1-125573741,2010-12-16,Y,St Lukes and The Oaks Care Home,South East,Reading,Marshland Square,Caversham,RG4 8RP,51.479053,-0.9668,Reading East,"Rodgers, Rachel",,,Y,,Y,,,Y,,,,2,2,E06000038,E02003391,E00082882,78,70.0,89.0,0.93739,2.0,2.7196,0.04963
1-126075861,2011-01-13,Y,Jigsaw Creative Care Limited - 77 Russell Street,South East,Reading,77 Russell Street,Reading,RG1 7XG,51.452326,-0.982888,Reading East,"Woods, Jill",,,Y,,,Y,,Y,,,Y,4,4,E06000038,E02006939,E00082595,3,5.0,175.0,0.8176,4.0,147.5102,0.14187
1-126790254,2010-12-20,Y,Yew Tree Lodge,South East,Reading,17-19 Redlands Road,Reading,RG1 5HX,51.443002,-0.954269,Reading East,"Irving, Warren",,,Y,,,,Y,,,,,2,2,E06000038,E02003402,E00174480,16,11.0,69.0,0.84742,1.0,8.8388,0.051
1-127819038,2010-10-01,Y,Beacher Hall Care Home,South East,Reading,42 Bath Road,Reading,RG1 6PG,51.449321,-0.991028,Reading West,"Pearson, Rebecca",Y,Y,,,,,,Y,Y,,Y,3,3,E06000038,E02003401,E00082815,70,68.0,97.0,0.98419,1.0,1.4286,0.01014
1-129453920,2010-12-20,Y,1 Uppingham Gardens,South East,Reading,Caversham,Reading,RG4 6SP,51.484195,-0.952555,Reading East,"Cannon, Andrew",,,Y,,,Y,,Y,,,Y,4,4,E06000038,E02003389,E00082877,7,6.0,89.0,0.87062,0.0,7.1429,0.11555
1-129454063,2010-12-20,Y,26 St Barnabas Road,South East,Reading,Emmer Green,Reading,RG4 8RA,51.483584,-0.972861,Reading East,"Cannon, Andrew",,,Y,,,Y,,Y,,,Y,2,2,E06000038,E02003391,E00082901,6,6.0,100.0,0.60213,0.0,0.0,0.02566
1-129454079,2010-12-20,Y,2a & 2b Mayfair,South East,Reading,Tilehurst,Reading,RG30 4QY,51.455423,-1.044362,Reading West,"Cannon, Andrew",,,Y,,,Y,,,,,Y,1,1,E06000038,E02003397,E00083005,10,10.0,100.0,0.66718,,,
1-129459110,2010-12-20,Y,30 Richmond Road,South East,Reading,Caversham,Reading,RG4 7PR,51.477417,-0.988594,Reading East,"Cannon, Andrew",,,Y,,,Y,,Y,,,Y,0,0,E06000038,E02003390,E00082775,5,4.0,80.75406227925656,,,,
1-130113039,2010-11-25,Y,Parkside Care Home,South East,Reading,Parkside Road,Reading,RG30 2DP,51.448687,-0.998971,Reading West,"Pearson, Rebecca",Y,Y,,,,,,Y,Y,,Y,0,0,E06000038,E02003401,E00082792,75,64.0,85.70029995351881,,,,
1-131765052,2010-12-06,Y,Disabilities Trust - 29 Briants Avenue,South East,Reading,Caversham,Reading,RG4 5AY,51.466607,-0.959638,Reading East,"Bygrave, Anne",,,Y,,,Y,,,,,Y,3,3,E06000038,E02003392,E00082680,3,3.0,100.0,0.81304,0.0,0.0,0.32224
1-135824164,2011-01-21,Y,Navara Lodge,South East,Reading,1009 Oxford Road,Reading,RG31 6TL,51.47187,-1.032178,Reading West,*,,,Y,,,,,Y,,,,2,2,E06000038,E02003393,E00082771,18,18.0,97.0,0.9781,1.0,3.9284,0.01888
1-143388274,2011-01-18,Y,Quality Care Providers Limited,South East,Reading,51a Circuit Lane,Reading,RG30 3HB,51.444361,-1.007132,Reading West,"Odiase, Osarumen",,,Y,,,Y,Y,,Y,Y,Y,1,1,E06000038,E02003403,E00082963,6,5.0,83.0,0.55964,,,
1-159721778,2011-03-04,Y,Jasmine House Nursing Home,South East,Reading,16-22 Westcote Road,Reading,RG30 2DE,51.450124,-0.998695,Reading West,"Long, Lindsey",Y,Y,,,Y,,,Y,Y,,,0,0,E06000038,E02003401,E00082814,79,63.0,79.93909979548513,,,,
1-164474176,2011-04-11,Y,188 Whitley Wood Lane Respite Care,South East,Reading,188 Whitley Wood Lane,Reading,RG2 8PR,51.415445,-0.962798,Reading West,"Douglas, Seona",,,Y,,,Y,,,,,,3,3,E06000038,E02003406,E00083023,6,12.0,206.0,0.79561,9.0,145.6149,0.20508
1-249715904,2011-05-20,Y,Lakeside Residential Home,South East,Reading,25 Whiteknights Road,Reading,RG6 7BY,51.446258,-0.94243,Reading East,"Rodgers, Rachel",,,Y,,Y,,,Y,,,,5,5,E06000038,E02003400,E00082859,72,64.0,89.0,0.9775,5.0,6.4699,0.02269
1-288644364,2011-08-16,Y,Downshire House,South East,Reading,"9, Downshire Square",Reading,RG1 6NJ,51.450772,-0.988305,Reading West,"Clayton, Martin",,,Y,,Y,Y,Y,Y,Y,Y,Y,3,3,E06000038,E02003401,E00082783,8,8.0,96.0,0.9723,1.0,7.2169,0.0447
1-308276021,2011-09-13,Y,Life Care Corporation Limited,South East,Reading,29 Cressingham Road,Reading,RG2 7RU,51.432461,-0.954127,Reading East,"Ahluwalia, Satbir",,,Y,,Y,,,,,,,4,4,E06000038,E02003404,E00082713,41,29.0,71.0,0.86949,10.0,24.9031,0.07415
1-3778458021,2017-06-09,Y,Livability St Ronans Road,South East,Reading,34 St Ronans Road,Reading,RG30 2QE,51.456186,-1.010581,Reading West,"Percy, Jane",,,Y,,,Y,,Y,Y,,Y,1,1,E06000038,E02003396,E00082846,6,5.0,83.0,0.99908,,,
1-3883899011,2017-07-30,Y,River View Care Centre,South East,Reading,"Rodway Road, off Oxford Road",Reading,RG30 6TP,51.468644,-1.025068,Reading West,"Walsh, Paul",Y,Y,,,Y,,,Y,,,,1,1,E06000038,E02003394,E00082752,137,95.0,69.0,0.9984,,,
1-5379102145,2018-06-20,Y,Northcourt Lodge Nursing Home,South East,Reading,65 Northcourt Avenue,Reading,RG2 7HF,51.438063,-0.952129,Reading East,"Surdhar, Harbhajan",Y,Y,,,Y,,,Y,,,,3,3,E06000038,E02003404,E00174478,22,20.0,92.0,0.92594,1.0,5.2486,0.10607
1-676304226,2013-04-02,Y,Pembroke Lodge,South East,Reading,32 Alexandra Road,Reading,RG1 5PF,51.448902,-0.952471,Reading East,"D'Cruz, Charles",,,Y,,Y,,Y,Y,Y,Y,,3,3,E06000038,E02003400,E00082924,20,16.0,80.0,0.8059,2.0,8.6603,0.15704
1-704799928,2013-04-24,Y,Respite Service,South East,Reading,4 Alexandra Road,Reading,RG1 5PE,51.451199,-0.952965,Reading East,"Odiase, Osarumen",,,Y,,,Y,Y,,Y,Y,Y,2,2,E06000038,E02003402,E00082925,5,4.0,70.0,0.99372,2.0,42.4264,0.00545
1-7273940788,2019-08-02,Y,The Boltons,South East,Reading,2-4 College Road,Reading,RG6 1QD,51.451223,-0.942632,Reading East,"Giani, Sereena",,,Y,,,,Y,Y,,,,5,5,E06000038,E02003400,E00082856,27,23.0,84.0,0.92822,2.0,8.1144,0.07276
1-110047291,2011-02-03,Y,Oxford House Nursing Home,South East,Slough,204 Stoke Road,Slough,SL2 5AY,51.518757,-0.589032,Slough,*,Y,Y,,,Y,,,Y,,,,3,3,E06000039,E02007068,E00083129,34,29.0,84.0,0.95297,1.0,3.3962,0.05286
1-110236707,2011-01-18,Y,Reach,South East,Slough,1 Yew Tree Road,Slough,SL1 2AA,51.505856,-0.584175,Slough,"Shams, Abbas",,,Y,,,Y,,Y,,,,0,0,E06000039,E02003417,E00083364,8,8.0,97.078919576258,,,,
1-110236963,2011-01-18,Y,Reach Lower Cippenham Lane,South East,Slough,178 Lower Cippenham Lane,Slough,SL1 5EA,51.514893,-0.63889,Slough,"Shams, Abbas",,,Y,,,Y,,Y,,,,2,2,E06000039,E02003412,E00083159,12,12.0,96.0,0.73321,1.0,5.8926,0.2476
1-110237005,2011-01-18,Y,Reach Upton Court Road,South East,Slough,2A Upton Court Road,Slough,SL3 7LX,51.502471,-0.586755,Slough,"Shams, Abbas",,,Y,,,Y,,Y,,,,2,2,E06000039,E02003417,E00083375,8,6.0,75.0,0.66638,3.0,35.3553,0.33115
1-121788368,2011-03-09,Y,Seymour House,South East,Slough,"21, 23 & 25 Seymour Road",Slough,SL1 2NS,51.508804,-0.60969,Slough,"Sangha, Sharanjit",,,Y,,,Y,,,,,,2,2,E06000039,E02003415,E00083139,11,8.0,73.0,0.9568,1.0,12.8565,0.05853
1-139063281,2011-01-20,Y,Respond,South East,Slough,Respond Adult Respite Service,Slough,SL1 2BQ,51.504682,-0.588289,Slough,"Gadsby, Marc",,,Y,,,Y,,,,,,2,2,E06000039,E02003417,E00083375,8,3.0,38.0,0.68112,1.0,17.6777,0.3663
1-139063295,2011-01-20,Y,Lavender Court,South East,Slough,1 Priors Close,Slough,SL1 2BQ,51.504682,-0.588289,Slough,"Gadsby, Marc",,,Y,,,Y,,,,,,2,2,E06000039,E02003417,E00083375,8,7.0,88.0,0.94464,0.0,0.0,0.02545
1-139859086,2011-01-11,Y,Oak House,South East,Slough,Forest Close,Slough,SL2 4FA,51.527054,-0.577045,Slough,"Gilbert, Rachel",Y,Y,,,Y,Y,Y,Y,Y,,,2,2,E06000039,E02003411,E00166709,120,110.0,91.0,0.91233,1.0,0.5893,0.04076
1-1826599802,2014-12-11,Y,Common Road,South East,Slough,131 Common Road,Slough,SL3 8SX,51.495965,-0.540183,Slough,"Seery, Alex",,,Y,,,Y,,,,,Y,0,0,E06000039,E02003419,E00083275,1,1.0,96.47757563853128,,,,
1-2093458478,2016-01-22,Y,Stoke House,South East,Slough,6 Stoke Poges Lane,Slough,SL1 3NT,51.515441,-0.600463,Slough,"Randhawa, Balwinder",,,Y,,,Y,,,Y,,Y,3,3,E06000039,E02003410,E00166686,6,5.0,83.0,0.63712,1.0,16.6667,0.23039
1-213680635,2011-03-08,Y,Salt Hill Care Centre,South East,Slough,16-20 Bath Road,Slough,SL1 3SA,51.511204,-0.601097,Slough,"Ram, Mulkraj",Y,Y,,,Y,Y,Y,Y,Y,,,5,5,E06000039,E02003415,E00188546,53,47.0,89.0,0.94763,10.0,19.2416,0.01113
1-250931592,2011-07-01,Y,Langley Haven Care Home,South East,Slough,30 Rambler Lane,Slough,SL3 7RR,51.504264,-0.568576,Slough,"Dhalla, Salim",,,Y,,Y,,,Y,,,,2,2,E06000039,E02003418,E00083313,35,34.0,97.0,0.95941,0.0,0.0,0.01482
1-3541489936,2017-03-06,Y,Windsor Care Centre,South East,Slough,Burlington Avenue,Slough,SL1 2LD,51.509367,-0.600248,Slough,"Ram, Mulkraj",Y,Y,,,Y,,,,Y,,,3,3,E06000039,E02003415,E00166688,72,49.0,69.0,0.96719,15.0,21.3516,0.00157
1-3883899304,2017-07-30,Y,Windmill Care Centre,South East,Slough,104 Bath Road,Slough,SL1 3SY,51.512216,-0.60996,Slough,"Walsh, Paul",Y,Y,,,Y,,,Y,Y,Y,Y,4,4,E06000039,E02003415,E00166691,53,43.0,81.0,0.84239,2.0,3.5716,0.07159
1-5242639968,2018-05-18,Y,Applegarth Care Home,South East,Slough,24 Huntercombe Lane North,Maidenhead,SL6 0LG,51.52242,-0.659307,Slough,"Surdhar, Harbahjan",,,Y,,,,,Y,,,,1,1,E06000039,E02003409,E00083285,20,20.0,100.0,0.91117,,,
1-8343115974,2020-02-07,Y,Forget me not Residential Home,South East,Slough,151 Burnham Lane,Slough,SL1 6LA,51.527956,-0.651143,Slough,"Pell, Tania",,,Y,,Y,,,Y,,,,0,0,E06000039,E02003409,E00083300,16,15.0,92.37911888158712,,,,
1-10190518740,2021-01-27,Y,Ascot Grange,South East,Windsor and Maidenhead,Bagshot Road,Ascot,SL5 9PR,51.39533,-0.659557,Windsor,"Lindley, Sara",Y,Y,,,Y,,,Y,Y,Y,Y,2,2,E06000040,E02003438,E00083850,106,36.0,33.0,0.92374,11.0,10.0062,0.05432
1-10609926286,2021-03-30,Y,Ascot Grange,South East,Windsor and Maidenhead,Bagshot Road,Ascot,SL5 9PR,51.39533,-0.659557,Windsor,"Lindley, Sara",Y,Y,,,Y,,,Y,Y,Y,Y,2,2,E06000040,E02003438,E00083850,106,36.0,33.0,0.92374,11.0,10.0062,0.05432
1-108815172,2011-01-07,Y,Harwood House,South East,Windsor and Maidenhead,Spring Lane,Maidenhead,SL6 6PW,51.551152,-0.746515,Maidenhead,"Forsyth, Morag",Y,Y,,,,,,Y,,,,3,3,E06000040,E02003422,E00083466,35,26.0,75.0,0.86819,5.0,13.1966,0.09684
1-110420695,2010-11-25,Y,Nightingales Care Home,South East,Windsor and Maidenhead,Islet Road,Maidenhead,SL6 8LD,51.540677,-0.700314,Maidenhead,"Dix, Richelle",,,Y,,,,,Y,,,,4,4,E06000040,E02003424,E00083722,17,13.0,76.0,0.9581,1.0,6.7924,0.01597
1-111433909,2011-02-08,Y,The Cookham Riverside,South East,Windsor and Maidenhead,Berries Road,Maidenhead,SL6 9SD,51.561875,-0.710472,Maidenhead,"Edmondson, David",Y,Y,,,,,,Y,,,,5,5,E06000040,E02003422,E00083471,35,22.0,62.0,0.89683,12.0,33.782,0.03749
1-111440056,2011-01-05,Y,Foxleigh Grove Nursing Home,South East,Windsor and Maidenhead,Forest Green Road,Maidenhead,SL6 3LQ,51.483272,-0.728143,Maidenhead,*,Y,Y,,,,,,Y,Y,,,2,2,E06000040,E02003429,E00083521,39,35.0,90.0,0.86771,0.0,0.0,0.0
1-119240161,2010-11-24,Y,Winton House,South East,Windsor and Maidenhead,51 Dedworth Road,Windsor,SL4 5AZ,51.478705,-0.632981,Windsor,"Fevrier, Janet",,,Y,,,,,Y,,,,4,4,E06000040,E02003434,E00083559,36,24.0,68.0,0.92612,6.0,16.4336,0.04036
1-122256021,2010-12-08,Y,Bramerton,South East,Windsor and Maidenhead,Upper Bray Road,Maidenhead,SL6 2DB,51.501122,-0.703629,Maidenhead,"Prescott, Martin",,,Y,,,Y,,Y,,,Y,2,2,E06000040,E02003429,E00083512,11,11.0,100.0,0.97702,0.0,0.0,0.0
1-122256101,2010-12-08,Y,Fearnley House,South East,Windsor and Maidenhead,86 Straight Road,Old Windsor,SL4 2RX,51.458434,-0.579882,Windsor,"Prescott, Martin",,,Y,,,Y,,,,,,4,4,E06000040,E02003436,E00083744,4,4.0,94.0,0.99402,0.0,12.5,0.00955
1-122256129,2010-12-08,Y,Heronsmede,South East,Windsor and Maidenhead,88-90 Straight Road,Old Windsor,SL4 2RX,51.458434,-0.579882,Windsor,"Prescott, Martin",,,Y,,,Y,,,,,,1,1,E06000040,E02003436,E00083744,8,8.0,100.0,0.99811,,,
1-122256227,2010-12-08,Y,White House,South East,Windsor and Maidenhead,334 Horton Road,Datchet,SL3 9HY,51.475117,-0.560273,Windsor,"Prescott, Martin",,,Y,,,Y,,Y,,,Y,3,3,E06000040,E02003431,E00083641,9,8.0,89.0,0.80936,1.0,11.1111,0.22346
1-123045905,2010-12-31,Y,Eton House Residential Home,South East,Windsor and Maidenhead,68 Eton Road,Slough,SL3 9AY,51.489674,-0.585266,Windsor,*,,,Y,,Y,,,Y,,,Y,2,2,E06000040,E02003431,E00083627,26,25.0,96.0,0.85117,1.0,5.4393,0.07009
1-125661267,2010-12-06,Y,Larchfield House,South East,Windsor and Maidenhead,Larchfield Road,Maidenhead,SL6 2SJ,51.513572,-0.730412,Maidenhead,"Patel, Rohan",Y,Y,,,Y,,,Y,,,,4,4,E06000040,E02003424,E00083763,75,64.0,85.0,0.96638,11.0,14.707,0.02379
1-127818798,2010-10-01,Y,St Mark's Care Home,South East,Windsor and Maidenhead,110 St Marks Road,Maidenhead,SL6 6DN,51.524838,-0.741977,Maidenhead,"Pearson, Rebecca",Y,Y,,,Y,,,Y,Y,,,2,2,E06000040,E02003426,E00083439,80,72.0,89.0,0.95801,4.0,4.4194,0.02259
1-129459126,2010-12-20,Y,43 Station Road,South East,Windsor and Maidenhead,Wraysbury,Staines,TW19 5ND,51.458055,-0.551857,Windsor,"Cannon, Andrew",,,Y,,,Y,,,,,Y,6,6,E06000040,E02003431,E00083692,6,4.0,61.0,0.88712,1.0,8.6066,0.17879
1-129459236,2010-12-20,Y,Pinkneys Road,South East,Windsor and Maidenhead,87 Pinkneys Road,Maidenhead,SL6 5DT,51.528643,-0.757369,Maidenhead,"Cannon, Andrew",,,Y,,,Y,,,,,Y,5,5,E06000040,E02003421,E00083817,3,3.0,100.0,0.8866,0.0,0.0,0.2505
1-129460307,2010-12-20,Y,Edith Road (Tregona),South East,Windsor and Maidenhead,3 Edith Road,Maidenhead,SL6 5DY,51.52516,-0.757017,Maidenhead,"Cannon, Andrew",,,Y,,,Y,,,,,Y,3,3,E06000040,E02003426,E00083803,3,2.0,78.0,0.99577,1.0,19.245,0.00601
1-1317205051,2014-03-28,Y,Sandown Park Care Home,South East,Windsor and Maidenhead,61 Vale Road,Windsor,SL4 5JY,51.481357,-0.635424,Windsor,"Gidlow, Helen",Y,Y,,,Y,,,Y,,,Y,3,3,E06000040,E02003434,E00083571,95,56.0,59.0,0.80106,40.0,42.5025,0.18138
1-131765067,2010-12-06,Y,Disabilities Trust - 25 Welby Close,South East,Windsor and Maidenhead,25 Welby Close,Maidenhead,SL6 3PY,51.510688,-0.75584,Maidenhead,"Bygrave, Anne",,,Y,,,Y,,,,,Y,1,1,E06000040,E02003428,E00083623,3,2.0,67.0,0.99014,,,
1-132047058,2010-11-23,Y,Cherry Garden,South East,Windsor and Maidenhead,Breadcroft Lane,Maidenhead,SL6 3QF,51.508598,-0.77424,Maidenhead,"Tahalele, Raymond",Y,Y,,,Y,Y,,Y,Y,,Y,1,1,E06000040,E02003422,E00083709,36,24.0,67.0,0.98337,,,
1-139304678,2011-01-07,Y,White Lodge Care Home,South East,Windsor and Maidenhead,White Lodge,Marlow,SL7 1RP,51.565013,-0.772493,Maidenhead,"Ting, Roderick",,,Y,,Y,,,Y,Y,,,3,3,E06000040,E02003422,E00083457,23,15.0,64.0,0.97469,2.0,6.6414,0.0089
1-139851671,2011-01-11,Y,Clara Court,South East,Windsor and Maidenhead,21 Courthouse Road,Maidenhead,SL6 6JE,51.52103,-0.744993,Maidenhead,"Gilbert, Rachel",,,Y,,Y,Y,Y,Y,Y,,,1,1,E06000040,E02003426,E00083807,76,71.0,93.0,0.98831,,,
1-1805504103,2015-03-16,Y,Herewards House,South East,Windsor and Maidenhead,15 Ray Park Avenue,Maidenhead,SL6 8DP,51.525309,-0.705162,Maidenhead,"Rukunny, Bolah",,,Y,,Y,,,Y,,,,3,3,E06000040,E02003424,E00083735,27,16.0,60.0,0.84918,12.0,42.9268,0.12368
1-2019979352,2015-04-22,Y,Lynwood Care Centre,South East,Windsor and Maidenhead,Lynwood Court,Ascot,SL5 0FG,51.398421,-0.646888,Windsor,"Robinson, Stephen",Y,Y,,,Y,,,Y,Y,Y,Y,0,0,E06000040,E02003438,E00083830,102,77.0,75.6166874612003,,,,
1-2293960709,2016-04-12,Y,Meadowbank Residential Care Home,South East,Windsor and Maidenhead,44 Braywick Road,Maidenhead,SL6 1DA,51.514683,-0.719886,Maidenhead,"Cohen, Andrew",,,Y,,,,,Y,,,,1,1,E06000040,E02003424,E00083762,22,20.0,91.0,0.97871,,,
1-2945752530,2016-10-03,Y,Apple Hill,South East,Windsor and Maidenhead,Henley Road,Maidenhead,SL6 5LH,51.535538,-0.792227,Maidenhead,"Irandoust, David",Y,Y,,,,,Y,Y,,,Y,0,0,E06000040,E02003422,E00083455,42,42.0,99.88407028789352,,,,
1-303855439,2011-10-31,Y,The Manor Care Home,South East,Windsor and Maidenhead,Church Road,Old Windsor,SL4 2JW,51.462288,-0.573748,Windsor,"Smith, Pamela",Y,Y,,,Y,,Y,Y,Y,Y,,4,4,E06000040,E02003436,E00083750,65,52.0,79.0,0.65191,11.0,16.9696,0.11565
1-310243250,2011-10-31,Y,Larkland House,South East,Windsor and Maidenhead,London Road,Ascot,SL5 7EG,51.41132,-0.665273,Windsor,"Gilbert, Rachel",Y,Y,,,Y,,Y,Y,,,Y,4,4,E06000040,E02003437,E00083419,55,42.0,77.0,0.91805,9.0,16.8284,0.03838
1-3568827629,2017-04-03,Y,16 Homeside Close,South East,Windsor and Maidenhead,16 Homeside Close,Maidenhead,SL6 7RB,51.537157,-0.72954,Maidenhead,"Woodland, Helen",,,Y,,,Y,,Y,Y,,Y,2,2,E06000040,E02003423,E00083667,8,8.0,100.0,0.9554,0.0,0.0,0.05655
1-3568827835,2017-04-03,Y,5 Winston Court,South East,Windsor and Maidenhead,5 Winston Court,Maidenhead,SL6 5HU,51.530253,-0.753101,Maidenhead,"Woodland, Helen",,,Y,,,Y,,Y,Y,,Y,2,2,E06000040,E02003423,E00083797,8,8.0,94.0,0.9979,1.0,8.8388,0.00029
1-3568827921,2017-04-03,Y,9 Allenby Road,South East,Windsor and Maidenhead,9 Allenby Road,Maidenhead,SL6 5BF,51.52156,-0.746344,Maidenhead,"Woodland, Helen",Y,Y,,,,Y,,Y,Y,,Y,2,2,E06000040,E02003426,E00083807,4,3.0,75.0,0.93404,1.0,35.3553,0.00385
1-398173699,2012-03-21,Y,Boulters Lock Residential Home,South East,Windsor and Maidenhead,56 Sheephouse Road,Maidenhead,SL6 8HP,51.541991,-0.704473,Maidenhead,"Jones, Emma",,,Y,,Y,,,Y,,,,3,3,E06000040,E02003424,E00083721,32,30.0,95.0,0.93347,1.0,1.8042,0.03491
1-4521893781,2017-12-29,Y,Queens Court,South East,Windsor and Maidenhead,1 Dedworth Road,Windsor,SL4 5AZ,51.478705,-0.632981,Windsor,"Gilbert, Rachel",Y,Y,Y,,,,,Y,,,,4,4,E06000040,E02003434,E00083559,62,50.0,81.0,0.95556,7.0,11.3669,0.03996
1-5815021531,2018-10-12,Y,Gracewell of Ascot,South East,Windsor and Maidenhead,Burleigh Road,Ascot,SL5 7LD,51.415357,-0.686787,Windsor,"Macdonald, Natalie-Jane",Y,Y,,,Y,,,Y,Y,Y,Y,1,1,E06000040,E02003437,E00083417,80,29.0,36.0,0.94522,,,
1-6060209835,2018-11-22,Y,Mountbatten Grange,South East,Windsor and Maidenhead,Helston Lane,Windsor,SL4 5GG,51.481082,-0.624787,Windsor,"Gilbert, Rachel",Y,Y,,,Y,,Y,Y,Y,,Y,1,1,E06000040,E02003432,E00083563,72,38.0,53.0,0.53382,,,
1-7609094255,2019-10-04,Y,Normanhurst Residential Home,South East,Windsor and Maidenhead,26 High Town Road,Maidenhead,SL6 1PB,51.521232,-0.726985,Maidenhead,"Heeroo, Adam",,,Y,,Y,,,Y,,,Y,2,2,E06000040,E02003425,E00083476,23,18.0,78.0,0.76392,1.0,6.1488,0.1545
1-7726761205,2019-11-08,Y,Gracewell of Ascot,South East,Windsor and Maidenhead,Burleigh Road,Ascot,SL5 7LD,51.415357,-0.686787,Windsor,"Macdonald, Natalie-Jane",Y,Y,,,Y,,,Y,Y,Y,Y,1,1,E06000040,E02003437,E00083417,80,29.0,36.0,0.94522,,,
1-786963811,2013-07-04,Y,Dormy House,South East,Windsor and Maidenhead,Ridgemount Road,Ascot,SL5 9RL,51.388047,-0.632391,Windsor,"Fletcher, Tracey",Y,Y,,,Y,,,Y,,,,1,1,E06000040,E02003438,E00083824,88,63.0,72.0,0.87127,,,
1-824774375,2013-07-17,Y,Longlea Nursing Home,South East,Windsor and Maidenhead,Fifield Road,Maidenhead,SL6 2PG,51.485995,-0.691297,Maidenhead,"Atkinson, Rowen",Y,Y,,,,,,Y,,,,3,3,E06000040,E02003429,E00083513,22,19.0,88.0,0.80811,1.0,2.6243,0.14893
1-8686823721,2020-04-07,Y,"Holiday Inn, Maidenhead",South East,Windsor and Maidenhead,Manor Lane,Maidenhead,SL6 2RA,51.508596,-0.732553,Maidenhead,"Patel, Rohan",Y,Y,,,Y,,,Y,Y,,Y,0,0,E06000040,E02003427,E00083757,80,75.0,94.20429303434608,,,,
1-108600680,2010-11-26,Y,Lynden Hill Clinic,South East,Wokingham,Linden Hill Lane,Reading,RG10 9XP,51.50266,-0.830244,Maidenhead,"Ikin, Anne",Y,Y,,,,,,Y,Y,,Y,4,4,E06000041,E02003439,E00084172,28,13.0,46.0,0.80556,9.0,31.542,0.1224
1-108630838,2010-11-26,Y,Warren Lodge Care Centre,South East,Wokingham,Warren Lodge,Finchampstead,RG40 4HR,51.374034,-0.867273,Bracknell,"Willis-Read, Rosamunde",,,Y,,Y,,,Y,Y,,,5,5,E06000041,E02003456,E00084004,55,34.0,63.0,0.78731,13.0,24.278,0.13489
1-1089103965,2014-01-03,Y,Belamie Gables Care Home,South East,Wokingham,210 Hyde End Road,Reading,RG7 1DG,51.3936,-0.961452,Wokingham,"Heeroo, Naushad",,,Y,,Y,,,Y,,,Y,3,3,E06000041,E02003455,E00188493,20,13.0,65.0,0.95594,2.0,10.0,0.04347
1-115894593,2011-01-20,Y,Valerie's Residential Care Home,South East,Wokingham,20 Ravenswood Avenue,Crowthorne,RG45 6AY,51.369323,-0.817339,Bracknell,"Govind, Shafiq",,,Y,,,,,Y,,,,0,0,E06000041,E02003458,E00084302,17,13.0,76.02366237762648,,,,
1-115904999,2011-01-18,Y,Lovat House,South East,Wokingham,6 Crescent Road,Wokingham,RG40 2DB,51.408169,-0.830801,Wokingham,*,,,Y,,,,,Y,,,,3,3,E06000041,E02003451,E00084270,26,21.0,79.0,0.90872,4.0,16.0128,0.01592
1-117125612,2010-11-04,Y,Staverton,South East,Wokingham,25 Murdoch Road,Wokingham,RG40 2DQ,51.407088,-0.826099,Wokingham,"Gent, Linda",,,Y,,,Y,,,,,Y,3,3,E06000041,E02003452,E00084268,14,13.0,93.0,0.96163,0.0,0.0,0.01863
1-117125629,2010-11-04,Y,Ashton,South East,Wokingham,38 Sarum Crescent,Wokingham,RG40 1XF,51.417663,-0.826961,Wokingham,"Gent, Linda",,,Y,,,Y,,,,,Y,5,5,E06000041,E02003451,E00084144,3,2.0,73.0,0.95746,0.0,14.9071,0.03799
1-119117787,2010-12-16,Y,Beech Gardens,South East,Wokingham,Salmond Road,Reading,RG2 8QN,51.414012,-0.959394,Wokingham,"Stevens, Christopher",,,Y,,,Y,,,,,Y,4,4,E06000041,E02003450,E00084186,8,7.0,88.0,0.85898,0.0,0.0,0.18044
1-123927254,2010-12-20,Y,Copper Beech,South East,Wokingham,Ravenswood Village,Crowthorne,RG45 6BQ,51.376322,-0.817633,Bracknell,"Jacobson, Beverly",,,Y,,Y,Y,,Y,,Y,,3,3,E06000041,E02003458,E00084316,4,3.0,83.0,0.93761,1.0,14.4338,0.05531
1-123927270,2010-12-20,Y,Tova,South East,Wokingham,Ravenswood Village,Crowthorne,RG45 6BQ,51.376322,-0.817633,Bracknell,"Jacobson, Beverly",,,Y,,,Y,,,,,,3,3,E06000041,E02003458,E00084316,8,6.0,79.0,0.87166,1.0,7.2169,0.15807
1-123927283,2010-12-20,Y,The Farm House,South East,Wokingham,Ravenswood Village,Crowthorne,RG45 6BQ,51.376322,-0.817633,Bracknell,"Jacobson, Beverly",,,Y,,,Y,,,,,,2,2,E06000041,E02003458,E00084316,8,8.0,94.0,0.74017,1.0,8.8388,0.2553
1-123927296,2010-12-20,Y,The Green,South East,Wokingham,Ravenswood Village,Crowthorne,RG45 6BQ,51.376322,-0.817633,Bracknell,"Jacobson, Beverly",,,Y,,,Y,,,,,,2,2,E06000041,E02003458,E00084316,15,12.0,83.0,0.87684,1.0,4.714,0.02676
1-123927309,2010-12-20,Y,The Tager Centre,South East,Wokingham,Ravenswood Village,Crowthorne,RG45 6BQ,51.376322,-0.817633,Bracknell,"Jacobson, Beverly",,,Y,,,Y,,,,Y,,2,2,E06000041,E02003458,E00084316,16,16.0,100.0,0.98738,0.0,0.0,0.0
1-123927323,2010-12-20,Y,Pamela Barnett,South East,Wokingham,Ravenswood Village,Crowthorne,RG45 6BQ,51.376322,-0.817633,Bracknell,"Jacobson, Beverly",,,Y,,,Y,,,,,,3,3,E06000041,E02003458,E00084316,16,19.0,121.0,0.81565,1.0,3.6084,0.02412
1-123927336,2010-12-20,Y,The Orchard,South East,Wokingham,Ravenswood Village,Crowthorne,RG45 6BQ,51.376322,-0.817633,Bracknell,"Jacobson, Beverly",,,Y,,,Y,,,,,,3,3,E06000041,E02003458,E00084316,10,9.0,90.0,0.8241,1.0,10.0,0.27634
1-123927349,2010-12-20,Y,The Firs,South East,Wokingham,Ravenswood Village,Crowthorne,RG45 6BQ,51.376322,-0.817633,Bracknell,"Jacobson, Beverly",,,Y,,Y,Y,,Y,Y,Y,,4,4,E06000041,E02003458,E00084316,10,9.0,90.0,0.9623,0.0,0.0,0.043
1-123927366,2010-12-20,Y,Eretz,South East,Wokingham,Ravenswood Village,Crowthorne,RG45 6BQ,51.376322,-0.817633,Bracknell,"Jacobson, Beverly",,,Y,,Y,Y,,Y,Y,Y,,3,3,E06000041,E02003458,E00084316,10,8.0,83.0,0.88596,1.0,11.547,0.06015
1-123927384,2010-12-20,Y,The Elms,South East,Wokingham,Ravenswood Village,Crowthorne,RG45 6BQ,51.376322,-0.817633,Bracknell,"Jacobson, Beverly",,,Y,,,Y,,,,,,3,3,E06000041,E02003458,E00084316,10,9.0,93.0,0.92385,1.0,5.7735,0.04085
1-123927398,2010-12-20,Y,Kadimah,South East,Wokingham,Ravenswood Village,Crowthorne,RG45 6BQ,51.376322,-0.817633,Bracknell,"Jacobson, Beverly",,,Y,,Y,Y,,Y,Y,Y,,3,3,E06000041,E02003458,E00084316,11,10.0,88.0,0.82125,1.0,10.4973,0.22057
1-123927415,2010-12-20,Y,Tikvah Woodpeckers,South East,Wokingham,Ravenswood Village,Crowthorne,RG45 6BQ,51.376322,-0.817633,Bracknell,"Jacobson, Beverly",,,Y,,,Y,,,Y,Y,,4,4,E06000041,E02003458,E00084316,8,8.0,94.0,0.94592,1.0,7.2169,0.02421
1-125862259,2011-02-15,Y,Austen House,South East,Wokingham,Kilnsea Drive,Reading,RG6 3UJ,51.427392,-0.909955,Wokingham,"O'Reilly, Michael",Y,Y,,,Y,,,Y,,,,5,5,E06000041,E02003447,E00167046,79,68.0,86.0,0.88713,8.0,9.8864,0.06102
1-125862984,2011-02-15,Y,West Oak,South East,Wokingham,Murray Road,Wokingham,RG41 2TA,51.41216,-0.848861,Wokingham,"O'Reilly, Michael",Y,Y,,,Y,,,Y,,,,2,2,E06000041,E02003454,E00083943,63,54.0,87.0,0.95482,9.0,14.5911,0.01951
1-129453905,2010-12-20,Y,1 Longmore Road,South East,Wokingham,Whitley Wood,Reading,RG2 8QG,51.41332,-0.956447,Wokingham,"Cannon, Andrew",,,Y,,,Y,,,,,Y,1,1,E06000041,E02003450,E00084186,7,6.0,86.0,0.99908,,,
1-129459299,2010-12-20,Y,Cornerways,South East,Wokingham,32 Arbor Lane,Wokingham,RG41 5JD,51.434266,-0.880789,Wokingham,"Cannon, Andrew",,,Y,,,Y,,,,,Y,2,2,E06000041,E02003447,E00084299,8,8.0,106.0,0.98322,1.0,8.8388,0.02244
1-129460277,2010-12-20,Y,Rookery Cottage,South East,Wokingham,249 Shinfield Road,Reading,RG2 8HE,51.426125,-0.946356,Wokingham,"Cannon, Andrew",,,Y,,,Y,,,,,Y,4,4,E06000041,E02003450,E00084187,6,6.0,96.0,0.87597,0.0,8.3333,0.14464
1-129460447,2010-12-20,Y,Beech House,South East,Wokingham,49 Crockhamwell Road,Wokingham,RG5 3JY,51.451063,-0.906556,Reading East,"Cannon, Andrew",,,Y,,,Y,,,,,Y,1,1,E06000041,E02003445,E00084226,6,6.0,100.0,0.99908,,,
1-132302136,2010-11-26,Y,Multi-Care (Reading) Limited - 375 Old Whitley Wood Lane,South East,Wokingham,375 Old Whitley Wood Lane,Reading,RG2 8PY,51.412781,-0.960587,Wokingham,"Welton, Stephen",,,Y,,,Y,,,,,,3,3,E06000041,E02003450,E00084186,4,4.0,100.0,0.88605,0.0,0.0,0.0924
1-133442325,2010-11-25,Y,Magnolia Lodge,South East,Wokingham,42 Hollow Lane,Shinfield,RG2 9BT,51.409976,-0.9485,Wokingham,"Spurling, Julian",,,Y,,,Y,,,Y,,,2,2,E06000041,E02003450,E00167029,10,6.0,60.0,0.99806,4.0,42.4264,0.0
1-139941329,2010-12-23,Y,Bridge House Nursing Home,South East,Wokingham,64 High Street,Twyford,RG10 9AQ,51.477849,-0.870214,Maidenhead,"Sheikh, Amar",Y,Y,,,Y,,,Y,Y,Y,,5,5,E06000041,E02003440,E00084257,54,35.0,64.0,0.80742,5.0,10.024,0.14697
1-1456915719,2014-06-23,Y,The Mount Care Home,South East,Wokingham,School Hill,Reading,RG10 8DY,51.498985,-0.86438,Maidenhead,"Boxall, Angela",Y,Y,,,Y,,,Y,,,,3,3,E06000041,E02003439,E00084170,37,28.0,75.0,0.94911,8.0,20.9931,0.03821
1-199171458,2011-04-13,Y,Alexandra Grange,South East,Wokingham,Oaklands Drive,Wokingham,RG41 2RU,51.405434,-0.846998,Wokingham,"Brown, Aneurin",,,Y,,Y,,,Y,,,,0,0,E06000041,E02003454,E00083966,58,51.0,88.37888224799148,,,,
1-2063320339,2015-05-14,Y,Hilltop House,South East,Wokingham,30 Hilltop Road,Reading,RG10 9BN,51.485943,-0.86312,Maidenhead,"Rukunny, Bolah",,,Y,,,,Y,Y,,,Y,3,3,E06000041,E02003440,E00084250,8,7.0,92.0,0.81265,1.0,7.2169,0.3223
1-2454623784,2016-08-02,Y,Woodbury House,South East,Wokingham,Jouldings Lane,Reading,RG7 1UR,51.369823,-0.914569,Wokingham,"Southall, Natasha",Y,Y,,,Y,,,Y,,,Y,4,4,E06000041,E02003455,E00084232,45,33.0,74.0,0.84705,4.0,10.0,0.12424
1-2454695393,2016-08-02,Y,The Berkshire Care Home,South East,Wokingham,126 Barkham Road,Wokingham,RG41 2RP,51.406213,-0.852202,Wokingham,"Southall, Natasha",Y,Y,,,,,,Y,,,,8,8,E06000041,E02003454,E00083963,58,39.0,67.0,0.96199,8.0,13.7314,0.02272
1-2517056445,2016-04-04,Y,Shinfield View Care Home,South East,Wokingham,"Hyde End Road, Shinfield Green",Reading,RG2 9EH,51.404885,-0.94636,Wokingham,"Tanner, Amanda",,,Y,,Y,,,Y,Y,Y,Y,3,3,E06000041,E02003450,E00084203,66,54.0,82.0,0.84361,12.0,17.8634,0.09035
1-254273537,2011-06-06,Y,Suffolk Lodge,South East,Wokingham,18 Rectory Road,Reading,RG40 1DH,51.412692,-0.835302,Wokingham,"Woodland, Helen",,,Y,,Y,,,Y,Y,,,5,5,E06000041,E02003451,E00084135,40,27.0,67.0,0.9238,5.0,13.0384,0.07983
1-2798742893,2016-08-03,Y,Abbeyfield Winnersh,South East,Wokingham,Woodward Close,Wokingham,RG41 5NW,51.427304,-0.872008,Wokingham,"Garrett, Lesley",,,Y,,Y,,,Y,,,Y,3,3,E06000041,E02003448,E00084294,62,41.0,66.0,0.89494,5.0,8.3809,0.0152
1-2829715799,2016-10-11,Y,Lord Harris Court,South East,Wokingham,Mole Road,Wokingham,RG41 5EA,51.423092,-0.888627,Wokingham,"Salley, Karen",Y,Y,,,Y,,,Y,,,Y,2,2,E06000041,E02003447,E00188474,76,45.0,59.0,0.939,54.0,70.7107,0.02859
1-304025767,2011-11-04,Y,Murdoch House,South East,Wokingham,1 Murdoch Road,Wokingham,RG40 2DL,51.406954,-0.831566,Wokingham,"Southall, Natasha",,,Y,,,,,Y,,,,4,4,E06000041,E02003454,E00084273,27,22.0,82.0,0.83619,2.0,9.2593,0.25306
1-3159470838,2017-01-03,Y,Sunrise of Sonning,South East,Wokingham,Old Bath Road,Reading,RG4 6TQ,51.468302,-0.901883,Maidenhead,"Macdonald, Natalie-Jane",Y,Y,,,Y,,,Y,,,,2,2,E06000041,E02003441,E00084204,103,77.0,75.0,0.81423,14.0,13.7302,0.09457
1-353430818,2012-01-04,Y,Dimensions Brambletye New Mill Road,South East,Wokingham,Brambletye,Wokingham,RG40 4QT,51.361845,-0.899714,Bracknell,"Dodgson, Rachael",,,Y,,,Y,,,,,,4,4,E06000041,E02003456,E00084008,5,4.0,75.0,0.89266,0.0,10.0,0.07494
1-353687728,2012-01-04,Y,Dimensions 2 Dunstans Drive,South East,Wokingham,2 Dunstans Drive,Wokingham,RG41 5EB,51.429156,-0.884294,Wokingham,"Dodgson, Rachael",,,Y,,,Y,,,,,,3,3,E06000041,E02003447,E00188415,4,4.0,100.0,0.94035,0.0,0.0,0.02418
1-353688117,2012-01-04,Y,Dimensions Loddon Court 289 Wokingham Road,South East,Wokingham,289 Wokingham Road,Reading,RG6 7ER,51.440248,-0.919361,Wokingham,"Dodgson, Rachael",,,Y,,,Y,,,,,,3,3,E06000041,E02003444,E00084111,8,3.0,42.0,0.71378,2.0,19.0941,0.23182
1-353712634,2012-01-04,Y,Dimensions 95 New Wokingham Road,South East,Wokingham,95 New Wokingham Road,Crowthorne,RG45 6JN,51.375039,-0.804649,Bracknell,"Dodgson, Rachael",,,Y,,,Y,,,,,,4,4,E06000041,E02003458,E00084322,4,3.0,81.0,0.91712,1.0,23.9357,0.04363
1-353801949,2012-01-04,Y,Dimensions Parrot Farmhouse Arborfield Road,South East,Wokingham,Parrot Farm,Reading,RG2 9EA,51.405047,-0.941189,Wokingham,"Dodgson, Rachael",,,Y,,,Y,,,,,,5,5,E06000041,E02003450,E00188536,8,6.0,75.0,0.85798,0.0,0.0,0.0875
1-353843427,2012-01-04,Y,Dimensions 6 Sadlers Lane,South East,Wokingham,6 Sadlers Lane,Wokingham,RG41 5AJ,51.422853,-0.868277,Wokingham,"Dodgson, Rachael",,,Y,,,Y,,,,,,4,4,E06000041,E02003448,E00084297,4,4.0,94.0,0.92685,0.0,12.5,0.00711
1-353844191,2012-01-04,Y,Dimensions Woodmere Lower Wokingham Road,South East,Wokingham,Woodmere,Crowthorne,RG45 6BT,51.368135,-0.823504,Bracknell,"Dodgson, Rachael",,,Y,,,Y,,,,,,3,3,E06000041,E02003457,E00084006,6,5.0,89.0,0.92684,1.0,9.6225,0.06296
1-3873974825,2017-08-01,Y,Sunrise of Sonning,South East,Wokingham,Old Bath Road,Reading,RG4 6TQ,51.468302,-0.901883,Maidenhead,"Macdonald, Natalie-Jane",Y,Y,,,Y,,,Y,,,,2,2,E06000041,E02003441,E00084204,103,77.0,75.0,0.81423,14.0,13.7302,0.09457
1-3915272624,2017-06-27,Y,Glebelands House,South East,Wokingham,Glebeland House,Wokingham,RG40 1DU,51.416626,-0.837575,Wokingham,"Clarges, Julie",Y,Y,,,Y,,Y,Y,Y,Y,,2,2,E06000041,E02003451,E00084135,42,40.0,94.0,0.90022,2.0,5.0508,0.0485
1-4009018254,2017-08-25,Y,Thamesfield Nursing Home,South East,Wokingham,Wargrave Road,Henley On Thames,RG9 2LX,51.535598,-0.896314,Maidenhead,"Hall, Antony",Y,Y,,,Y,,,Y,,,,3,3,E06000041,E02003439,E00084160,12,10.0,83.0,0.87709,3.0,22.0479,0.15639
1-409054934,2012-05-01,Y,Down Lodge Residential Care Home,South East,Wokingham,11 Sturges Road,Wokingham,RG40 2HG,51.408281,-0.829429,Wokingham,"Elliott, Vaida",,,Y,,,,,Y,,,,3,3,E06000041,E02003454,E00084273,16,13.0,83.0,0.9184,2.0,9.547,0.09011
1-5492830136,2018-07-18,Y,Wild Acres Care Home,South East,Wokingham,440 Finchampstead Road,Wokingham,RG40 3RB,51.376328,-0.856308,Bracknell,"Surdhar, Harbhajan",,,Y,,Y,,,Y,Y,Y,,3,3,E06000041,E02003457,E00084003,26,26.0,99.0,0.82176,1.0,4.4412,0.08538
1-9199519760,2020-07-13,Y,Parsons Grange,South East,Wokingham,Westall Street,Reading,RG2 9AU,51.403708,-0.949328,Wokingham,"Gilbert, Rachel",Y,Y,,,Y,,,Y,Y,,Y,3,3,E06000041,E02003450,E00188417,68,32.0,47.0,0.84649,19.0,28.0185,0.15205
1-108509622,2010-11-26,Y,Bay House,South East,Milton Keynes,31 Weston Road,Olney,MK46 5BD,52.152085,-0.704116,Milton Keynes North,"Sahdev, Ashok",,,Y,,Y,,,Y,,,,5,5,E06000042,E02003459,E00084748,24,15.0,61.0,0.72577,1.0,5.5902,0.16456
1-114227509,2011-02-03,Y,Mallard House Neurological Care Centre,South East,Milton Keynes,2 Dunthorne Way,Milton Keynes,MK8 0DZ,52.023604,-0.809111,Milton Keynes South,"Butler, Mark",Y,Y,,,Y,,,Y,,,Y,2,2,E06000042,E02007015,E00175504,55,48.0,86.0,0.77657,2.0,3.8569,0.25621
1-114227566,2011-02-03,Y,Bluebirds Neurological Care Centre,South East,Milton Keynes,Faraday Drive,Milton Keynes,MK5 7FY,52.017794,-0.772994,Milton Keynes South,"Butler, Mark",Y,Y,,,Y,,,Y,,,Y,3,3,E06000042,E02003484,E00084546,25,24.0,95.0,0.84214,2.0,6.1101,0.10715
1-115243317,2010-11-23,Y,Devon Lodge Residential Home,South East,Milton Keynes,18 Theydon Avenue,Milton Keynes,MK17 8PL,52.013654,-0.650124,Milton Keynes South,"Fellows, Elizabeth",,,Y,,,,,Y,,,,1,1,E06000042,E02003482,E00084457,26,22.0,85.0,0.68584,,,
1-115544264,2011-01-19,Y,ABI Homes - Oxley Park,South East,Milton Keynes,141 Harlow Crescent,Milton Keynes,MK4 4EP,52.004034,-0.807736,Milton Keynes South,"Cawley, Fergal",,,Y,,,Y,,,,,,0,0,E06000042,E02003483,E00175471,2,2.0,98.38527829349404,,,,
1-115544280,2011-01-19,Y,ABI Homes - Tolcarne Avenue,South East,Milton Keynes,60 Tolcarne Avenue,Milton Keynes,MK6 2SS,52.036855,-0.740559,Milton Keynes North,"Cawley, Fergal",,,Y,,,Y,,,,,,0,0,E06000042,E02003476,E00084432,3,2.0,82.70326840181939,,,,
1-115544294,2011-01-19,Y,ABI Homes - Dyers Mews,South East,Milton Keynes,34 Dyers Mews,Milton Keynes,MK14 6ER,52.056246,-0.752178,Milton Keynes North,"Cawley, Fergal",,,Y,,,Y,,,,,,0,0,E06000042,E02003467,E00084613,6,5.0,86.57313967339118,,,,
1-117976867,2010-12-22,Y,Westbury Grange,South East,Milton Keynes,Westbury Lane,Newport Pagnell,MK16 8JA,52.086791,-0.73714,Milton Keynes North,"Ryan, Daniel",Y,Y,,,Y,,,Y,,,Y,3,3,E06000042,E02003461,E00084691,45,44.0,97.0,0.92653,2.0,3.3945,0.0666
1-119126100,2011-03-23,Y,Marley Grove,South East,Milton Keynes,6 Marley Grove,Milton Keynes,MK8 0AT,52.026961,-0.801472,Milton Keynes South,"Burslem, Sarah",,,Y,,,Y,,,,,,1,1,E06000042,E02007016,E00084662,7,9.0,129.0,0.51211,,,
1-119126114,2011-03-23,Y,Monro Avenue,South East,Milton Keynes,54 Monro Avenue,Milton Keynes,MK8 0BL,52.025974,-0.804267,Milton Keynes South,"Burslem, Sarah",,,Y,,,Y,,,,,,1,1,E06000042,E02007016,E00084664,14,14.0,100.0,0.92734,,,
1-119126212,2011-03-23,Y,Daubeney Gate,South East,Milton Keynes,1a Daubeney Gate,Milton Keynes,MK5 6EH,52.024259,-0.796618,Milton Keynes South,"Burslem, Sarah",,,Y,,,Y,,,,,,1,1,E06000042,E02007016,E00183431,6,6.0,100.0,0.99908,,,
1-119126282,2011-03-23,Y,42a Haddon,South East,Milton Keynes,Great Holm,Milton Keynes,MK8 9HP,52.031658,-0.792886,Milton Keynes South,"Burslem, Sarah",,,Y,,,Y,,,,,,2,2,E06000042,E02003478,E00084644,40,40.0,99.0,0.93984,1.0,1.7678,0.04124
1-119765116,2011-01-17,Y,Parklands Nursing Home,South East,Milton Keynes,33 Newport Road,Milton Keynes,MK15 0AA,52.040082,-0.726932,Milton Keynes North,*,Y,Y,,,Y,,Y,Y,Y,,,7,7,E06000042,E02003474,E00084429,30,21.0,69.0,0.84191,5.0,16.7616,0.14377
1-121567310,2010-12-07,Y,Tickford Abbey,South East,Milton Keynes,Priory Street,Newport Pagnell,MK16 9AJ,52.087473,-0.712979,Milton Keynes North,"Clarges, Julie",,,Y,,Y,,,Y,Y,,,5,5,E06000042,E02003462,E00175412,32,27.0,86.0,0.94825,2.0,5.6768,0.06266
1-122499908,2011-01-27,Y,Waterhall Care Home,South East,Milton Keynes,Fern Grove,Milton Keynes,MK2 3QH,51.979909,-0.72598,Milton Keynes South,"Blease, Jackie",Y,Y,,,Y,,,Y,,,,4,4,E06000042,E02003490,E00084501,56,48.0,86.0,0.87446,5.0,9.5609,0.10345
1-122845021,2010-12-13,Y,Neath Hill Care Home,South East,Milton Keynes,Currier Drive,Milton Keynes,MK14 6NS,52.060988,-0.751681,Milton Keynes North,"Blease, Jackie",,,Y,,Y,,,Y,,,Y,3,3,E06000042,E02003463,E00084626,47,45.0,96.0,0.93096,2.0,3.2501,0.03691
1-122845227,2010-12-03,Y,Dovecote Manor Care Home,South East,Milton Keynes,Dovecote Manor,Milton Keynes,MK3 6EN,51.997414,-0.747638,Milton Keynes South,"Blease, Jackie",Y,,Y,,Y,,,Y,,,,4,4,E06000042,E02003489,E00175379,41,38.0,91.0,0.85979,3.0,8.3309,0.14112
1-124725658,2011-01-21,Y,The Willows Care Home,South East,Milton Keynes,Heathercroft,Milton Keynes,MK14 5EG,52.063732,-0.757761,Milton Keynes North,"Blease, Jackie",Y,Y,,,Y,,,Y,,,Y,4,4,E06000042,E02003467,E00084583,130,114.0,87.0,0.99881,1.0,0.9931,0.00223
1-124968705,2010-11-30,Y,Castlemead Court Care Home,South East,Milton Keynes,Wolverton Road,Milton Keynes,MK16 8HW,52.085755,-0.729477,Milton Keynes North,"Blease, Jackie",Y,Y,,,Y,,,Y,,,Y,4,4,E06000042,E02003461,E00084698,79,75.0,95.0,0.88675,3.0,3.6358,0.08
1-125862103,2011-02-15,Y,Ashby House - Milton Keynes,South East,Milton Keynes,100 Chadwick Drive,Milton Keynes,MK6 5LS,52.0279,-0.740592,Milton Keynes South,"O'Reilly, Michael",Y,Y,,,Y,,,Y,,,Y,5,5,E06000042,E02003476,E00084973,64,54.0,85.0,0.86232,4.0,5.6983,0.10853
1-126824502,2010-12-23,Y,Burlington Hall Care Home,South East,Milton Keynes,9 Station Road,Woburn Sands,MK17 8RR,52.013372,-0.64751,Milton Keynes South,"Hanspaul, Sutinder",,,Y,,Y,,,Y,,,,5,5,E06000042,E02003482,E00084454,53,49.0,92.0,0.86095,1.0,1.6876,0.1305
1-127549009,2010-11-26,Y,Thurston House,South East,Milton Keynes,90 High Street,Newport Pagnell,MK16 8EH,52.085798,-0.727593,Milton Keynes North,"Heginbotham, Martyn",,,Y,,,Y,,,,,,3,3,E06000042,E02003462,E00084733,7,5.0,76.0,0.98762,2.0,29.7381,0.01985
1-1304954568,2014-03-14,Y,Park House,South East,Milton Keynes,Tyringham,Newport Pagnell,MK16 9ES,52.118506,-0.75101,Milton Keynes North,"Broadway, Gillian",,,Y,,Y,,,Y,Y,Y,,3,3,E06000042,E02003460,E00084782,35,23.0,67.0,0.84101,1.0,1.6496,0.12466
1-131764809,2010-12-06,Y,Disabilities Trust - 49 Stolford Rise,South East,Milton Keynes,Tattenhoe,Milton Keynes,MK4 3DW,51.999108,-0.784022,Milton Keynes South,"Bygrave, Anne",,,Y,,,Y,,,,,Y,2,2,E06000042,E02003486,E00084511,3,3.0,100.0,0.90875,0.0,0.0,0.12638
1-131764839,2010-12-06,Y,Disabilities Trust - 52 Porthcawl Green,South East,Milton Keynes,Tattenhoe,Milton Keynes,MK4 3AL,51.99763,-0.775031,Milton Keynes South,"Bygrave, Anne",,,Y,,,Y,,,,,Y,2,2,E06000042,E02003486,E00084529,3,3.0,100.0,0.78815,0.0,0.0,0.15894
1-131764946,2010-12-06,Y,Disabilities Trust - 9 Twyford Lane,South East,Milton Keynes,Brownswood,Milton Keynes,MK7 8DE,52.015914,-0.687798,Milton Keynes South,"Bygrave, Anne",,,Y,,,,,,,,Y,3,3,E06000042,E02003480,E00084868,9,8.0,85.0,0.86798,2.0,16.9725,0.12008
1-133442353,2010-11-25,Y,Normandy House,South East,Milton Keynes,2 Laser Close,Milton Keynes,MK5 7AZ,52.021124,-0.775074,Milton Keynes South,"Spurling, Julian",,,Y,,Y,Y,,,,,,4,4,E06000042,E02003483,E00084566,6,5.0,88.0,0.96281,0.0,8.3333,0.06199
1-134123773,2010-12-03,Y,Thomas Edward Mitton House,South East,Milton Keynes,Belvoir Avenue,Milton Keynes,MK4 2JA,51.999418,-0.774021,Milton Keynes South,"Bygrave, Anne",Y,,Y,,,,,Y,,,Y,5,5,E06000042,E02003486,E00084525,16,10.0,64.0,0.75928,3.0,21.8303,0.16454
1-135960132,2010-12-16,Y,Caton House Residential and Nursing Home,South East,Milton Keynes,37 Epsom Grove,Milton Keynes,MK3 5NR,51.988383,-0.767725,Milton Keynes South,"O'Connor, Sheila",Y,Y,,,Y,,Y,Y,Y,Y,,3,3,E06000042,E02003489,E00084908,62,38.0,61.0,0.79714,29.0,47.1987,0.17331
1-147133036,2011-01-20,Y,Becket House Nursing Home,South East,Milton Keynes,Pitcher Lane,Milton Keynes,MK5 8AU,52.031821,-0.77828,Milton Keynes South,"Shah, Hilen",Y,Y,,,Y,,,Y,,,,5,5,E06000042,E02003478,E00084636,27,20.0,73.0,0.88775,1.0,4.0572,0.10185
1-2214061151,2015-10-05,Y,ABI Homes - Roman House,South East,Milton Keynes,100 Watling Street,Milton Keynes,MK1 1BW,52.000427,-0.720059,Milton Keynes South,"Cawley, Fergal",,,Y,Y,,Y,,,,,Y,2,2,E06000042,E02003488,E00084325,6,6.0,100.0,0.99811,0.0,0.0,0.0
1-2440759461,2016-04-29,Y,Kimwick Care Home,South East,Milton Keynes,7 Colossus Way,Milton Keynes,MK3 6GU,52.000347,-0.741948,Milton Keynes South,"Muyenziwa, Manyara",,,Y,,,Y,Y,,,,Y,4,4,E06000042,E02003489,E00175377,4,3.0,81.0,0.86025,1.0,23.9357,0.14188
1-2442370565,2016-03-09,Y,The Stratford's Residential Home,South East,Milton Keynes,"Anthony Court, Russell Street",Milton Keynes,MK11 1BT,52.057232,-0.850952,Milton Keynes South,"Kanani, Rajendra",,,Y,,Y,Y,Y,Y,Y,,Y,3,3,E06000042,E02003468,E00084849,12,9.0,75.0,0.89877,3.0,22.0479,0.06413
1-2540557439,2016-05-12,Y,MK Supported Housing Limited,South East,Milton Keynes,105,Milton Keynes,MK5 8AG,52.024275,-0.779769,Milton Keynes South,"Macharia, Tabbie",,,Y,,,Y,Y,,Y,,Y,3,3,E06000042,E02003478,E00084646,4,3.0,67.0,0.93529,1.0,28.8675,0.06079
1-2610001846,2016-05-05,Y,Linford Grange,South East,Milton Keynes,16 Lakes Lane,Newport Pagnell,MK16 8HP,52.08662,-0.730445,Milton Keynes North,"Kanani, Rajendra",,,Y,,Y,,,Y,,,Y,5,5,E06000042,E02003461,E00084698,20,15.0,77.0,0.82076,3.0,13.9642,0.13195
1-2891403206,2016-11-23,Y,Kents Hill Care Home,South East,Milton Keynes,50 Tunbridge Grove,Milton Keynes,MK7 6JD,52.03193,-0.695303,Milton Keynes South,"Walsh, Paul",Y,Y,,,Y,,,Y,Y,Y,Y,5,5,E06000042,E02007014,E00084897,75,55.0,73.0,0.72808,6.0,8.2408,0.10358
1-305092138,2011-10-24,Y,Milton Keynes Short Breaks and Shared Lives,South East,Milton Keynes,4 & 6 Mathiesen Road,Milton Keynes,MK13 7AG,52.057381,-0.786562,Milton Keynes North,"Collins, Victoria",,,Y,Y,Y,Y,Y,Y,Y,Y,Y,3,3,E06000042,E02003469,E00084811,12,42.0,353.0,0.75901,44.0,370.4664,0.15974
1-3054731838,2017-01-31,Y,Highclere Care Home,South East,Milton Keynes,1 Chapman Avenue,Milton Keynes,MK14 7NH,52.055713,-0.746796,Milton Keynes North,"Hall, Antony",Y,Y,,,Y,,,Y,,,,5,5,E06000042,E02003467,E00084621,40,34.0,84.0,0.88623,5.0,11.9111,0.10685
1-3069491245,2016-12-09,Y,Milton Court Care Home,South East,Milton Keynes,Tunbridge Grove,Milton Keynes,MK7 6JD,52.03193,-0.695303,Milton Keynes South,"Matthews, Ian",Y,Y,,,Y,,Y,Y,Y,Y,Y,4,4,E06000042,E02007014,E00084897,148,113.0,77.0,0.99164,13.0,9.0546,0.00971
1-352522448,2012-07-13,Y,Lathbury Manor Care Home,South East,Milton Keynes,Northampton Road,Newport Pagnell,MK16 8JX,52.098268,-0.720824,Milton Keynes North,"Allen, Jonathan",,,Y,,Y,,Y,Y,Y,Y,Y,9,9,E06000042,E02003460,E00084772,29,23.0,80.0,0.82607,2.0,8.5823,0.11957
1-3583146894,2017-05-11,Y,Bletchley House Residential Care and Nursing Home,South East,Milton Keynes,Beaverbrook Court,Milton Keynes,MK3 7JS,52.000556,-0.748046,Milton Keynes South,"Cheekoory, Sunil",Y,Y,,,,,,Y,,,Y,9,9,E06000042,E02003485,E00084465,44,29.0,67.0,0.85889,5.0,10.5382,0.16544
1-384067147,2012-06-15,Y,Broomfield Residential Care,South East,Milton Keynes,Yardley Road,Olney,MK46 5DX,52.15913,-0.703765,Milton Keynes North,"Ismail, Rahim",,,Y,,Y,,,Y,,,,7,7,E06000042,E02003459,E00084757,40,32.0,80.0,0.92421,5.0,12.4164,0.06327
1-4287862880,2017-09-15,Y,Lakeview Lodge Care Home,South East,Milton Keynes,Jersey Drive,Milton Keynes,MK3 5SD,51.976837,-0.732866,Milton Keynes South,"Richmond, Helen",,,Y,,Y,,,Y,Y,Y,Y,3,3,E06000042,E02003490,E00183632,66,52.0,78.0,0.83095,19.0,28.4402,0.15402
1-531798362,2012-12-03,Y,Woburn Sands Lodge,South East,Milton Keynes,60 Station Road,Milton Keynes,MK17 8RZ,52.015422,-0.649714,Milton Keynes South,"Jones, Carol",Y,Y,,,,,Y,Y,,,Y,3,3,E06000042,E02003482,E00175511,10,8.0,77.0,0.88467,1.0,5.7735,0.09909
1-558045170,2012-12-19,Y,Rhodsac Care Home,South East,Milton Keynes,24 Worrelle Avenue,Milton Keynes,MK10 9GZ,52.044415,-0.70156,Milton Keynes North,"Muyenziwa, Manyara",,,Y,,,Y,Y,,,,Y,3,3,E06000042,E02007012,E00183461,4,4.0,100.0,0.91673,0.0,0.0,0.02999
1-671661122,2013-04-03,Y,ABI Homes - Veryan Place,South East,Milton Keynes,40 Veryan Place,Milton Keynes,MK6 2SR,52.036651,-0.739194,Milton Keynes North,"Cawley, Fergal",,,Y,,,Y,Y,,Y,,Y,0,0,E06000042,E02003476,E00084432,3,3.0,89.74708387898461,,,,
1-104959356,2010-12-14,Y,Acorn Hove,South East,Brighton and Hove,Loxwood House,Hove,BN3 6NR,50.837225,-0.164715,Hove,"Chaudhry, Khalid",,,Y,,Y,Y,,,,,,2,2,E06000043,E02003501,E00085755,12,10.0,79.0,0.90268,2.0,17.6777,0.04698
1-107941915,2010-11-29,Y,Westwood Care Home,South East,Brighton and Hove,9 Knoyle Road,Brighton,BN1 6RB,50.844808,-0.149999,"Brighton, Pavilion",*,,,Y,,,,,Y,,,Y,5,5,E06000043,E02003501,E00085857,29,19.0,66.0,0.95182,2.0,7.7106,0.05735
1-1085049968,2013-11-21,Y,Maycroft Manor,South East,Brighton and Hove,2-8 Carden Avenue,Brighton,BN1 8NA,50.856528,-0.151028,"Brighton, Pavilion","Brown, Aneurin",Y,Y,,,Y,,Y,Y,Y,Y,Y,0,0,E06000043,E02003493,E00085433,105,67.0,63.45721374792961,,,,
1-108931052,2011-01-05,Y,Aspen House Care Home,South East,Brighton and Hove,17 Wilbury Avenue,Hove,BN3 6HS,50.835578,-0.168074,Hove,*,,,Y,,Y,,Y,Y,,,,6,6,E06000043,E02003509,E00085150,15,12.0,80.0,0.95612,1.0,4.2164,0.04314
1-109150295,2010-11-30,Y,Marine View Rest Home,South East,Brighton and Hove,279 Kingsway,Hove,BN3 4LJ,50.82745,-0.194747,Hove,*,,,Y,,Y,,,Y,,,Y,4,4,E06000043,E02003513,E00085838,19,13.0,70.0,0.9384,0.0,2.6316,0.06283
1-109710558,2010-11-30,Y,Crescent House,South East,Brighton and Hove,108 The Drive,Hove,BN3 6GP,50.836479,-0.165838,Hove,"McNeill, Theresa",,,Y,,,,,Y,,,,3,3,E06000043,E02003509,E00085151,17,21.0,125.0,0.86455,9.0,54.3388,0.17454
1-110502320,2011-01-07,Y,Blind Veterans UK,South East,Brighton and Hove,Ian Fraser House,Brighton,BN2 7BS,50.808114,-0.068372,"Brighton, Kemptown","Couling, Helen",Y,Y,,,Y,,,Y,Y,Y,,1,1,E06000043,E02003522,E00085612,77,42.0,55.0,0.85381,,,
1-113028841,2010-11-25,Y,The Churchley Rest Home Limited,South East,Brighton and Hove,91 New Church Road,Hove,BN3 4BB,50.830841,-0.190143,Hove,"Lewis, Karen",,,Y,,,,,Y,,,,2,2,E06000043,E02003513,E00085801,18,16.0,86.0,0.94827,1.0,3.9284,0.00483
1-115548229,2010-12-13,Y,Charlesworth Rest Home,South East,Brighton and Hove,37 Beaconsfield Villas,Brighton,BN1 6HB,50.840828,-0.14233,"Brighton, Pavilion",*,,,Y,,,,,Y,,,,4,4,E06000043,E02003504,E00085499,18,15.0,83.0,0.94004,2.0,12.0014,0.01276
1-115734627,2011-01-05,Y,Wilbury,South East,Brighton and Hove,66 Wilbury Road,Hove,BN3 3PA,50.831038,-0.165312,Hove,"Hogben, Warren",,,Y,,,,,Y,,,,2,2,E06000043,E02003510,E00085144,19,16.0,84.0,0.94177,0.0,0.0,0.0604
1-115912493,2011-01-04,Y,Patcham Nursing Home,South East,Brighton and Hove,Eastwick Barn,Brighton,BN1 8SF,50.869903,-0.130473,"Brighton, Pavilion","Davies, Heidi",Y,Y,,,,,,Y,Y,,Y,4,4,E06000043,E02003491,E00085416,30,26.0,88.0,0.7974,2.0,7.3912,0.21629
1-115946743,2011-01-07,Y,Z & M Care Limited - 4-10 Lyndhurst Road,South East,Brighton and Hove,4-10 Lyndhurst Road,Hove,BN3 6FA,50.832925,-0.155852,Hove,"Moussavi, Zara",,,Y,,Y,Y,,Y,,,,2,2,E06000043,E02003510,E00085162,37,35.0,95.0,0.92151,1.0,3.8222,0.01808
1-115946758,2011-01-07,Y,Z & M Care Limited -12 Lyndhurst Road,South East,Brighton and Hove,12 Lyndhurst Road,Hove,BN3 6FA,50.832925,-0.155852,Hove,"Moussavi, Zara",,,Y,,,Y,,,,,Y,1,1,E06000043,E02003510,E00085162,7,7.0,100.0,0.98213,,,
1-116453225,2010-11-22,Y,Bramble Cottage Retirement Home,South East,Brighton and Hove,18 Carden Avenue,Brighton,BN1 8NA,50.856528,-0.151028,"Brighton, Pavilion","Lewis, Karina",,,Y,,,,,Y,,,,3,3,E06000043,E02003493,E00085433,28,24.0,87.0,0.90478,5.0,16.4957,0.04299
1-116791638,2011-01-12,Y,Vallance Residential Care Home,South East,Brighton and Hove,7-9 Vallance Road,Hove,BN3 2DA,50.828079,-0.177342,Hove,"Mirza, Maria",,,Y,,,,,Y,,,,2,2,E06000043,E02003518,E00085054,19,16.0,87.0,0.96183,1.0,3.7216,0.02401
1-117572506,2010-11-15,Y,Birch Grove Nursing Home,South East,Brighton and Hove,1-3 Stanford Avenue,Brighton,BN1 6AD,50.837851,-0.14154,"Brighton, Pavilion","Evans, Victoria",Y,Y,,,Y,,Y,Y,Y,,Y,3,3,E06000043,E02003504,E00085485,50,44.0,87.0,0.83043,3.0,6.4291,0.09906
1-117575041,2011-01-17,Y,Davigdor Lodge Rest Home,South East,Brighton and Hove,56-58 Tisbury Road,Hove,BN3 3BB,50.829639,-0.169017,Hove,*,,,Y,,,,Y,,,,Y,4,4,E06000043,E02003516,E00085075,25,24.0,96.0,0.94288,1.0,3.266,0.04859
1-118088991,2011-01-07,Y,St Mary's House,South East,Brighton and Hove,38-39 Preston Park Avenue,Brighton,BN1 6HG,50.842882,-0.144791,"Brighton, Pavilion","Yeeles, Kathy",,,Y,,,,,Y,,,,0,0,E06000043,E02003500,E00085480,12,11.0,94.66806138906784,,,,
1-118358182,2011-01-20,Y,Seaway Nursing Home,South East,Brighton and Hove,33 Vallance Gardens,Hove,BN3 2DB,50.826628,-0.178321,Hove,"James, Joanne",Y,Y,,,,,,Y,Y,,,6,6,E06000043,E02003518,E00085059,20,16.0,79.0,0.82676,3.0,14.6344,0.20743
1-118358200,2011-01-20,Y,The Adelaide Nursing Home,South East,Brighton and Hove,203-205 New Church Road,Brighton,BN3 4ED,50.832651,-0.203053,Hove,"James, Joanne",Y,Y,,,,,,Y,Y,,,4,4,E06000043,E02003511,E00085819,35,32.0,92.0,0.82825,1.0,2.7355,0.2033
1-118569446,2011-01-06,Y,Brighton & Hove Bethesda Home,South East,Brighton and Hove,5 Hove Park Gardens,Hove,BN3 6HN,50.839714,-0.169702,Hove,"Topping, Adrian",,,Y,,Y,,,Y,,,,2,2,E06000043,E02003497,E00184819,22,17.0,77.0,0.8902,3.0,12.8565,0.07251
1-118717239,2011-01-24,Y,Outlook House,South East,Brighton and Hove,74 Redhill Drive,Brighton,BN1 5FL,50.85677,-0.163152,"Brighton, Pavilion","Mew, Maria",,,Y,,,Y,,,,Y,Y,2,2,E06000043,E02003493,E00085871,15,9.0,60.0,0.87782,3.0,18.8562,0.0149
1-119127425,2011-01-20,Y,Regent House Nursing Home,South East,Brighton and Hove,107-109 The Drive,Hove,BN3 6GE,50.836117,-0.16686,Hove,"Shahrestani, Saleh",Y,Y,,,,,,Y,,,,3,3,E06000043,E02003509,E00085140,30,26.0,87.0,0.96649,2.0,6.6667,0.02527
1-119220130,2010-12-31,Y,The Highviews,South East,Brighton and Hove,47 Saltdean Drive,Brighton,BN2 8SD,50.805717,-0.042185,"Brighton, Kemptown",*,,,Y,,Y,Y,Y,Y,Y,Y,Y,3,3,E06000043,E02003523,E00085633,6,6.0,100.0,0.94569,0.0,0.0,0.0908
1-120302287,2010-12-15,Y,RNID Action on Hearing Loss 13 Wilbury Gardens,South East,Brighton and Hove,13 Wilbury Gardens,Hove,BN3 6HQ,50.836646,-0.16789,Hove,"Ford, Sharon",,,Y,,Y,Y,Y,Y,Y,Y,Y,4,4,E06000043,E02003509,E00085150,8,7.0,84.0,0.95027,1.0,11.9678,0.05406
1-120732762,2010-12-14,Y,Care Management Group - 3a The Droveway,South East,Brighton and Hove,3a The Droveway,Hove,BN3 6LF,50.84211,-0.161384,Hove,"Collier, Sam",,,Y,,,Y,,,,,,2,2,E06000043,E02003501,E00085749,3,2.0,67.0,0.87546,0.0,0.0,0.17528
1-120811571,2011-01-18,Y,Grosvenor Lodge,South East,Brighton and Hove,40 Old Shoreham Road,Hove,BN3 6GA,50.835638,-0.160999,Hove,*,,,Y,,Y,,,,,,,3,3,E06000043,E02003510,E00085141,31,29.0,95.0,0.87595,1.0,3.7248,0.05676
1-120915537,2011-01-26,Y,Carlton House,South East,Brighton and Hove,44 St Aubyns,Hove,BN3 2TE,50.827709,-0.176121,Hove,"Pinsent, Russell",,,Y,,Y,,,Y,,,Y,4,4,E06000043,E02003518,E00085078,25,20.0,81.0,0.97158,2.0,6.8313,0.0188
1-120915564,2011-01-26,Y,Conifer Lodge,South East,Brighton and Hove,95-99 Pembroke Crescent,Hove,BN3 5DE,50.8305,-0.178952,Hove,"Pinsent, Russell",,,Y,,,,Y,Y,,,Y,3,3,E06000043,E02003518,E00085775,26,20.0,78.0,0.90171,1.0,4.4412,0.0547
1-121614712,2011-04-26,Y,Lavender House,South East,Brighton and Hove,17 Walsingham Road,Hove,BN3 4FE,50.828515,-0.186243,Hove,"Rajput, Sanjeev",,,Y,,,,Y,,,,Y,5,5,E06000043,E02003513,E00085806,18,18.0,98.0,0.85388,1.0,3.0429,0.19897
1-121757423,2011-01-21,Y,Glentworth House,South East,Brighton and Hove,40-42 Pembroke Avenue,Hove,BN3 5DB,50.83131,-0.179787,Hove,"Redwood, Anita",Y,Y,,,Y,,,Y,,,,2,2,E06000043,E02003518,E00085798,33,28.0,86.0,0.9802,1.0,2.1427,0.00924
1-121757440,2011-01-21,Y,Arundel Park Lodge,South East,Brighton and Hove,22-24 Arundel Drive East,Brighton,BN2 8SL,50.802695,-0.038962,"Brighton, Kemptown","Redwood, Anita",Y,Y,Y,,Y,,,Y,,,,1,1,E06000043,E02003523,E00085639,32,28.0,88.0,0.98383,,,
1-123781278,2010-11-12,Y,Hyman Fine House,South East,Brighton and Hove,20 Burlington Street,Brighton,BN2 1AU,50.818726,-0.123999,"Brighton, Kemptown","Carmel-Brown, Daniel",Y,Y,Y,,Y,,,Y,,,,3,3,E06000043,E02003521,E00085548,45,35.0,77.0,0.9833,7.0,14.7963,0.004
1-126435132,2011-01-14,Y,Rottingdean Nursing and Care Home,South East,Brighton and Hove,30-32 Newlands Road,Brighton,BN2 7GD,50.803693,-0.053979,"Brighton, Kemptown",*,Y,Y,,,,,,Y,,,,3,3,E06000043,E02003523,E00085642,35,29.0,83.0,0.91767,5.0,15.1186,0.07066
1-127569784,2010-12-15,Y,Priory Rookery Hove,South East,Brighton and Hove,22-24 Sackville Gardens,Hove,BN3 4GH,50.828012,-0.185751,Hove,"Cresswell, Rebekah",,,Y,,,Y,,,,,Y,8,8,E06000043,E02003513,E00085806,13,11.0,83.0,0.9167,3.0,21.2659,0.11255
1-129560065,2010-12-23,Y,Brighton & Hove City Council - Ireland Lodge,South East,Brighton and Hove,Lockwood Crescent,Brighton,BN2 6UH,50.832734,-0.067555,"Brighton, Kemptown","Persey, Robert",,,Y,,Y,,Y,Y,,,,4,4,E06000043,E02003507,E00085894,34,21.0,62.0,0.92126,2.0,4.8029,0.11359
1-129560082,2010-12-23,Y,Brighton & Hove City Council - 83 Beaconsfield Villas,South East,Brighton and Hove,83 Beaconsfield Villas,Brighton,BN1 6HF,50.843147,-0.143389,"Brighton, Pavilion","Persey, Robert",,,Y,,,Y,,,,,Y,7,7,E06000043,E02003500,E00085480,6,5.0,88.0,0.96059,1.0,15.8532,0.04045
1-129560097,2010-12-23,Y,Brighton & Hove City Council - 19 Leicester Villas,South East,Brighton and Hove,19 Leicester Villas,Hove,BN3 5SP,50.833944,-0.204111,Hove,"Persey, Robert",,,Y,,,Y,,,,,Y,6,6,E06000043,E02003511,E00085819,5,4.0,70.0,0.94113,1.0,16.7332,0.04999
1-129579127,2010-12-23,Y,Brighton & Hove City Council - 15 Preston Drove,South East,Brighton and Hove,15 Preston Drove,Brighton,BN1 6LA,50.844121,-0.147484,"Brighton, Pavilion","Persey, Robert",,,Y,,,Y,,Y,,,Y,3,3,E06000043,E02003501,E00085857,5,4.0,87.0,0.91147,1.0,11.547,0.04381
1-129579158,2010-12-23,Y,Brighton & Hove City Council - 20 Windlesham Road,South East,Brighton and Hove,20 Windlesham Road,Brighton,BN1 3AG,50.8288,-0.151697,"Brighton, Pavilion","Persey, Robert",,,Y,,,Y,,,,,Y,4,4,E06000043,E02003514,E00184751,5,3.0,65.0,0.85967,2.0,34.1565,0.16878
1-129579173,2010-12-23,Y,Brighton & Hove City Council - The Beach House,South East,Brighton and Hove,29 Westbourne Villas,Hove,BN3 4GQ,50.827726,-0.184697,Hove,"Persey, Robert",,,Y,,,Y,,Y,Y,,Y,5,5,E06000043,E02003518,E00085805,14,7.0,53.0,0.93481,2.0,12.9756,0.05869
1-129579189,2010-12-23,Y,Brighton & Hove City Council - Craven Vale Resource Centre,South East,Brighton and Hove,Craven Road,Brighton,BN2 0FE,50.824928,-0.118213,"Brighton, Kemptown","Persey, Robert",,,Y,,,,,Y,,,,5,5,E06000043,E02003515,E00085125,31,25.0,81.0,0.78506,3.0,8.5347,0.18963
1-129579203,2010-12-23,Y,Brighton & Hove City Council - Wayfield Avenue Resource Centre,South East,Brighton and Hove,2 Wayfield Avenue,Hove,BN3 7LW,50.840733,-0.190669,Hove,"Persey, Robert",,,Y,,,,Y,Y,,,,5,5,E06000043,E02003503,E00085218,24,21.0,88.0,0.841,2.0,6.5881,0.17813
1-130340328,2011-01-17,Y,Highbury House Nursing Home,South East,Brighton and Hove,Steyning Road,Rottingdean,BN2 7GA,50.805421,-0.056235,"Brighton, Kemptown",*,Y,Y,,,Y,,Y,Y,Y,Y,,3,3,E06000043,E02003523,E00085645,30,27.0,89.0,0.9526,3.0,10.1835,0.0417
1-132754015,2010-10-27,Y,Acorn House - Acorn Watford Limited,South East,Brighton and Hove,198 Ditchling Road,Brighton,BN1 6JE,50.840555,-0.133663,"Brighton, Pavilion","Anwar, Khalid",,,Y,,,Y,,,,,,4,4,E06000043,E02003498,E00085316,10,10.0,100.0,0.90901,0.0,0.0,0.1236
1-135596988,2010-12-16,Y,Southdown Housing Association - 52 Mill Lane,South East,Brighton and Hove,52 Mill Lane,Portslade,BN41 2DE,50.842241,-0.210269,Hove,"Blanchard, Neil",,,Y,,,Y,,,,,,4,4,E06000043,E02003503,E00085714,5,4.0,90.0,0.98007,1.0,11.547,0.02684
1-1359193898,2014-05-01,Y,Shore House,South East,Brighton and Hove,80-81 Marine Parade,Brighton,BN2 1AJ,50.818576,-0.126418,"Brighton, Kemptown","Homewood, Nikki",,,Y,,,,Y,Y,,,Y,0,0,E06000043,E02003521,E00085549,20,15.0,76.00546234046385,,,,
1-137556905,2011-01-11,Y,St Christopher's Residential Home,South East,Brighton and Hove,47-49 Rutland Gardens,Hove,BN3 5PD,50.831885,-0.183797,Hove,*,,,Y,,,,,Y,,,,4,4,E06000043,E02003513,E00085774,19,14.0,75.0,0.86325,0.0,2.6316,0.0866
1-137862159,2011-01-19,Y,Charles Lodge,South East,Brighton and Hove,75 New Church Road,Hove,BN3 4BB,50.830841,-0.190143,Hove,"Thurlby, Alexandra",,,Y,,Y,,,Y,,,,3,3,E06000043,E02003513,E00085801,27,20.0,73.0,0.95153,4.0,14.9683,0.00825
1-138360128,2011-01-10,Y,Oakleigh Lodge Residential Home,South East,Brighton and Hove,36 New Church Road,Hove,BN3 4FJ,50.829168,-0.182554,Hove,*,,,Y,,,,,Y,,,Y,5,5,E06000043,E02003518,E00085807,15,13.0,85.0,0.85801,2.0,11.9257,0.15939
1-138827884,2010-11-25,Y,The Grange Rest Home Limited,South East,Brighton and Hove,11 Sackville Gardens,Hove,BN3 4GJ,50.828145,-0.18505,Hove,"Lytle, James",,,Y,,,,,Y,,,,3,3,E06000043,E02003518,E00085780,26,23.0,88.0,0.93124,2.0,7.6923,0.06486
1-142770259,2011-01-26,Y,Sackville Gardens,South East,Brighton and Hove,57 Sackville Gardens,Hove,BN3 4GJ,50.828145,-0.18505,Hove,"Homewood, Nikki",,,Y,,,,Y,,,,,2,2,E06000043,E02003518,E00085780,5,5.0,100.0,0.98504,0.0,0.0,0.00197
1-142805455,2011-01-26,Y,Portland Road,South East,Brighton and Hove,9 Portland Road,Hove,BN3 5DR,50.832662,-0.178271,Hove,"Homewood, Nikki",,,Y,,,,Y,,,,,1,1,E06000043,E02003506,E00085796,9,8.0,89.0,0.98643,,,
1-145652010,2011-01-28,Y,Lansdowne Road,South East,Brighton and Hove,Marina,Hove,BN3 1DN,50.827031,-0.155076,Hove,"Curran, Anne",,,Y,,,Y,,,,,,2,2,E06000043,E02003510,E00085192,9,9.0,100.0,0.945,0.0,0.0,0.07648
1-148118892,2011-01-26,Y,Asher Nursing Home,South East,Brighton and Hove,33 Wilbury Gardens,Hove,BN3 6HQ,50.836646,-0.16789,Hove,"Pinsent, Russell",Y,Y,,,,,Y,Y,,,Y,2,2,E06000043,E02003509,E00085150,17,17.0,100.0,0.92521,0.0,0.0,0.07579
1-148118909,2011-01-26,Y,Parkview Care Home,South East,Brighton and Hove,70 Old Shoreham Road,Hove,BN3 6HJ,50.837923,-0.168238,Hove,"Pinsent, Russell",,,Y,,,,Y,,,,Y,8,8,E06000043,E02003509,E00085150,10,7.0,74.0,0.91321,1.0,10.6066,0.10763
1-1732923449,2014-10-30,Y,Partridge House Nursing and Residential Care Home,South East,Brighton and Hove,Leybourne Road,Brighton,BN2 4LS,50.841673,-0.092696,"Brighton, Kemptown","Ballard, Emma",Y,Y,,,Y,,,Y,,,,5,5,E06000043,E02003499,E00085333,38,36.0,95.0,0.90998,0.0,1.1769,0.07058
1-1755301346,2015-03-03,Y,Oaklands,South East,Brighton and Hove,39 Dyke Road Avenue,Hove,BN3 6QA,50.848312,-0.162319,Hove,"Weissbraun, Oshi",Y,Y,,,Y,,,Y,Y,Y,,3,3,E06000043,E02003497,E00085769,22,18.0,80.0,0.97616,2.0,9.4621,0.00862
1-1842153090,2015-02-03,Y,Downlands,South East,Brighton and Hove,96 The Drive,Hove,BN3 6GP,50.836479,-0.165838,Hove,"James, Joanne",Y,Y,,,,,,Y,Y,,,3,3,E06000043,E02003509,E00085151,23,18.0,80.0,0.96316,2.0,9.0507,0.03067
1-2185332161,2015-09-02,Y,Pier View House,South East,Brighton and Hove,St Johns School and College,Brighton,BN2 0AF,50.820876,-0.117935,"Brighton, Kemptown","Harman, Louise",,,Y,,,Y,,,,,Y,1,1,E06000043,E02003521,E00085099,4,4.0,100.0,0.73911,,,
1-2185358879,2015-09-02,Y,Preston Drove,South East,Brighton and Hove,88 Preston Drove,Brighton,BN1 6LB,50.843979,-0.144236,"Brighton, Pavilion","Harman, Louise",,,Y,,,Y,,,,,Y,1,1,E06000043,E02003500,E00085463,5,5.0,100.0,0.74647,,,
1-2264652704,2015-11-12,Y,Sycamore Court,South East,Brighton and Hove,Fitzherbert Drive,Brighton,BN2 4DU,50.837029,-0.112926,"Brighton, Kemptown","Ballard, Emma",Y,Y,,,Y,,,Y,,,Y,6,6,E06000043,E02003499,E00085339,40,36.0,90.0,0.93562,3.0,8.6603,0.02303
1-2297756282,2015-11-13,Y,The Lustrells,South East,Brighton and Hove,27 Lustrells Crescent,Brighton,BN2 8AR,50.806162,-0.043529,"Brighton, Kemptown","Macalister, George",,,Y,,,Y,,,Y,,Y,1,1,E06000043,E02003523,E00085635,4,3.0,75.0,0.9994,,,
1-2515225347,2016-04-11,Y,Victoria Chartwell,South East,Brighton and Hove,81 Dyke Road Avenue,Hove,BN3 6DA,50.854498,-0.16962,Hove,"Burns, Paul",Y,Y,,,,,,Y,,,,4,4,E06000043,E02003497,E00085742,22,20.0,93.0,0.91657,2.0,7.873,0.04257
1-2515473683,2016-04-11,Y,Victoria Chatsworth,South East,Brighton and Hove,63 Dyke Road Avenue,Hove,BN3 6DA,50.854498,-0.16962,Hove,"Burns, Paul",Y,Y,,,,,,Y,,,,5,5,E06000043,E02003497,E00085742,22,19.0,88.0,0.91373,2.0,7.606,0.06001
1-2515507890,2016-04-11,Y,Victoria Highgrove,South East,Brighton and Hove,59 Dyke Road Avenue,Hove,BN3 6QD,50.85147,-0.165775,Hove,"Burns, Paul",Y,Y,,,,,,Y,,,,5,5,E06000043,E02003497,E00085742,24,20.0,82.0,0.8386,0.0,1.8634,0.06027
1-2600586511,2016-07-06,Y,Barford Court,South East,Brighton and Hove,157 Kingsway,Hove,BN3 4GR,50.826064,-0.181936,Hove,"Salley, Karen",,Y,,,Y,,,Y,Y,,Y,4,4,E06000043,E02003518,E00085777,40,38.0,96.0,0.89238,1.0,2.3936,0.0844
1-2756625697,2016-09-01,Y,Hazelgrove Nursing Home,South East,Brighton and Hove,Heath Hill Avenue,Brighton,BN2 4FH,50.84237,-0.102369,"Brighton, Kemptown","Hudda, Al-Naseer",Y,Y,,,Y,,,Y,,,Y,3,3,E06000043,E02003499,E00085361,38,30.0,78.0,0.75498,11.0,28.8675,0.03825
1-2890961612,2016-09-28,Y,Preston Road,South East,Brighton and Hove,111 Preston Road,Brighton,BN1 6AF,50.837127,-0.14573,"Brighton, Pavilion","Harman, Louise",,,Y,,,Y,,,,,Y,1,1,E06000043,E02003504,E00085491,6,5.0,83.0,0.99908,,,
1-2901955416,2016-09-19,Y,Place Farm House,South East,Brighton and Hove,Ladies Mile Road,Brighton,BN1 8QE,50.863928,-0.147182,"Brighton, Pavilion","Bown, Andrew",,,Y,,,,,Y,,,,5,5,E06000043,E02003491,E00085444,20,14.0,71.0,0.89639,4.0,18.5068,0.12551
1-309463437,2011-09-22,Y,Gate Cottage Rest Home,South East,Brighton and Hove,Bazehill Road,Brighton,BN2 7DB,50.80998,-0.057295,"Brighton, Kemptown","Sodeau, Mark",,,Y,,,,,Y,,,,2,2,E06000043,E02003523,E00085643,13,12.0,92.0,0.97831,0.0,0.0,0.00963
1-311150903,2011-10-31,Y,Bon Accord,South East,Brighton and Hove,79-81 New Church Road,Hove,BN3 4BB,50.830841,-0.190143,Hove,"Southall, Natasha",Y,Y,,,Y,,Y,Y,,,Y,4,4,E06000043,E02003513,E00085801,41,26.0,63.0,0.98251,2.0,4.617,0.01152
1-3493204877,2017-08-31,Y,Lustrells Vale,South East,Brighton and Hove,52 Lustrells Vale,Brighton,BN2 8FE,50.808257,-0.044052,"Brighton, Kemptown","Macalister, George",,,Y,,,Y,,,Y,,Y,1,1,E06000043,E02003523,E00085631,4,4.0,100.0,0.9994,,,
1-4678364313,2018-01-24,Y,The Pines Nursing Home,South East,Brighton and Hove,Furze Hill,Hove,BN3 1PA,50.828316,-0.157837,Hove,"Richmond, Helen",Y,Y,,,Y,,,Y,,,,1,1,E06000043,E02003510,E00085188,35,34.0,97.0,0.93602,,,
1-468501140,2012-09-06,Y,Borradaile House,South East,Brighton and Hove,13 Walpole Road,Brighton,BN2 0AF,50.820876,-0.117935,"Brighton, Kemptown","Harman, Louise",,,Y,,,Y,,,,,Y,2,2,E06000043,E02003521,E00085099,8,8.0,100.0,0.96891,0.0,0.0,0.0352
1-4925527091,2018-06-04,Y,Arlington House,South East,Brighton and Hove,10 Tennis Road,Hove,BN3 4LR,50.828407,-0.196144,Hove,"Steedman, David",,,Y,,Y,,,Y,,,Y,1,1,E06000043,E02003513,E00085838,33,25.0,76.0,0.90778,,,
1-509991189,2012-11-16,Y,The Whitehouse,South East,Brighton and Hove,1 Chichester Drive West,Brighton,BN2 8SH,50.802798,-0.044039,"Brighton, Kemptown","Evans, Paul",,,Y,,,,,Y,,,,3,3,E06000043,E02003523,E00085639,14,10.0,74.0,0.94639,1.0,4.1239,0.00266
1-5238230155,2018-06-05,Y,Middleton Grove Nursing Home,South East,Brighton and Hove,11 Portland Road,Hove,BN3 5DR,50.832662,-0.178271,Hove,"Manji, Nazir",Y,Y,,,,,,Y,,,,4,4,E06000043,E02003506,E00085796,54,41.0,76.0,0.75571,18.0,32.7102,0.18047
1-6512948588,2019-04-09,Y,Autumn Lodge,South East,Brighton and Hove,35-39 Rutland Gardens,Hove,BN3 5PD,50.831885,-0.183797,Hove,"Bravery, Christian",,,Y,,Y,,,Y,,,,2,2,E06000043,E02003513,E00085774,36,33.0,92.0,0.87667,1.0,3.9284,0.02467
1-700365613,2013-05-02,Y,Dean Wood Care Home,South East,Brighton and Hove,Warren Road,Brighton,BN2 6DX,50.834518,-0.081925,"Brighton, Kemptown","Pearson, Rebecca",Y,Y,,,Y,,,Y,Y,,Y,0,0,E06000043,E02003507,E00085905,80,75.0,94.2153270131478,,,,
1-7118042784,2019-07-01,Y,Fairdene Lodge,South East,Brighton and Hove,14-16 Walsingham Road,Hove,BN3 4FF,50.828349,-0.186974,Hove,"Holliday-Welch, Maria",,,Y,,Y,,,Y,,,,5,5,E06000043,E02003513,E00085803,32,30.0,95.0,0.78517,1.0,3.563,0.20042
1-7739786252,2019-10-24,Y,Dane House,South East,Brighton and Hove,52A Dyke Road Avenue,Brighton,BN1 5LE,50.852698,-0.166111,"Brighton, Pavilion","Murphy, Kathryn",,,Y,,,Y,,,,,,3,3,E06000043,E02003501,E00085873,6,6.0,100.0,0.91174,0.0,0.0,0.00635
1-9173028406,2020-09-21,Y,Cloverdale House,South East,Brighton and Hove,19 Vallance Gardens,Hove,BN3 2DB,50.826628,-0.178321,Hove,"Collier, Sam",,,Y,,,Y,,Y,Y,,Y,5,5,E06000043,E02003518,E00085059,11,10.0,95.0,0.76887,1.0,8.1312,0.14769
1-9225218791,2020-10-20,Y,Wavertree House,South East,Brighton and Hove,Somerhill Road,Hove,BN3 1RN,50.82846,-0.158654,Hove,"Weissbraun, Oshi",,,Y,,,,,Y,,Y,,2,2,E06000043,E02003510,E00085188,36,32.0,88.0,0.96264,1.0,1.9642,0.0229
1-9261614468,2020-10-02,Y,Swanborough House,South East,Brighton and Hove,Swanborough Drive,Brighton,BN2 5PH,50.831098,-0.102685,"Brighton, Kemptown","McLay, Lesley",,,Y,,,,,,Y,,Y,5,5,E06000043,E02003515,E00085114,31,25.0,81.0,0.91359,12.0,39.7704,0.04804
1-9655004268,2020-12-01,Y,287 Dyke Road,South East,Brighton and Hove,287 Dyke Road,Hove,BN3 6PD,50.842937,-0.159661,Hove,"Collier, Sam",,,Y,,,Y,,,Y,,Y,1,1,E06000043,E02003501,E00085749,8,8.0,100.0,0.96956,,,
1-9655173051,2020-12-01,Y,290 Dyke Road,South East,Brighton and Hove,290 Dyke Road,Brighton,BN1 5BA,50.842553,-0.158653,"Brighton, Pavilion","Collier, Sam",,,Y,,,Y,,,Y,,Y,0,0,E06000043,E02003501,E00085856,5,5.0,95.74712295462332,,,,
1-9655173286,2020-12-01,Y,3 The Droveway,South East,Brighton and Hove,3 The Droveway,Hove,BN3 6LF,50.84211,-0.161384,Hove,"Collier, Sam",,,Y,,,Y,,,,,Y,1,1,E06000043,E02003501,E00085749,6,6.0,100.0,0.91541,,,
1-9655829687,2020-12-01,Y,4 Vallance Gardens,South East,Brighton and Hove,4 Vallance Gardens,Hove,BN3 2DD,50.826914,-0.178765,Hove,"Collier, Sam",,,Y,,,Y,,,Y,Y,Y,0,0,E06000043,E02003518,E00085054,7,6.0,91.76079052948351,,,,
1-9960676502,2020-12-02,Y,The Beach House,South East,Brighton and Hove,155 Kingsway,Hove,BN3 4GR,50.826064,-0.181936,Hove,*,,,Y,,Y,,,Y,,,,1,1,E06000043,E02003518,E00085777,11,0.0,0.0,0.72935,,,
RX2Y5,2011-10-31,Y,Lindridge,South East,Brighton and Hove,Laburnum Avenue,Hove,BN3 7JW,50.841566,-0.192185,Hove,"Nyanin, Acosia",Y,Y,,,Y,Y,Y,Y,Y,Y,Y,1,1,E06000043,E02003503,E00085213,75,23.0,31.0,0.95795,,,
1-10224972832,2021-03-01,Y,Kinross Residential Care Home,South East,Portsmouth,201 Havant Road,Portsmouth,PO6 1EE,50.846898,-1.045426,Portsmouth North,"Hyman, Trevor",,,Y,,Y,,,Y,,,Y,1,1,E06000044,E02003526,E00086177,29,25.0,86.0,0.96581,,,
1-109600055,2011-01-11,Y,Seaview Residential Home Limited,South East,Portsmouth,67-69 Festing Grove,Southsea,PO4 9QE,50.78419,-1.06191,Portsmouth South,"Panchalingathurai, Visvalingam",,,Y,,Y,,Y,Y,,,Y,6,6,E06000044,E02003546,E00086203,18,16.0,87.0,0.96532,2.0,12.0014,0.02113
1-110902202,2010-12-30,Y,Cosham Court Nursing Home,South East,Portsmouth,2-4 Albert Road,Portsmouth,PO6 3DD,50.844853,-1.064898,Portsmouth North,"Gulamhusein, Masum",Y,Y,,,Y,,,Y,Y,,Y,5,5,E06000044,E02003529,E00086124,47,34.0,72.0,0.88777,3.0,6.5579,0.13741
