Location ID,Location HSCA start date,Care home?,Location Name,Location Region,Location Local Authority,Location Street Address,Location City,Location Postal Code,Location Latitude,Location Longitude,Location Parliamentary Constituency,Provider Nominated Individual Name,"Regulated activity - Treatment of disease, disorder or injury",Service type - Care home service with nursing,Service type - Care home service without nursing,Service user band - Children 0-18 years,Service user band - Dementia,Service user band - Learning disabilities or autistic spectrum disorder,Service user band - Mental Health,Service user band - Older People,Service user band - Physical Disability,Service user band - Sensory Impairment,Service user band - Younger Adults,num_values_found,num_values_found.1,lad,msoa,area,Care homes beds,occupancy_mean,%occupancy_mean,probability_mean,occupancy_std,%occupancy_std,probability_std
1-106487846,2010-11-26,Y,Wordsley House,North East,Hartlepool,10 Westbourne Road,Hartlepool,TS25 5RE,54.676313,-1.218747,Hartlepool,*,,,Y,,,,Y,Y,,,Y,5,5,E06000001,E02002490,E00060255,8,7.0,90.0,0.95354,1.0,13.6931,0.09874
1-108920052,2010-12-08,Y,Dinsdale Lodge Care Home,North East,Hartlepool,42-44 Station Lane,Hartlepool,TS25 1BG,54.661326,-1.191813,Hartlepool,"Kennedy, Jean",Y,,Y,,Y,,,Y,Y,,Y,5,5,E06000001,E02002493,E00060512,26,20.0,76.0,0.94465,3.0,12.5811,0.04145
1-112230143,2010-12-08,Y,Clifton House Residential Care Home,North East,Hartlepool,94-96 Clifton Avenue,Hartlepool,TS26 9QP,54.683591,-1.228333,Hartlepool,"Gill, Hardeep",,,Y,,Y,,,Y,,,,6,6,E06000001,E02007059,E00060352,28,19.0,68.0,0.96747,5.0,17.1156,0.00982
1-112469305,2010-10-01,Y,Sheraton Court,North East,Hartlepool,Warren Road,Hartlepool,TS24 9HA,54.704818,-1.222607,Hartlepool,"Hall, Antony",,,Y,,Y,,,Y,Y,Y,,3,3,E06000001,E02002484,E00060478,80,79.0,98.0,0.90794,2.0,1.9094,0.07914
1-113569667,2011-03-07,Y,Seymour House (Hartlepool) Limited,North East,Hartlepool,The Front,Hartlepool,TS25 1DJ,54.657824,-1.186875,Hartlepool,"Burini, Vincent",Y,Y,,,,,Y,,,,,6,6,E06000001,E02002493,E00060501,20,20.0,98.0,0.91076,1.0,4.1833,0.09225
1-117131898,2010-12-10,Y,Seaton Hall Residential Home,North East,Hartlepool,10 The Green,Hartlepool,TS25 1AS,54.662846,-1.189224,Hartlepool,*,,,Y,,,,,Y,,,Y,6,6,E06000001,E02002493,E00060509,29,19.0,65.0,0.84628,6.0,20.0376,0.1576
1-125940754,2011-02-02,Y,Lindisfarne Hartlepool,North East,Hartlepool,Masefield Road,Hartlepool,TS25 4JY,54.67247,-1.240344,Hartlepool,"McAlear, Susan",Y,Y,,,Y,,Y,Y,Y,,,5,5,E06000001,E02002491,E00060432,54,52.0,96.0,0.87574,1.0,1.8519,0.117
1-128588922,2010-12-30,Y,Warrior Park Care Home,North East,Hartlepool,Queen Street,Hartlepool,TS25 1EZ,54.661771,-1.193788,Hartlepool,"Southall, Natasha",Y,Y,Y,,Y,,,Y,Y,,,6,6,E06000001,E02002493,E00060512,52,40.0,77.0,0.8729,6.0,10.9745,0.15604
1-129266327,2010-12-20,Y,Rosedale/Rosewood,North East,Hartlepool,5-7 Flaxton Street,Hartlepool,TS26 9JY,54.680442,-1.219258,Hartlepool,"Sheridan, Karen",,,Y,,,Y,,,,,,4,4,E06000001,E02002489,E00060518,6,4.0,75.0,0.91097,1.0,9.6225,0.10328
1-129266592,2010-12-20,Y,Charlotte Grange Care Home,North East,Hartlepool,Flaxton Street,Hartlepool,TS26 9JY,54.680442,-1.219258,Hartlepool,"Sheridan, Karen",,,Y,,Y,,,Y,,,,5,5,E06000001,E02002489,E00060518,46,45.0,99.0,0.92199,1.0,1.1907,0.03127
1-129459533,2010-12-20,Y,Five Penny House,North East,Hartlepool,Westbourne Road,Hartlepool,TS25 5RE,54.676313,-1.218747,Hartlepool,"Cannon, Andrew",,,Y,,,Y,,,,,Y,3,3,E06000001,E02002490,E00060255,6,5.0,89.0,0.87579,1.0,9.6225,0.11075
1-129459610,2010-12-20,Y,Greenfields Lodge,North East,Hartlepool,152A Stockton Road,Hartlepool,TS25 5BQ,54.670622,-1.218345,Hartlepool,"Cannon, Andrew",,,Y,,,Y,,,,,Y,0,0,E06000001,E02002490,E00060451,10,3.0,33.596284198526426,,,,
1-129459734,2010-12-20,Y,Hutton Avenue,North East,Hartlepool,13 Hutton Avenue,Hartlepool,TS26 9PW,54.684696,-1.222355,Hartlepool,"Cannon, Andrew",Y,Y,,,,Y,,Y,,,Y,3,3,E06000001,E02002489,E00060350,9,8.0,89.0,0.89869,1.0,11.1111,0.08287
1-129460119,2010-12-20,Y,South Highnam,North East,Hartlepool,Park Avenue,Hartlepool,TS26 0DZ,54.685133,-1.238757,Hartlepool,"Cannon, Andrew",,,Y,,,Y,,,,,Y,4,4,E06000001,E02007059,E00060417,8,7.0,88.0,0.95976,0.0,0.0,0.07016
1-143411578,2011-02-11,Y,Stichell House,North East,Hartlepool,The Hospital of God at Greatham,Hartlepool,TS25 2HS,54.641011,-1.239614,Hartlepool,"McAnelly, Lawrence",,,Y,,Y,,,Y,Y,Y,,4,4,E06000001,E02006909,E00060358,35,34.0,99.0,0.9357,1.0,1.6496,0.04046
1-143411594,2011-02-11,Y,Gretton Court,North East,Hartlepool,1 Heather Grove,Hartlepool,TS24 8QZ,54.698178,-1.229918,Hartlepool,"McAnelly, Lawrence",Y,Y,,,Y,,,Y,Y,Y,Y,4,4,E06000001,E02002485,E00060532,37,36.0,98.0,0.92024,1.0,2.5876,0.05515
1-146749379,2011-01-21,Y,Queens Meadow Care Home,North East,Hartlepool,327 Stockton Road,Hartlepool,TS25 5DF,54.66745,-1.218406,Hartlepool,"Vernon, Mandy",Y,,Y,,Y,,,Y,,,,5,5,E06000001,E02002492,E00060444,59,56.0,96.0,0.89238,2.0,2.8361,0.07817
1-2061693868,2015-06-15,Y,Burbank Mews,North East,Hartlepool,1-4  Burbank Mews,Hartlepool,TS24 7NY,54.681401,-1.20348,Hartlepool,"Chrystal, Sharon",,,Y,,,Y,,,,,,6,6,E06000001,E02002489,E00060531,12,8.0,62.0,0.98964,1.0,4.5644,0.01355
1-210176311,2011-04-05,Y,The Crescent Care Home Limited,North East,Hartlepool,7 South Crescent,Hartlepool,TS24 0QG,54.694668,-1.17821,Hartlepool,"Morgans, Claire",,,Y,,,Y,,,,,,3,3,E06000001,E02002484,E00060491,9,6.0,63.0,0.95566,2.0,16.9725,0.0503
1-3112570553,2017-01-31,Y,Brierton Lodge Care Home,North East,Hartlepool,Brierton Lane,Hartlepool,TS25 5DP,54.664765,-1.229977,Hartlepool,"Hall, Antony",Y,Y,,,Y,,Y,Y,Y,,,3,3,E06000001,E02002492,E00060468,58,57.0,99.0,0.84477,1.0,0.9954,0.10143
1-319253398,2011-10-19,Y,Elwick Grange,North East,Hartlepool,Elwick Road,Hartlepool,TS26 9LX,54.679308,-1.226119,Hartlepool,"Gilbert, Rachel",,,Y,,Y,Y,Y,Y,Y,,Y,4,4,E06000001,E02002489,E00060353,60,30.0,50.0,0.73535,33.0,54.3714,0.26281
1-3733952902,2017-05-05,Y,Wynyard Woods,North East,Hartlepool,Wynyard,Billingham,TS22 5GJ,54.640738,-1.356989,Hartlepool,"Martin, Robert",,,Y,,Y,,,Y,,,,5,5,E06000001,E02006909,E00188246,50,46.0,93.0,0.92548,1.0,1.0954,0.06054
1-3814241032,2017-05-18,Y,Rossmere Park Care Centre,North East,Hartlepool,1 Greenock Road,Hartlepool,TS25 4EU,54.661817,-1.236977,Hartlepool,"Savage, Michelle",Y,Y,,,Y,,,Y,Y,,Y,2,2,E06000001,E02002494,E00060411,51,47.0,92.0,0.89136,8.0,16.6378,0.06409
1-4349472590,2017-10-09,Y,De Bruce Court,North East,Hartlepool,Jones Road,Hartlepool,TS24 9BD,54.705286,-1.229753,Hartlepool,"Stockdale, David",Y,Y,,,Y,Y,Y,Y,Y,Y,Y,0,0,E06000001,E02002484,E00060285,46,42.0,91.08060942801228,,,,
1-8857104373,2020-06-01,Y,Westview Lodge Care Home,North East,Hartlepool,124A West View Road,Hartlepool,TS24 0BW,54.704691,-1.209666,Hartlepool,"Cunningham, Amanda",,,Y,,Y,,,Y,Y,,Y,4,4,E06000001,E02002484,E00060475,74,70.0,95.0,0.87909,4.0,4.8567,0.12951
1-894166807,2013-09-03,Y,Hope House,North East,Hartlepool,59 Hutton Avenue,Hartlepool,TS26 9PW,54.684696,-1.222355,Hartlepool,"Smith, Peter",Y,Y,,,,Y,Y,Y,,,Y,5,5,E06000001,E02002489,E00060350,11,7.0,60.0,0.92571,1.0,10.3652,0.07371
1-108736405,2010-11-26,Y,Highfield Cottage,North East,Middlesbrough,54 Highfield Road,Middlesbrough,TS4 2QP,54.562616,-1.218216,Middlesbrough,"Harrington, Emma",,,Y,,,Y,,,,,,2,2,E06000002,E02002501,E00060661,2,2.0,100.0,0.99811,0.0,0.0,0.0
1-110490983,2011-01-20,Y,Stainton Way,North East,Middlesbrough,Hemlington,Middlesbrough,TS8 9LX,54.514701,-1.235301,Middlesbrough South and East Cleveland,"Chopra, Tarsem",,,Y,,Y,,,Y,,,,3,3,E06000002,E02002513,E00188176,67,59.0,89.0,0.84081,3.0,3.7561,0.04185
1-111575993,2011-01-24,Y,Windermere Grange Care Home,North East,Middlesbrough,Windermere Road,Middlesbrough,TS5 5DH,54.557479,-1.251528,Middlesbrough,"Robertshaw, Hayley",,,Y,,Y,Y,,Y,,,,4,4,E06000002,E02002504,E00060809,64,38.0,60.0,0.93669,27.0,41.9723,0.03695
1-119188380,2011-03-02,Y,Royal Mencap Society - 50 Belle Vue Grove,North East,Middlesbrough,Mencap,Middlesbrough,TS4 2PZ,54.55803,-1.217824,Middlesbrough,"Cowman, John",,,Y,,,Y,,,,,,0,0,E06000002,E02002506,E00060625,5,5.0,96.8874746042134,,,,
1-120280928,2011-01-20,Y,Longlands Care Home,North East,Middlesbrough,35 Longlands Road,Middlesbrough,TS4 2JS,54.56584,-1.220628,Middlesbrough,"Massouras, Anthony",,,Y,,Y,,Y,Y,Y,,Y,5,5,E06000002,E02002501,E00060659,43,35.0,82.0,0.94473,6.0,13.5004,0.03402
1-120290049,2010-12-15,Y,RNID Action on Hearing Loss Ransdale House,North East,Middlesbrough,54 Caversham Road,Middlesbrough,TS4 3NU,54.545088,-1.220545,Middlesbrough South and East Cleveland,"Ford, Sharon",,,Y,,,Y,Y,,Y,Y,Y,2,2,E06000002,E02002509,E00060769,6,6.0,92.0,0.99811,1.0,11.7851,0.0
1-120299114,2011-01-20,Y,Roseleigh Care Home,North East,Middlesbrough,Lytton Street,Middlesbrough,TS4 2BZ,54.571112,-1.22011,Middlesbrough,"Massouras, Anthony",,,Y,,Y,,Y,Y,Y,,Y,4,4,E06000002,E02002496,E00188265,50,40.0,80.0,0.89421,6.0,11.431,0.13715
1-121773211,2011-03-15,Y,St Anne's Community Services - Astbury,North East,Middlesbrough,9-9a Astbury,Middlesbrough,TS8 9XT,54.518555,-1.192733,Middlesbrough South and East Cleveland,"Maguire, Susie",,,Y,,,Y,,,,,,2,2,E06000002,E02002512,E00060849,8,8.0,100.0,0.99728,0.0,0.0,0.00256
1-122174258,2011-02-03,Y,Loxley Chase Care Home,North East,Middlesbrough,3a & 5 The Crescent,Middlesbrough,TS5 6SD,54.558409,-1.243501,Middlesbrough,*,,,Y,,Y,,,Y,,,,3,3,E06000002,E02002500,E00060920,32,28.0,88.0,0.86098,3.0,8.268,0.17372
1-122174273,2011-02-03,Y,Ascot Nursing Home - Middlesbrough,North East,Middlesbrough,19-21 The Crescent,Middlesbrough,TS5 6SG,54.557502,-1.246518,Middlesbrough,*,Y,Y,,,Y,,,Y,Y,,,3,3,E06000002,E02002500,E00060924,34,31.0,90.0,0.89996,2.0,4.4927,0.12169
1-122852858,2010-11-30,Y,The Avenue Community Nursing Home,North East,Middlesbrough,47 The Avenue,Middlesbrough,TS5 6PE,54.557773,-1.241085,Middlesbrough,"Fellows, Patricia",Y,Y,,,,,Y,,,,Y,3,3,E06000002,E02002500,E00060923,13,13.0,97.0,0.84692,1.0,4.4412,0.00412
1-124120097,2010-12-30,Y,Walsingham Support - 6 Greenford Walk,North East,Middlesbrough,Walsingham,Middlesbrough,TS3 9NX,54.5583,-1.178635,Middlesbrough,"Burgess, Michael",,,Y,,,Y,,Y,,,Y,2,2,E06000002,E02002502,E00060983,6,4.0,75.0,0.99679,2.0,35.3553,0.00187
1-124601953,2011-01-12,Y,Victoria House,North East,Middlesbrough,Park Road North,Middlesbrough,TS1 3LD,54.566943,-1.228789,Middlesbrough,"Mccormick, Leanne",Y,Y,,,Y,,Y,Y,Y,,Y,0,0,E06000002,E02002496,E00060992,68,47.0,69.24662588064535,,,,
1-125058864,2010-12-21,Y,Saint John of God Hospitaller Services - 1-2 Dalby View,North East,Middlesbrough,1-2 Dalby View,Middlesbrough,TS8 0XR,54.521908,-1.21414,Middlesbrough South and East Cleveland,"Alcorn, Lisa",,,Y,,,Y,,,,,,4,4,E06000002,E02002514,E00060671,8,8.0,100.0,0.99777,0.0,0.0,0.00165
1-126240724,2010-11-25,Y,Kirkley Lodge,North East,Middlesbrough,Dalby Way,Middlesbrough,TS8 0TW,54.522243,-1.215093,Middlesbrough South and East Cleveland,"Martin, Robert",,,Y,,Y,,,Y,,,,4,4,E06000002,E02002514,E00060674,47,44.0,94.0,0.87759,2.0,3.6337,0.11544
1-129459671,2010-12-20,Y,Hemlington Hall,North East,Middlesbrough,Nuneaton Drive,Middlesbrough,TS8 9DA,54.524219,-1.248458,Middlesbrough South and East Cleveland,"Cannon, Andrew",,,Y,,,Y,,,,,Y,3,3,E06000002,E02002513,E00060737,8,7.0,88.0,0.82423,1.0,12.5,0.29889
1-129460056,2010-12-20,Y,Riverside & Roseberry Lodge,North East,Middlesbrough,North Ormesby Road,Middlesbrough,TS4 2AF,54.574165,-1.225373,Middlesbrough,"Cannon, Andrew",,,Y,,,Y,Y,Y,,,Y,2,2,E06000002,E02002496,E00060874,13,13.0,100.0,0.80991,0.0,0.0,0.21197
1-139859320,2011-01-11,Y,Woodside Resource Centre,North East,Middlesbrough,The Willows,Middlesbrough,TS4 3EB,54.549893,-1.218691,Middlesbrough,"Gilbert, Rachel",Y,Y,,,Y,Y,Y,Y,Y,,,3,3,E06000002,E02002506,E00060622,60,48.0,81.0,0.84863,12.0,19.317,0.09513
1-1400027206,2014-05-12,Y,Stainton Lodge Care Centre,North East,Middlesbrough,Stainton Way,Middlesbrough,TS8 9LX,54.514701,-1.235301,Middlesbrough South and East Cleveland,"Chopra, Tarsem",Y,Y,,,Y,,,Y,,,,4,4,E06000002,E02002513,E00188176,73,56.0,76.0,0.89675,15.0,21.0591,0.11273
1-146158647,2011-01-06,Y,Elizabeth House,North East,Middlesbrough,Elizabeth Terrace,Middlesbrough,TS3 6HE,54.570551,-1.214861,Middlesbrough,"Allick, Angela",,,Y,,Y,,,Y,Y,,Y,3,3,E06000002,E02002497,E00060827,35,31.0,90.0,0.95693,3.0,7.1903,0.00766
1-146749320,2011-01-21,Y,Gables Care Home,North East,Middlesbrough,31 Highfield Road,Middlesbrough,TS4 2PE,54.561311,-1.222168,Middlesbrough,"Vernon, Mandy",Y,Y,,,Y,,,Y,,,,0,0,E06000002,E02002501,E00060665,64,59.0,92.10756528439724,,,,
1-1470009506,2014-06-30,Y,Woodlands,North East,Middlesbrough,52 Church Lane,Middlesborough,TS5 7EB,54.545649,-1.25394,Middlesbrough,"Cannon, Andrew",,,Y,,,Y,Y,Y,Y,Y,Y,2,2,E06000002,E02002507,E00060560,14,12.0,82.0,0.95721,2.0,15.1523,0.00366
1-254917281,2011-05-23,Y,Nunthorpe Hall,North East,Middlesbrough,Eastside,Middlesbrough,TS7 0NP,54.511415,-1.166352,Middlesbrough South and East Cleveland,"Allick, Angela",,,Y,,,,,Y,,,,5,5,E06000002,E02006811,E00188286,35,18.0,50.0,0.78569,12.0,34.3808,0.22379
1-273676151,2011-08-26,Y,Evergreen Court,North East,Middlesbrough,Saltersgill Avenue,Middlesbrough,TS4 3LD,54.550961,-1.233992,Middlesbrough,"Ahitan, Sanjai",,,Y,,Y,,,Y,,,,3,3,E06000002,E02002506,E00060617,17,15.0,90.0,0.96361,1.0,3.3962,0.01632
1-2756203738,2016-07-18,Y,Tollesby Hall Nursing Home,North East,Middlesbrough,Slip In Bank,Middlesbrough,TS8 9EJ,54.536875,-1.220267,Middlesbrough South and East Cleveland,"Sisodia, Radhika",Y,Y,,,,,,Y,Y,,Y,3,3,E06000002,E02002509,E00060783,55,47.0,86.0,0.7389,6.0,10.0138,0.17778
1-2825401025,2016-10-05,Y,Apple Mews Care Home,North East,Middlesbrough,113 Burlam Road,Middlesbrough,TS5 5AR,54.559507,-1.256826,Middlesbrough,"Carter, Matthew",Y,Y,,,Y,,Y,Y,Y,Y,Y,3,3,E06000002,E02002504,E00060804,45,31.0,70.0,0.87005,3.0,7.1434,0.08367
1-308285392,2011-09-30,Y,Parkville Care Centre,North East,Middlesbrough,Walpole Street,Middlesbrough,TS1 4HA,54.572214,-1.243059,Middlesbrough,"Thirulinganathan, Antonio",Y,Y,Y,,Y,,,Y,,,Y,0,0,E06000002,E02002498,E00174116,94,84.0,88.93594675497256,,,,
1-3735636865,2017-05-05,Y,Middlesbrough Grange,North East,Middlesbrough,Netherfields,Middlesbrough,TS3 0RX,54.554953,-1.179351,Middlesbrough,"Martin, Robert",,,Y,,Y,,,Y,,,Y,4,4,E06000002,E02002502,E00060613,45,34.0,75.0,0.96956,5.0,10.6381,0.00756
1-3773998014,2017-06-27,Y,Aster Care,North East,Middlesbrough,26A Belle Vue Grove,Middlesbrough,TS4 2PX,54.557062,-1.221028,Middlesbrough,"Ahmad, Mohammad",Y,Y,,,Y,Y,Y,Y,Y,,Y,6,6,E06000002,E02002506,E00174107,102,43.0,42.0,0.88515,15.0,14.4709,0.10845
1-383755175,2012-03-09,Y,St Judes Residential Care Home Ltd,North East,Middlesbrough,20-22 Breckon Hill Road,Middlesbrough,TS4 2DR,54.569571,-1.221763,Middlesbrough,"Stephens, Elaine",,,Y,,,,Y,Y,,,Y,3,3,E06000002,E02002496,E00188220,15,14.0,93.0,0.96554,1.0,6.6667,0.00451
1-3938121019,2017-06-22,Y,Fountains Court,North East,Middlesbrough,19A The Pastures,Middlesbrough,TS8 0UJ,54.520354,-1.208716,Middlesbrough South and East Cleveland,"Allick, Angela",,,Y,,Y,,,Y,,,,2,2,E06000002,E02002514,E00060678,42,41.0,98.0,0.91707,0.0,0.0,0.0
1-417607253,2012-07-12,Y,22 Levick Court,North East,Middlesbrough,Cambridge Road,Middlesbrough,TS5 5JR,54.553653,-1.259329,Middlesbrough,"Scollay, Erik",,,Y,Y,,Y,,,,,Y,2,2,E06000002,E02002504,E00060795,16,8.0,47.0,0.99076,1.0,4.4194,0.01222
1-4196613841,2017-08-24,Y,The Bridge Care Centre,North East,Middlesbrough,Lower East Street,Middlesbrough,TS2 1SW,54.579947,-1.229471,Middlesbrough,"Murphy, Kathryn",Y,Y,,,Y,,Y,,Y,Y,,3,3,E06000002,E02002496,E00188254,40,12.0,29.0,0.9208,11.0,27.4241,0.06914
1-4437819999,2017-11-09,Y,Royal Mencap Society - 51 Bellevue Grove,North East,Middlesbrough,51 Belle Vue Grove,Middlesbrough,TS4 2PZ,54.55803,-1.217824,Middlesbrough,"Cowman, John",,,Y,,,Y,,,,,,0,0,E06000002,E02002506,E00060625,3,3.0,98.5586331591614,,,,
1-453187520,2012-10-03,Y,Lavender Court,North East,Middlesbrough,4 Beverley Road,Middlesbrough,TS4 3LQ,54.549286,-1.234811,Middlesbrough,"Ahitan, Sanjai",,,Y,,Y,,,Y,,,,2,2,E06000002,E02002506,E00060617,18,14.0,78.0,0.96298,1.0,7.8567,0.0045
1-4815489479,2018-04-13,Y,Montpellier Manor,North East,Middlesbrough,46 Strait Lane,Middlesbrough,TS8 9BD,54.522542,-1.262069,Middlesbrough South and East Cleveland,"Ryan, Daniel",,,Y,,Y,,,Y,Y,,,2,2,E06000002,E02002513,E00188195,85,52.0,61.0,0.88035,18.0,20.7973,0.07255
1-5034463164,2018-08-30,Y,Low Lane House,North East,Middlesbrough,18 Low Lane,Middlesbrough,TS5 8EA,54.531302,-1.243338,Middlesbrough,"Kennedy, Jayne",,,Y,,,Y,,,,,Y,3,3,E06000002,E02002508,E00188224,6,6.0,94.0,0.97999,1.0,9.6225,0.03321
1-5806471904,2018-09-28,Y,The Grove and The Courtyard,North East,Middlesbrough,341 Marton Road,Middlesbrough,TS4 2PH,54.559101,-1.223757,Middlesbrough,"Kerry, Louise",,,Y,,Y,,Y,Y,,,,3,3,E06000002,E02002501,E00060669,55,45.0,81.0,0.9189,7.0,13.402,0.05279
1-6239712767,2019-01-15,Y,St Mary's Care Home,North East,Middlesbrough,1-3 The Crescent,Middlesbrough,TS5 6SD,54.558409,-1.243501,Middlesbrough,"Shankar, Thanabalasingam",Y,Y,,,Y,Y,Y,,Y,,,4,4,E06000002,E02002500,E00060920,40,39.0,98.0,0.96229,1.0,2.0412,0.0155
1-6322255033,2019-03-01,Y,Delamere Lodge,North East,Middlesbrough,Delamere Road,Middlesbrough,TS3 7EB,54.552359,-1.201389,Middlesbrough South and East Cleveland,"Sisodia, Radhika",Y,Y,,,Y,Y,,Y,Y,Y,Y,0,0,E06000002,E02002505,E00060940,41,31.0,74.73267462169679,,,,
1-668519456,2013-04-04,Y,Cleveland View,North East,Middlesbrough,Cargo Fleet Lane,Middlesbrough,TS3 8NN,54.562898,-1.191425,Middlesbrough,"Emanuel, Howard",,,Y,,Y,,,Y,,,,5,5,E06000002,E02002499,E00060982,60,52.0,86.0,0.82813,4.0,5.9395,0.1803
1-7029974181,2019-11-22,Y,Brownlee Court,North East,Middlesbrough,Ormesby Road,Middlesbrough,TS3 7SF,54.558756,-1.201001,Middlesbrough,"Ahmad, Mohammad",Y,Y,,,Y,,Y,,Y,Y,,3,3,E06000002,E02002499,E00060897,116,41.0,35.0,0.81453,6.0,5.1963,0.16266
1-9193984234,2020-07-20,Y,Dalby Court Residential Care Home,North East,Middlesbrough,1 Dalby Court,Middlesbrough,TS8 0XE,54.523576,-1.212797,Middlesbrough South and East Cleveland,"O'Connor, Sheila",,,Y,,Y,,,Y,,,,5,5,E06000002,E02002514,E00060671,66,48.0,72.0,0.94693,7.0,10.6815,0.0277
1-9193984301,2020-07-20,Y,Nunthorpe Oaks Residential Care Home,North East,Middlesbrough,114 Guisborough Road,Middlesbrough,TS7 0JA,54.525368,-1.17021,Middlesbrough South and East Cleveland,"O'Connor, Sheila",,,Y,,Y,,,Y,,,,5,5,E06000002,E02006811,E00165819,56,45.0,80.0,0.93548,12.0,21.7462,0.06862
1-9717217573,2020-10-23,Y,The Grove,North East,Middlesbrough,97b,Middlesbrough,TS7 8AN,54.542702,-1.197883,Middlesbrough South and East Cleveland,"Thompson, Gary",,,Y,,,Y,,,Y,,Y,1,1,E06000002,E02006811,E00188200,5,3.0,60.0,0.98257,,,
1-105049765,2011-01-19,Y,Ann Charlton Lodge,North East,Redcar and Cleveland,Eden Hall Grove,Redcar,TS10 4PR,54.598742,-1.066901,Redcar,"Wilson, Peter",Y,Y,,,,,,,Y,,,4,4,E06000003,E02002519,E00061171,25,24.0,95.0,0.97676,0.0,2.0,0.00195
1-107248775,2010-12-08,Y,Greta Cottage,North East,Redcar and Cleveland,Greta Street,Saltburn By The Sea,TS12 1LS,54.579399,-0.974003,Middlesbrough South and East Cleveland,"Garcia, Heather",,,Y,,Y,,,Y,,,,3,3,E06000003,E02002521,E00061333,29,28.0,97.0,0.95699,2.0,5.9726,0.01249
1-108928531,2010-10-01,Y,Strathallen,North East,Redcar and Cleveland,6 Albion Terrace,Saltburn By The Sea,TS12 1JN,54.582045,-0.973797,Middlesbrough South and East Cleveland,*,,,Y,,,Y,,,,,,3,3,E06000003,E02002521,E00061328,9,7.0,81.0,0.99884,1.0,6.415,0.00064
1-110970535,2010-12-14,Y,Belmont View,North East,Redcar and Cleveland,Fountains Place,Guisborough,TS14 7JA,54.533458,-1.051761,Middlesbrough South and East Cleveland,"Parvin, Barry",,,Y,,Y,,,Y,,,,3,3,E06000003,E02002534,E00061115,50,48.0,97.0,0.97078,1.0,2.3094,0.02251
1-111120379,2010-12-24,Y,Germaina House,North East,Redcar and Cleveland,4-5 St Vincent Terrace,Redcar,TS10 1QL,54.61654,-1.077922,Redcar,*,,,Y,,Y,,,Y,Y,Y,,4,4,E06000003,E02002515,E00061024,18,14.0,75.0,0.95637,2.0,9.6225,0.01127
1-111585023,2011-01-24,Y,Guisborough Manor Care Home,North East,Redcar and Cleveland,Woodhouse Triangle,Guisborough,TS14 6QU,54.535037,-1.075788,Middlesbrough South and East Cleveland,"Robertshaw, Hayley",,,Y,,Y,,,Y,,,,3,3,E06000003,E02002533,E00061157,63,58.0,93.0,0.99052,4.0,6.0094,0.00851
1-112469356,2010-10-01,Y,Roseberry Court,North East,Redcar and Cleveland,Low Farm Drive,Redcar,TS10 4BF,54.602792,-1.077102,Redcar,"Hall, Antony",,,Y,,Y,,,Y,Y,Y,,7,7,E06000003,E02002519,E00188307,63,56.0,90.0,0.91141,4.0,6.5354,0.15517
1-114102359,2011-01-27,Y,Astune Rise Nursing Home,North East,Redcar and Cleveland,114 High Street,Middlesbrough,TS6 9EJ,54.559309,-1.146419,Redcar,"Thomas, Varghese",Y,Y,,,Y,,,Y,,,Y,4,4,E06000003,E02002525,E00061082,38,28.0,75.0,0.88367,3.0,8.9886,0.13603
1-114320427,2010-11-26,Y,Laurieston Care Home for the Elderly,North East,Redcar and Cleveland,Laurieston Care Home,Saltburn By The Sea,TS12 1JY,54.581219,-0.974947,Middlesbrough South and East Cleveland,*,,,Y,,,,,Y,,,,4,4,E06000003,E02002521,E00061328,16,7.0,44.0,0.70168,5.0,32.6758,0.23379
1-116014921,2011-01-24,Y,Mulroy's Seaview Nursing Home,North East,Redcar and Cleveland,19-22 Newcomen Terrace,Redcar,TS10 1AU,54.620302,-1.071565,Redcar,*,Y,Y,,,,,Y,,,,,5,5,E06000003,E02002515,E00061035,27,25.0,93.0,0.96157,2.0,6.0858,0.01847
1-118093258,2011-01-18,Y,Jervaulx Road,North East,Redcar and Cleveland,17 Jervaulx Road,Saltburn By The Sea,TS12 2NL,54.561051,-0.96752,Middlesbrough South and East Cleveland,"Rice, Patrick",,,Y,,,Y,,Y,,,Y,4,4,E06000003,E02002526,E00061353,18,11.0,62.0,0.9671,2.0,8.3333,0.02234
1-118619874,2010-11-11,Y,Redfern,North East,Redcar and Cleveland,6 Saint Vincent Terrace,Stockton On Tees,TS10 1QL,54.61654,-1.077922,Redcar,"Graham, Alison",,,Y,,,Y,,,,,,4,4,E06000003,E02002515,E00061024,7,4.0,57.0,0.72891,4.0,50.8432,0.3114
1-118619888,2010-11-11,Y,Vincent House,North East,Redcar and Cleveland,9 Saint Vincent Terrace,Stockton On Tees,TS10 1QL,54.61654,-1.077922,Redcar,"Graham, Alison",,,Y,,,Y,,,,,,3,3,E06000003,E02002515,E00061024,6,5.0,83.0,0.99766,1.0,16.6667,0.002
1-1221291142,2014-01-31,Y,St Peter's Court,North East,Redcar and Cleveland,Lord Street,Redcar,TS10 3JA,54.616802,-1.061795,Redcar,"Hall, Antony",,,Y,,Y,,,Y,,,Y,3,3,E06000003,E02002515,E00061023,67,54.0,80.0,0.9288,4.0,6.032,0.01299
1-124169770,2011-01-24,Y,Kenilworth Care Home,North East,Redcar and Cleveland,Duncan Place,Saltburn By The Sea,TS13 4PR,54.554816,-0.888109,Middlesbrough South and East Cleveland,*,,,Y,,,,,Y,,,,3,3,E06000003,E02002527,E00174135,20,20.0,98.0,0.97662,1.0,2.8868,0.00362
1-124590645,2011-01-12,Y,Four Seasons,North East,Redcar and Cleveland,Ox Close,Saltburn By The Sea,TS12 1NR,54.580904,-0.989932,Middlesbrough South and East Cleveland,"Mccormick, Leanne",Y,Y,,,Y,,Y,Y,,,,5,5,E06000003,E02002521,E00061324,72,60.0,84.0,0.82779,5.0,6.8324,0.20063
1-126668325,2011-04-20,Y,Real Life Options - 12 Linden Road,North East,Redcar and Cleveland,12 Linden Road,Saltburn By The Sea,TS12 2RU,54.567068,-0.94508,Middlesbrough South and East Cleveland,"Simon, Vivien",,,Y,,Y,Y,Y,Y,Y,Y,Y,3,3,E06000003,E02002524,E00061004,6,6.0,100.0,0.99876,0.0,0.0,0.00056
1-127987125,2010-12-17,Y,Moordale Court,North East,Redcar and Cleveland,4 Moordale Court,Saltburn By The Sea,TS12 3DX,54.536964,-0.960029,Middlesbrough South and East Cleveland,"Parry, Patricia",,,Y,,,Y,,Y,,,Y,2,2,E06000003,E02002530,E00061187,3,3.0,100.0,0.96901,0.0,0.0,0.04297
1-129460508,2010-12-20,Y,Bridge Court Bungalow,North East,Redcar and Cleveland,High Street,Middlesbrough,TS6 0LD,54.556474,-1.158678,Redcar,"Cannon, Andrew",,,Y,,,Y,,,,,Y,2,2,E06000003,E02002529,E00061253,6,6.0,100.0,0.99728,0.0,0.0,0.00256
1-1321003306,2014-06-02,Y,Hawthorns Residential Home,North East,Redcar and Cleveland,8 High Street,Loftus,TS13 4HW,54.55391,-0.886787,Middlesbrough South and East Cleveland,"Russi, Justin",,,Y,,Y,,,Y,,,Y,3,3,E06000003,E02002527,E00061196,15,11.0,71.0,0.97427,3.0,16.7774,0.02532
1-132198596,2011-01-10,Y,Upsall House Residential Home Limited,North East,Redcar and Cleveland,"Swans Corner, Guisborough Road",Middlesbrough,TS7 0LD,54.534352,-1.161388,Middlesbrough South and East Cleveland,"Stonehouse, Kathryn",,,Y,,,,,Y,,,,7,7,E06000003,E02002532,E00061118,30,24.0,81.0,0.92605,3.0,11.0315,0.08013
1-132341193,2011-01-28,Y,Avondale Lodge,North East,Redcar and Cleveland,6-7 Nelson Terrance,Redcar,TS10 1RX,54.616828,-1.074524,Redcar,*,,,Y,,,Y,,,,,,6,6,E06000003,E02002515,E00061024,12,10.0,88.0,0.96089,1.0,6.9722,0.01084
1-132341404,2011-01-28,Y,Beaufort House,North East,Redcar and Cleveland,2 St Vincent Street,Redcar,TS10 1QL,54.61654,-1.077922,Redcar,*,,,Y,,,Y,,,,,,5,5,E06000003,E02002515,E00061024,8,4.0,45.0,0.9443,2.0,22.7074,0.08588
1-1349256674,2014-05-15,Y,New Stead House,North East,Redcar and Cleveland,Kirkleatham Street,Redcar,TS10 1QR,54.615911,-1.079159,Redcar,"Cresswell, Rebekah",,,Y,,,Y,Y,,,,Y,2,2,E06000003,E02002515,E00061028,17,15.0,88.0,0.83065,0.0,0.0,0.134
1-136623698,2011-01-27,Y,Hawthorns Lodge Limited,North East,Redcar and Cleveland,8 High Street,Saltburn By The Sea,TS13 4HW,54.55391,-0.886787,Middlesbrough South and East Cleveland,"Russi, Justin",,,Y,,Y,,,Y,,,Y,3,3,E06000003,E02002527,E00061196,20,16.0,80.0,0.97479,3.0,15.0,0.01352
1-1396179243,2014-06-09,Y,Shoreline Nursing Home,North East,Redcar and Cleveland,2a Park Avenue,Redcar,TS10 3JZ,54.615232,-1.054042,Redcar,"Ahitan, Sanjai",Y,Y,,,Y,,,Y,,,Y,4,4,E06000003,E02002515,E00061460,44,39.0,88.0,0.96024,2.0,4.6853,0.01311
1-141351249,2011-01-24,Y,Briarwood Care Home,North East,Redcar and Cleveland,Normanby Road,Middlesbrough,TS6 9AE,54.569561,-1.165493,Redcar,"Vernon, Mandy",Y,Y,,,Y,,,Y,,,,0,0,E06000003,E02006910,E00061378,49,43.0,88.14647837615654,,,,
1-141351265,2011-01-24,Y,Hazelgrove Court Care Home,North East,Redcar and Cleveland,10-14 Randolph Street,Saltburn By The Sea,TS12 1LN,54.579529,-0.977063,Middlesbrough South and East Cleveland,"Vernon, Mandy",Y,Y,,,Y,,,Y,,,,4,4,E06000003,E02002521,E00061333,48,45.0,94.0,0.88738,2.0,4.5005,0.09515
1-146803721,2011-01-27,Y,Harmony House Nursing Home,North East,Redcar and Cleveland,178-180 Coatham Road,Redcar,TS10 1RA,54.616983,-1.083069,Redcar,"Hukkeri, Vinod",Y,Y,,,,,Y,,,,,5,5,E06000003,E02002515,E00061022,33,26.0,80.0,0.97136,3.0,9.7253,0.019
1-1632188868,2014-10-10,Y,Whitehouse Residential Home,North East,Redcar and Cleveland,Saltburn Road,Saltburn-by-the-sea,TS12 2PJ,54.570669,-0.938583,Middlesbrough South and East Cleveland,"Jackson, Robert",,,Y,,Y,,,Y,,,,3,3,E06000003,E02002524,E00061009,17,14.0,80.0,0.85652,2.0,8.9854,0.15612
1-1686676805,2014-11-05,Y,Blenheim House,North East,Redcar and Cleveland,1 Blenheim Terrace,Redcar,TS10 1QP,54.616463,-1.079704,Redcar,"Graham, Alison",,,Y,Y,,Y,,,,,Y,2,2,E06000003,E02002515,E00061028,7,3.0,43.0,0.99679,0.0,0.0,0.00187
1-1833074821,2015-01-07,Y,Pembroke Residential Home,North East,Redcar and Cleveland,81 Marine Parade,Saltburn By The Sea,TS12 1EL,54.585931,-0.976299,Middlesbrough South and East Cleveland,"Jackson, Robert",,,Y,,Y,,,Y,,,,4,4,E06000003,E02002521,E00061335,12,8.0,71.0,0.87751,2.0,15.9571,0.15115
1-2054240775,2015-06-18,Y,Ash Tree House,North East,Redcar and Cleveland,24 The Bungalows,Middlesbrough,TS6 7SQ,54.575168,-1.146057,Redcar,"Graham, Alison",,,Y,,,Y,,Y,,,Y,2,2,E06000003,E02002523,E00061091,5,4.0,80.0,0.99811,1.0,28.2843,0.0
1-2224861806,2015-11-03,Y,Castle Dene Care Home,North East,Redcar and Cleveland,Wilton Village,Redcar,TS10 4QY,54.570005,-1.097162,Redcar,"Endrodi, Alison",,,Y,,Y,Y,,Y,Y,,,3,3,E06000003,E02002525,E00061068,36,28.0,78.0,0.94964,1.0,2.7778,0.04002
1-2899445464,2016-11-16,Y,Clayton House,North East,Redcar and Cleveland,Victoria Terrace,Saltburn By The Sea,TS12 1HN,54.577065,-0.977929,Middlesbrough South and East Cleveland,"Bulmer, Carol",,,Y,,,,,Y,,,,2,2,E06000003,E02002521,E00061332,19,16.0,84.0,0.96377,3.0,14.8865,0.00425
1-339866898,2011-11-29,Y,Park House,North East,Redcar and Cleveland,150 Park Lane,Guisborough,TS14 6EP,54.537021,-1.058046,Middlesbrough South and East Cleveland,"Hall, Antony",,,Y,,Y,,Y,Y,,Y,,4,4,E06000003,E02002532,E00061129,56,53.0,94.0,0.95701,3.0,5.7171,0.03029
1-3836783291,2017-05-26,Y,Gracelands Care Home,North East,Redcar and Cleveland,Belmangate,Guisborough,TS14 7BD,54.528826,-1.045657,Middlesbrough South and East Cleveland,"Parvin, Barry",,,Y,,Y,Y,Y,Y,Y,Y,Y,3,3,E06000003,E02002534,E00061433,43,32.0,74.0,0.9666,2.0,3.5524,0.00545
1-449293479,2012-09-04,Y,Moorlands Nursing Home,North East,Redcar and Cleveland,Northgate,Guisborough,TS14 6JU,54.536694,-1.051934,Middlesbrough South and East Cleveland,"Russi, Justin",Y,Y,,,Y,,,Y,,,,3,3,E06000003,E02002532,E00061127,30,23.0,77.0,0.96424,4.0,12.0185,0.01896
1-497589106,2012-11-15,Y,Brookfield Care Home,North East,Redcar and Cleveland,High Street,Middlesbrough,TS6 8DX,54.569872,-1.115076,Redcar,"Endrodi, Alison",,,Y,,Y,Y,,Y,Y,,,5,5,E06000003,E02002525,E00061068,30,25.0,84.0,0.81983,3.0,11.6428,0.13074
1-5784571106,2018-10-24,Y,Sand Banks Care Centre,North East,Redcar and Cleveland,33-37 Kirkleatham Street,Redcar,TS10 1QH,54.6157,-1.07825,Redcar,"Thirulinganathan, Antonio",Y,Y,,,Y,,Y,Y,Y,Y,,5,5,E06000003,E02002515,E00061024,77,65.0,84.0,0.94572,7.0,9.1187,0.08584
1-6271224840,2019-01-21,Y,Yew Tree Care Centre,North East,Redcar and Cleveland,Presbytery,Redcar,TS10 4QN,54.597146,-1.07805,Redcar,"Thirulinganathan, Antonio",Y,Y,,,Y,,Y,,Y,Y,,3,3,E06000003,E02002519,E00061175,76,70.0,92.0,0.99127,1.0,1.5193,0.00257
1-6740954438,2019-07-25,Y,Spring Gardens,North East,Redcar and Cleveland,Spring Garden Lane,Middlesbrough,TS7 9HS,54.539435,-1.173202,Redcar,"Cannon, Andrew",,,Y,,,Y,,,,,,1,1,E06000003,E02006812,E00061289,6,6.0,100.0,0.9994,,,
1-6958525696,2019-07-31,Y,Marske Hall - Care Home with Nursing Physical Disability,North East,Redcar and Cleveland,Redcar Road,Redcar,TS11 6AA,54.592083,-1.020392,Redcar,"Reeman, Samantha",Y,Y,,,,,,Y,Y,,Y,1,1,E06000003,E02002520,E00061304,30,26.0,87.0,0.94256,,,
1-7888993395,2019-11-21,Y,The Meadowgate Centre,North East,Redcar and Cleveland,Meadowgate,Middlesborough,TS6 9NN,54.561642,-1.131538,Redcar,"Rice, Patrick",,,Y,,Y,,,Y,Y,Y,Y,1,1,E06000003,E02002525,E00061074,40,18.0,45.0,0.97947,,,
1-871576751,2013-07-30,Y,SeaView Care Home,North East,Redcar and Cleveland,41 Marine Parade,Saltburn By The Sea,TS12 1DY,54.585499,-0.972627,Middlesbrough South and East Cleveland,"Garcia, Heather",,,Y,,Y,,,Y,,,,3,3,E06000003,E02002521,E00061317,25,24.0,97.0,0.88739,1.0,2.3094,0.15537
1-9289256747,2020-10-05,Y,Primrose Court Care Home,North East,Redcar and Cleveland,241 Normanby Road,Middlesbrough,TS6 6SX,54.571816,-1.169329,Redcar,"Noohukannu, Alsahar",,,Y,,Y,,,Y,,,,5,5,E06000003,E02006910,E00061378,20,15.0,77.0,0.87247,1.0,5.7009,0.10878
1-107082503,2010-12-16,Y,Windsor Court Residential Home,North East,Stockton-on-Tees,44-50 Windsor Road,Stockton On Tees,TS18 4DZ,54.55941,-1.329522,Stockton South,"Mughal, Mohammed",,,Y,,Y,,,Y,Y,,,3,3,E06000004,E02002550,E00061625,32,29.0,91.0,0.98353,3.0,8.268,0.00462
1-111585008,2011-01-24,Y,Woodside Grange Care Home,North East,Stockton-on-Tees,Teddar Avenue,Stockton On Tees,TS17 9JP,54.533532,-1.289442,Stockton South,"Robertshaw, Hayley",Y,Y,Y,,Y,Y,Y,Y,Y,,Y,5,5,E06000004,E02002554,E00061942,121,87.0,72.0,0.76884,4.0,3.4375,0.19062
1-111640806,2010-10-01,Y,Chestnut Lodge Nursing Home,North East,Stockton-on-Tees,302 Norton Road,Stockton On Tees,TS20 2PU,54.580713,-1.310978,Stockton North,*,Y,Y,,,,,,Y,,,Y,2,2,E06000004,E02002544,E00061868,17,14.0,82.0,0.96298,1.0,8.3189,0.0045
1-117529575,2010-12-22,Y,Park House Rest Home,North East,Stockton-on-Tees,2 Richmond Road,Stockton On Tees,TS18 4DS,54.560592,-1.3304,Stockton South,*,,,Y,,Y,,,Y,,,Y,5,5,E06000004,E02002550,E00061622,18,15.0,86.0,0.8729,2.0,10.0922,0.16074
1-118619916,2010-11-11,Y,Oxbridge House,North East,Stockton-on-Tees,187 Oxbridge Lane,Stockton On Tees,TS18 4JB,54.562433,-1.339445,Stockton South,"Graham, Alison",,,Y,,,Y,,,,,,4,4,E06000004,E02002547,E00061572,13,8.0,63.0,0.89773,1.0,7.3648,0.10315
1-119188352,2011-03-02,Y,Royal Mencap Society - 71 Middleton Avenue,North East,Stockton-on-Tees,71 Middleton Avenue,Stockton On Tees,TS17 0LL,54.530371,-1.302183,Stockton South,"Cowman, John",,,Y,,,Y,,,,,,2,2,E06000004,E02002554,E00061949,6,6.0,100.0,0.70314,0.0,0.0,0.05291
1-119188394,2011-03-02,Y,Chestnut House,North East,Stockton-on-Tees,Mencap - 141 Acklam Road,Stockton On Tees,TS17 7JT,54.551451,-1.287739,Stockton South,"Cowman, John",,,Y,,,Y,,,,,,4,4,E06000004,E02002551,E00061964,6,5.0,79.0,0.99747,2.0,25.0,0.00222
1-120255488,2010-11-19,Y,Teesdale Lodge Nursing Home,North East,Stockton-on-Tees,Radcliffe Crescent,Stockton On Tees,TS17 6BS,54.560676,-1.302347,Stockton South,"Carter, Matthew",Y,Y,,,Y,,,Y,Y,,Y,5,5,E06000004,E02002551,E00061969,38,26.0,68.0,0.86932,4.0,11.7688,0.1449
1-122003561,2011-01-07,Y,The Hollies Residential Care Home,North East,Stockton-on-Tees,447 Norton Road,Stockton On Tees,TS20 2QQ,54.58527,-1.310528,Stockton North,"Gupta, Vivek",,,Y,,,,Y,,,,,1,1,E06000004,E02002541,E00061487,18,15.0,83.0,0.85995,,,
1-124239375,2011-03-11,Y,Stockton-on-Tees Borough Council - 1 Lanark Close,North East,Stockton-on-Tees,1 Lanark Close,Stockton-on-Tees,TS19 0UY,54.573026,-1.352827,Stockton South,"Workman, Ann",,,Y,,,,,Y,,,Y,1,1,E06000004,E02002547,E00061559,16,6.0,38.0,0.99547,,,
1-124239389,2011-03-11,Y,Stockton-on-Tees Borough Council - 31 Oak Road,North East,Stockton-on-Tees,29-31 Oak Road,Stockton-on-Tees,TS16 0AT,54.536524,-1.343436,Stockton South,"Workman, Ann",,,Y,,,Y,,,,,Y,3,3,E06000004,E02002555,E00061878,6,5.0,83.0,0.98718,1.0,16.6667,0.01894
1-124239432,2011-03-11,Y,Rosedale Centre,North East,Stockton-on-Tees,122 Marske Lane,Stockton-on-Tees,TS19 8UL,54.577549,-1.360011,Stockton South,"Workman, Ann",,,Y,,,,,Y,,,,3,3,E06000004,E02002545,E00061466,44,22.0,51.0,0.92788,18.0,40.1658,0.02099
1-125058850,2010-12-21,Y,Saint John of God Hospitaller Services - 22 Sandown Road,North East,Stockton-on-Tees,22 Sandown Road,Billingham,TS23 2BQ,54.615174,-1.291567,Stockton North,"Alcorn, Lisa",,,Y,,,Y,,,,,,3,3,E06000004,E02002536,E00061899,9,8.0,85.0,0.92481,2.0,25.66,0.12807
1-125861962,2011-02-15,Y,Briardene Care Home,North East,Stockton-on-Tees,West Avenue,Billingham,TS23 1DA,54.592301,-1.293001,Stockton North,"O'Reilly, Michael",Y,Y,,,Y,,,Y,,,,1,1,E06000004,E02002538,E00061923,34,33.0,97.0,0.96081,,,
1-126240914,2010-11-25,Y,Millbeck,North East,Stockton-on-Tees,High Street,Stockton On Tees,TS20 1DQ,54.590204,-1.311097,Stockton North,"Martin, Robert",,,Y,,Y,,,Y,,,,2,2,E06000004,E02002541,E00061825,30,15.0,50.0,0.97138,21.0,70.7107,0.00597
1-126668346,2011-04-20,Y,Real Life Options - 2 Frederick Street,North East,Stockton-on-Tees,2 Frederick Street,Stockton On Tees,TS18 2BF,54.569936,-1.314885,Stockton North,"Simon, Vivien",,,Y,,Y,Y,Y,Y,Y,Y,Y,2,2,E06000004,E02007060,E00061859,3,3.0,100.0,0.97828,0.0,0.0,0.02175
1-126668409,2011-04-20,Y,Real Life Options - 96 Bishopton Road,North East,Stockton-on-Tees,96 Bishopton Road,Stockton On Tees,TS18 4PA,54.570894,-1.325403,Stockton North,"Simon, Vivien",,,Y,,Y,Y,Y,Y,Y,Y,Y,2,2,E06000004,E02002546,E00061782,6,6.0,100.0,0.9986,0.0,0.0,0.00069
1-129460104,2010-12-20,Y,Saxon Lodge,North East,Stockton-on-Tees,South Road,Stockton On Tees,TS20 2TB,54.584603,-1.301304,Stockton North,"Cannon, Andrew",,,Y,,,Y,,,,,Y,3,3,E06000004,E02002544,E00061815,9,9.0,100.0,0.99811,0.0,0.0,0.0
1-136308194,2011-03-16,Y,Ashwood Lodge Care Home,North East,Stockton-on-Tees,Bedale Avenue,Billingham,TS23 1AW,54.5957,-1.287091,Stockton North,"Ahmed, Tallat",,,Y,,Y,,,Y,,,,5,5,E06000004,E02002538,E00061920,25,20.0,82.0,0.87609,2.0,8.2946,0.09487
1-146749347,2011-01-21,Y,Mandale Care Home,North East,Stockton-on-Tees,136 Acklam Road,Stockton On Tees,TS17 7JR,54.552922,-1.291873,Stockton South,"Vernon, Mandy",,Y,,,Y,,,Y,,,,5,5,E06000004,E02002551,E00061964,57,42.0,73.0,0.8299,3.0,5.0543,0.16507
1-146749363,2011-01-21,Y,Beeches Care Home,North East,Stockton-on-Tees,Green Lane,Stockton On Tees,TS19 0DW,54.571954,-1.325929,Stockton North,"Vernon, Mandy",Y,,Y,,Y,,,Y,,,,7,7,E06000004,E02002546,E00061783,64,46.0,71.0,0.84374,8.0,12.5603,0.14741
1-146749395,2011-01-21,Y,Ingleby Care Home,North East,Stockton-on-Tees,Lamb Lane,Stockton On Tees,TS17 0QP,54.515426,-1.316371,Stockton South,"Vernon, Mandy",,Y,,,Y,,,Y,,,,0,0,E06000004,E02007062,E00061682,56,49.0,88.01729698220868,,,,
1-146797079,2011-01-24,Y,Churchview Nursing and Residential Home,North East,Stockton-on-Tees,Thompson Street,Stockton On Tees,TS18 2NY,54.5711,-1.313151,Stockton North,"Hukkeri, Vinod",Y,Y,,,,,,Y,,,,2,2,E06000004,E02007060,E00061858,47,40.0,86.0,0.7712,8.0,16.5493,0.29826
1-185480001,2011-04-28,Y,Windsor Lodge,North East,Stockton-on-Tees,60 Bowesfield Lane,Stockton On Tees,TS18 3ET,54.5578,-1.317485,Stockton North,"Mughal, Mohammed",,,Y,,,,Y,,,,,3,3,E06000004,E02007061,E00061847,15,8.0,56.0,0.97078,1.0,7.698,0.02487
1-1909942363,2015-04-13,Y,The Poplars Care Home,North East,Stockton-on-Tees,375 Thornaby Road,Stockton On Tees,TS17 8QN,54.541601,-1.303136,Stockton South,"Jothinath, Srivarun",Y,Y,,,Y,,,Y,,,Y,4,4,E06000004,E02002553,E00061987,43,37.0,86.0,0.95637,2.0,5.0238,0.00523
1-2017529554,2015-04-27,Y,Willow View Care Home,North East,Stockton-on-Tees,1 Norton Court,Stockton On Tees,TS20 2BL,54.578002,-1.311037,Stockton North,"Ghura, Apinder",,,Y,,Y,,,Y,Y,Y,,0,0,E06000004,E02002544,E00061499,77,43.0,55.52389203334393,,,,
1-2107676980,2015-07-01,Y,Longlast,North East,Stockton-on-Tees,Thorpe Road,Stockton On Tees,TS21 3LB,54.597443,-1.383705,Stockton North,"Heslop, Joanne",,,Y,,,Y,Y,,Y,,Y,2,2,E06000004,E02002539,E00061989,11,9.0,82.0,0.81543,0.0,0.0,0.15423
1-2177561127,2015-08-21,Y,The Maple Care Home,North East,Stockton-on-Tees,Dover Road,Stockton on Tees,TS19 0JS,54.577775,-1.323946,Stockton North,"Knights, Adam",Y,Y,Y,,Y,,Y,Y,Y,Y,Y,4,4,E06000004,E02002546,E00061776,63,50.0,79.0,0.95811,5.0,7.5571,0.03079
1-2207721140,2015-11-12,Y,Glenthorne Court,North East,Stockton-on-Tees,377 Norton Road,Stockton-on-tees,TS20 2PJ,54.583204,-1.311276,Stockton North,"Graham, Alison",,,Y,,,Y,Y,Y,,,Y,3,3,E06000004,E02002544,E00061492,9,6.0,70.0,0.93512,2.0,23.1296,0.07452
1-248487079,2011-06-24,Y,The White House Care Home,North East,Stockton-on-Tees,76a Darlington Road,Stockton On Tees,TS18 5ET,54.55395,-1.346728,Stockton South,"Endrodi, Alison",,,Y,,Y,,,Y,Y,,,3,3,E06000004,E02002550,E00061652,29,23.0,80.0,0.79114,3.0,10.5347,0.16187
1-2579811782,2016-04-28,Y,Green Lodge,North East,Stockton-on-Tees,Billingham,Stockton-on-Tees,TS23 1EW,54.594767,-1.291983,Stockton North,"Knight, Hayden",,,Y,,Y,,,Y,,,,4,4,E06000004,E02002538,E00061922,55,17.0,30.0,0.94196,15.0,27.1462,0.09088
1-279562500,2011-07-18,Y,Edwardian,North East,Stockton-on-Tees,72 Yarm Road,Stockton On Tees,TS18 3PQ,54.556606,-1.324698,Stockton South,"Matthews, Joanne",,,Y,,,Y,Y,,,,,2,2,E06000004,E02007061,E00061849,11,10.0,91.0,0.98018,1.0,12.8565,0.02566
1-2874010656,2016-10-17,Y,Roseworth Lodge Care Home,North East,Stockton-on-Tees,Redhill Road,Stockton On Tees,TS19 9BY,54.587486,-1.341209,Stockton North,"Hukkeri, Vinod",Y,Y,,,Y,,,Y,Y,,Y,4,4,E06000004,E02002542,E00061767,48,42.0,87.0,0.96724,7.0,14.2699,0.03106
1-314708833,2011-10-28,Y,Real Life Options - Darlington Road,North East,Stockton-on-Tees,54 Darlington Road,Stockton On Tees,TS18 5EW,54.555054,-1.341499,Stockton South,"Simon, Vivien",,,Y,,Y,Y,Y,Y,Y,Y,Y,3,3,E06000004,E02002550,E00061650,7,7.0,100.0,0.9984,0.0,0.0,0.00059
1-319264588,2011-10-19,Y,Hadrian Park,North East,Stockton-on-Tees,Marsh House Avenue,Billingham,TS23 3DF,54.613049,-1.282839,Stockton North,"Gilbert, Rachel",,,Y,,Y,Y,Y,Y,Y,,Y,5,5,E06000004,E02002537,E00061607,74,63.0,86.0,0.92621,7.0,9.2939,0.0829
1-320350678,2011-10-31,Y,Highfield (Stockton),North East,Stockton-on-Tees,Highfield Care Centre,Yarm,TS15 9XH,54.498034,-1.355293,Stockton South,"Hall, Antony",,,Y,,,,,Y,Y,,Y,4,4,E06000004,E02002558,E00062029,40,25.0,62.0,0.86862,14.0,34.5431,0.13245
1-320756032,2011-10-31,Y,Victoria House Nursing Home,North East,Stockton-on-Tees,Bath Lane,Stockton On Tees,TS18 2DX,54.568649,-1.308877,Stockton North,"Hall, Antony",Y,Y,,,Y,,,Y,,,Y,3,3,E06000004,E02007060,E00188171,70,31.0,44.0,0.99151,27.0,38.1815,0.00829
1-327059090,2011-11-01,Y,Allington House,North East,Stockton-on-Tees,Marsh House Avenue,Billingham,TS23 3ET,54.617671,-1.28375,Stockton North,"Goldstein, Alan",Y,Y,,,Y,,,Y,,,Y,4,4,E06000004,E02002535,E00061752,49,45.0,91.0,0.90792,1.0,1.9539,0.07631
1-327497984,2011-11-01,Y,Ayresome Court,North East,Stockton-on-Tees,Green Lane,Yarm,TS15 9EH,54.494792,-1.349045,Stockton South,"Harkin, Karen",Y,Y,,,Y,,Y,Y,Y,Y,Y,4,4,E06000004,E02002558,E00174174,43,34.0,78.0,0.9403,5.0,12.0841,0.03638
1-327573482,2011-11-01,Y,Piper Court,North East,Stockton-on-Tees,Sycamore Way,Stockton-on-Tees,TS19 8FR,54.584449,-1.346132,Stockton North,"Harkin, Karen",Y,Y,,,,,Y,Y,,,Y,5,5,E06000004,E02002543,E00188238,60,44.0,74.0,0.97057,11.0,18.6562,0.00952
1-327616973,2011-11-01,Y,Wellburn House,North East,Stockton-on-Tees,Wellburn Road,Stockton-on-Tees,TS19 7PP,54.566095,-1.360809,Stockton South,"Harkin, Karen",,,Y,,Y,,,Y,,,Y,6,6,E06000004,E02002549,E00061480,90,39.0,44.0,0.94333,22.0,24.1668,0.03623
1-3296246220,2017-03-17,Y,Springwood,North East,Stockton-on-Tees,66 Darlington Back Lane,Stockton On Tees,TS19 8TG,54.574071,-1.368573,Stockton South,"Kennedy, Jayne",,,Y,,,Y,,,,,,2,2,E06000004,E02002545,E00061471,6,6.0,92.0,0.99571,1.0,11.7851,0.00521
1-3624613029,2017-04-03,Y,Stockton Lodge Care Home,North East,Stockton-on-Tees,Harrowgate Lane,Stockton On Tees,TS19 8HD,54.588504,-1.358354,Stockton North,"McBride, Melissa Jayne",,,Y,,Y,,Y,Y,Y,Y,Y,4,4,E06000004,E02002543,E00188273,42,32.0,77.0,0.91507,2.0,5.2794,0.05526
1-3831722536,2017-06-28,Y,Alexandra House,North East,Stockton-on-Tees,Summerhouse Square,Stockton On Tees,TS20 1BH,54.589691,-1.312668,Stockton North,"Graham, Alison",,,Y,,,Y,Y,,,,Y,2,2,E06000004,E02002541,E00061830,7,6.0,93.0,0.99624,1.0,10.1015,0.00265
1-5123732549,2018-05-08,Y,Roseville Care Centre,North East,Stockton-on-Tees,Blair Avenue,Stockton-on-tees,TS17 5BL,54.518585,-1.319947,Stockton South,"Thirulinganathan, Antonio",Y,Y,,,Y,,Y,Y,Y,Y,,1,1,E06000004,E02007062,E00174137,103,93.0,90.0,0.98795,,,
1-543983962,2013-02-11,Y,Elton Hall Care Home,North East,Stockton-on-Tees,Elton Village,Stockton On Tees,TS21 1AG,54.550093,-1.378946,Stockton North,"Emanuel, Howard",,,Y,,Y,,Y,Y,,,Y,2,2,E06000004,E02002539,E00061873,70,40.0,57.0,0.95855,13.0,18.1827,0.00124
1-6129757660,2018-12-10,Y,Reuben Manor,North East,Stockton-on-Tees,654-656 Yarm Road,Stockton-on-Tees,TS16 0DP,54.520169,-1.353601,Stockton South,"Ryan, Daniel",,,Y,,Y,,,Y,Y,Y,Y,2,2,E06000004,E02002555,E00061528,83,60.0,72.0,0.87238,14.0,17.0387,0.04879
1-6150668927,2018-12-17,Y,Cherry Tree Care Centre,North East,Stockton-on-Tees,South Road,Stockton-on-tees,TS20 2TB,54.584603,-1.301304,Stockton North,"Hukkeri, Vinod",,,Y,,Y,,Y,Y,Y,Y,Y,2,2,E06000004,E02002544,E00061815,42,38.0,90.0,0.94568,0.0,0.0,0.0178
1-6371562655,2019-02-13,Y,St Mark's Care Home,North East,Stockton-on-Tees,1 Hartburn Lane,Stockton-on-tees,TS18 3QJ,54.555208,-1.327086,Stockton South,"Forster, Robin",Y,Y,,,Y,,Y,,Y,Y,,4,4,E06000004,E02007061,E00061834,39,30.0,76.0,0.94947,4.0,9.9031,0.03073
1-7279661481,2019-08-23,Y,Primrose Court Nursing Home,North East,Stockton-on-Tees,South Road,Stockton-on-tees,TS20 2TB,54.584603,-1.301304,Stockton North,"Hukkeri, Vinod",Y,Y,,,Y,,Y,Y,Y,Y,Y,3,3,E06000004,E02002544,E00061815,54,41.0,77.0,0.90258,8.0,14.9683,0.01949
1-8019575231,2019-12-16,Y,Allison House,North East,Stockton-on-Tees,Fudan Way,Stockton-on-tees,TS17 6EN,54.563502,-1.300796,Stockton South,"Inani, Sunil",Y,Y,,,Y,,Y,Y,Y,Y,Y,5,5,E06000004,E02002551,E00061965,38,35.0,92.0,0.89149,4.0,11.1648,0.16389
1-8117612225,2019-12-31,Y,Lorne House,North East,Stockton-on-Tees,66 Yarm Road,Stockton-on-tees,TS18 3PQ,54.556606,-1.324698,Stockton South,"Thompson, Paul",,,Y,,,Y,,Y,,,Y,5,5,E06000004,E02007061,E00061849,13,12.0,95.0,0.85024,1.0,6.8802,0.16954
RX3LD,2010-06-17,Y,367 Thornaby Road,North East,Stockton-on-Tees,Thornaby,Stockton On Tees,TS17 8QW,54.543157,-1.30331,Stockton South,"Moody, Elizabeth",Y,Y,,,,Y,Y,,,,Y,2,2,E06000004,E02002553,E00061985,5,4.0,90.0,0.92864,1.0,14.1421,0.09825
1-10087232541,2020-12-31,Y,Cleveland Terrace,North East,Darlington,10 Cleveland Terrace,Darlington,DL3 7HA,54.522161,-1.565745,Darlington,"Bown, Leigh",,,Y,,,Y,Y,,,,Y,0,0,E06000005,E02002568,E00062113,4,4.0,95.80299723831529,,,,
1-1040452175,2013-10-29,Y,Springfield Care Home Limited,North East,Darlington,Wylam Avenue,Darlington,DL1 2QA,54.545112,-1.536239,Darlington,"Daniels, Natalie",,,Y,,Y,,,Y,,,Y,1,1,E06000005,E02002561,E00062186,40,36.0,90.0,0.77948,,,
1-110186615,2011-02-23,Y,Moorlands Residential Care Home,North East,Darlington,57-61 Stanhope Road North,Darlington,DL3 7AP,54.526705,-1.562922,Darlington,*,,,Y,,,,,Y,,,,3,3,E06000005,E02007058,E00062067,19,34.0,177.0,0.9258,25.0,133.7022,0.08062
1-111575962,2011-01-24,Y,Willow Green Care Home,North East,Darlington,Eastborne Road,Darlington,DL1 4ER,54.52093,-1.536791,Darlington,"Robertshaw, Hayley",Y,Y,,,Y,,,Y,,,Y,7,7,E06000005,E02002570,E00062052,63,47.0,75.0,0.85347,8.0,12.0189,0.18438
1-114061417,2011-01-24,Y,Darlington Manor Care Home,North East,Darlington,70 Falmer Road,Darlington,DL1 4AZ,54.518939,-1.540852,Darlington,*,,,Y,,Y,,,Y,,,Y,3,3,E06000005,E02002570,E00062237,60,42.0,69.0,0.9288,8.0,13.9775,0.08228
1-114102342,2011-01-27,Y,Wilton House Nursing Home,North East,Darlington,Wilton Drive,Darlington,DL3 9RE,54.526612,-1.587067,Darlington,"Thomas, Varghese",Y,Y,,,Y,,,Y,,,,3,3,E06000005,E02002569,E00062215,37,29.0,79.0,0.80253,3.0,8.2569,0.15852
1-116352327,2011-01-13,Y,Middleton Hall Retirement Village,North East,Darlington,Middleton Hall Limited,Darlington,DL2 1HA,54.513375,-1.448099,Sedgefield,"Lamont, Deborah",Y,Y,,,,,,Y,,,,3,3,E06000005,E02002573,E00188308,90,71.0,79.0,0.84297,4.0,4.8432,0.06819
1-116984518,2010-11-18,Y,The Gardens Care Home,North East,Darlington,Pondfield Close,Darlington,DL3 8LH,54.519139,-1.588971,Darlington,"Nesbit, Gareth",,,Y,,,,,Y,Y,,,4,4,E06000005,E02002569,E00062223,60,47.0,78.0,0.91426,7.0,11.416,0.04213
1-120641840,2010-11-26,Y,The Avenue,North East,Darlington,72 Bates Avenue,Darlington,DL3 0TU,54.539384,-1.582879,Darlington,*,,,Y,,,Y,,Y,,,,2,2,E06000005,E02002564,E00062074,3,2.0,83.0,0.72938,1.0,23.5702,0.16959
1-125046787,2010-12-21,Y,St John of God Care Services Lindisfarne,North East,Darlington,Lindisfarne Court,Darlington,DL1 2DZ,54.540444,-1.522033,Darlington,"Alcorn, Lisa",,,Y,,,Y,,,,,,2,2,E06000005,E02002563,E00062166,13,12.0,96.0,0.85795,1.0,5.4393,0.07122
1-125856184,2011-02-15,Y,Hundens Park,North East,Darlington,Hundens Lane,Darlington,DL1 1JF,54.528671,-1.535953,Darlington,"O'Reilly, Michael",Y,Y,,,Y,,,Y,Y,,Y,3,3,E06000005,E02002567,E00188207,49,42.0,86.0,0.94838,0.0,0.0,0.03108
1-125861622,2011-02-15,Y,North Park,North East,Darlington,L'Anson Street,Darlington,DL3 0SW,54.543428,-1.557565,Darlington,"O'Reilly, Michael",,,Y,,Y,,Y,Y,Y,,Y,4,4,E06000005,E02002562,E00062288,60,52.0,86.0,0.86117,4.0,7.2489,0.13729
1-126240410,2010-11-25,Y,Elderwood Residential Home,North East,Darlington,Westmoreland Street,Darlington,DL3 0FB,54.540273,-1.554316,Darlington,"Martin, Robert",,,Y,,Y,,,Y,,,Y,3,3,E06000005,E02002562,E00062300,40,37.0,93.0,0.93305,2.0,5.7735,0.02992
1-126823537,2010-12-10,Y,Middleton St George Healthcare Limited,North East,Darlington,24 Station Road,Darlington,DL3 6SU,54.53434,-1.554526,Darlington,"Stone, Jane",Y,Y,,,,,Y,,,,Y,2,2,E06000005,E02007058,E00062312,3,2.0,83.0,0.94933,1.0,23.5702,0.06899
1-132341278,2011-01-28,Y,Middleton Lodge,North East,Darlington,Station Road,Darlington,DL2 1JA,54.517687,-1.469699,Sedgefield,*,,,Y,,,Y,Y,,,,,1,1,E06000005,E02002573,E00062263,10,8.0,80.0,0.96735,,,
1-132341348,2011-01-28,Y,Firtree House,North East,Darlington,37 Pease Street,Darlington,DL1 4EX,54.522302,-1.534264,Darlington,*,,,Y,,,Y,,,,,,2,2,E06000005,E02002570,E00062051,10,8.0,75.0,0.85764,1.0,7.0711,0.16559
1-132771847,2010-12-30,Y,Holicote,North East,Darlington,93 Newton Lane,Darlington,DL3 9HH,54.540128,-1.592887,Darlington,"Stroyan, James",,,Y,,,Y,,Y,,,Y,4,4,E06000005,E02002564,E00062095,5,2.0,40.0,0.81761,1.0,28.2843,0.18788
1-137331161,2011-02-16,Y,Clervaux Trust,North East,Darlington,11 Abbey Road,Darlington,DL3 7RA,54.525138,-1.564623,Darlington,"Bown, Leigh",,,Y,,,Y,Y,,,,Y,2,2,E06000005,E02002568,E00062112,3,2.0,83.0,0.98273,1.0,23.5702,0.02175
1-1475546653,2014-07-01,Y,Bewick House,North East,Darlington,86 Whinfield Road,Darlington,DL1 3HW,54.543225,-1.52017,Darlington,"Cannon, Andrew",,,Y,,,Y,,,,,Y,4,4,E06000005,E02002561,E00062181,6,6.0,96.0,0.76004,4.0,75.0,0.05526
1-2503001605,2016-10-05,Y,Eastbourne Care Home,North East,Darlington,5-7 Cobden Street,Darlington,DL1 4JF,54.522033,-1.532212,Darlington,"Carr, Sandra",Y,Y,,,Y,,,Y,,,,3,3,E06000005,E02002570,E00062050,41,32.0,79.0,0.81087,5.0,11.2654,0.09844
1-2577281231,2016-05-23,Y,The Lawns Care Home,North East,Darlington,Ridsdale Street,Darlington,DL1 4EG,54.52212,-1.53836,Darlington,"Fogg, Joanne",,,Y,,Y,,,Y,Y,Y,,6,6,E06000005,E02002570,E00062052,62,44.0,71.0,0.85137,9.0,14.369,0.13941
1-2652866801,2016-05-23,Y,The Grange,North East,Darlington,Whinbush Way,Darlington,DL1 3PT,54.545743,-1.525712,Darlington,"Fogg, Joanne",,,Y,,Y,,,Y,Y,Y,,3,3,E06000005,E02002563,E00062188,74,64.0,87.0,0.93284,5.0,6.3862,0.09623
1-304850185,2011-12-13,Y,Oak Lodge,North East,Darlington,Stockton Street,Darlington,DL1 2RY,54.539313,-1.517857,Darlington,"Smith, Stephen",,,Y,,,,,Y,,,Y,8,8,E06000005,E02002563,E00062157,28,14.0,48.0,0.92914,2.0,6.0368,0.06427
1-3091399847,2016-12-05,Y,Rydal Care Home,North East,Darlington,Rydal Road,Darlington,DL1 4BH,54.518226,-1.539525,Darlington,"Farebrother, Colin",Y,Y,,,Y,,,Y,,,Y,8,8,E06000005,E02002570,E00062237,60,41.0,68.0,0.86839,9.0,14.9453,0.18241
1-311343641,2011-06-14,Y,Ashleigh House,North East,Darlington,460 North Road,Darlington,DL1 3AF,54.552323,-1.547265,Darlington,"Heginbotham, Martyn",,,Y,,Y,,Y,,,,,5,5,E06000005,E02002560,E00062147,30,18.0,61.0,0.94688,4.0,14.6439,0.03533
1-319265076,2011-10-19,Y,Ventress Hall Care Home,North East,Darlington,22-28 Trinity Road,Darlington,DL3 7AZ,54.526999,-1.567276,Darlington,"Gilbert, Rachel",Y,Y,,,Y,Y,Y,Y,Y,,Y,4,4,E06000005,E02002568,E00062103,106,70.0,66.0,0.87212,5.0,5.1672,0.20082
1-6302616813,2019-02-22,Y,Auguste Communities Care Centre,North East,Darlington,Middleton St. George,Darlington,DL2 1TS,54.517108,-1.433158,Sedgefield,"Thirulinganathan, Antonio",Y,Y,,,Y,,Y,,Y,Y,,0,0,E06000005,E02002573,E00188216,83,74.0,88.76928099156903,,,,
1-779720016,2013-07-01,Y,Eden Cottage Care Home,North East,Darlington,37 Cobden Street,Darlington,DL1 4JF,54.522033,-1.532212,Darlington,"Horton, Ralph",,,Y,,Y,,,Y,Y,,,3,3,E06000005,E02002570,E00062050,22,20.0,91.0,0.93974,3.0,12.0261,0.03686
1-894136857,2013-09-03,Y,Redlands Residential Care Home,North East,Darlington,122 Woodland Road,Darlington,DL3 9LP,54.530395,-1.569558,Darlington,"Smith, Peter",,,Y,,,Y,Y,Y,,,Y,2,2,E06000005,E02007058,E00062378,5,4.0,70.0,0.65923,2.0,42.4264,0.29441
1-894137543,2013-09-03,Y,River View Residential Home,North East,Darlington,Victoria House,Darlington,DL1 5JR,54.520262,-1.553274,Darlington,"Smith, Peter",,,Y,,,Y,Y,Y,,,Y,0,0,E06000005,E02002572,E00062328,6,6.0,97.04252932504606,,,,
1-894282013,2013-09-03,Y,Hollyhurst,North East,Darlington,118 Woodland Road,Darlington,DL3 9LN,54.530636,-1.568498,Darlington,"Smith, Peter",Y,Y,,,,Y,Y,Y,,,Y,5,5,E06000005,E02007058,E00062378,22,14.0,65.0,0.74914,1.0,4.9793,0.20262
1-9297586527,2020-08-06,Y,Grosvenor Park Care Home,North East,Darlington,Burnside Road,Darlington,DL1 4SU,54.51557,-1.524949,Darlington,"Cunningham, Amanda",,,Y,,Y,,,Y,,,,4,4,E06000005,E02002571,E00174195,61,56.0,91.0,0.92424,4.0,6.3492,0.05705
1-9297586735,2020-08-06,Y,Riverside View Care Home,North East,Darlington,Hutton Avenue,Darlington,DL1 2AQ,54.539739,-1.53188,Darlington,"Cunningham, Amanda",,,Y,,Y,,,Y,Y,,,4,4,E06000005,E02002563,E00062195,59,49.0,83.0,0.93012,10.0,17.2502,0.01404
1-1000711804,2013-12-12,Y,Belmont Grange Nursing and Residential Home,North East,County Durham,Broomside Lane,Durham,DH1 2QW,54.786148,-1.52816,City of Durham,"Moran, Barbara",Y,Y,,,,,,Y,Y,,Y,4,4,E06000047,E02004312,E00104950,30,27.0,90.0,0.87043,3.0,9.4281,0.09076
1-10079588350,2021-01-14,Y,Cedar Court Residential and Nursing Home,North East,County Durham,Portland Avenue,Seaham,SR7 8BT,54.836137,-1.358871,Easington,"O'Connor, Sheila",Y,Y,,,Y,,,Y,Y,,,3,3,E06000047,E02004322,E00171786,68,52.0,76.0,0.82963,5.0,7.2542,0.15807
1-105892230,2011-01-17,Y,St Mary's Convent,North East,County Durham,Ebchester,Consett,DH8 0QD,54.890877,-1.839315,North West Durham,"French, Patricia",,,Y,,,,,Y,,,Y,2,2,E06000047,E02004298,E00104814,18,16.0,92.0,0.94656,2.0,11.7851,0.02773
1-106162884,2011-01-26,Y,Bethany House Care Home,North East,County Durham,Village Close,Newton Aycliffe,DL5 4UD,54.632295,-1.566454,Sedgefield,"Brown, Stewart",Y,Y,,,,,,Y,Y,,,5,5,E06000047,E02004341,E00105819,31,30.0,96.0,0.97105,2.0,5.3005,0.01307
1-106167046,2010-12-13,Y,Leazes Hall Care Home,North East,County Durham,The Leazes,Newcastle Upon Tyne,NE16 6AJ,54.906589,-1.742755,North West Durham,"Tupman, Linda",Y,Y,,,Y,Y,,Y,,,Y,4,4,E06000047,E02004297,E00104703,50,44.0,89.0,0.85949,1.0,2.582,0.07982
1-106798595,2011-01-18,Y,West Lodge Care Home,North East,County Durham,Peases West,Crook,DL15 9SY,54.729188,-1.751057,North West Durham,"Lyons, Sharon",Y,Y,,,,,,Y,Y,,,2,2,E06000047,E02004350,E00106043,60,59.0,98.0,0.95558,0.0,0.0,0.01296
1-106895295,2010-11-03,Y,Beachcomber Care Home,North East,County Durham,12 North Road,Seaham,SR7 7AA,54.841895,-1.334986,Easington,"Harrison, Janice",,,Y,,,,,Y,Y,,Y,4,4,E06000047,E02004321,E00105468,48,43.0,90.0,0.92527,3.0,5.4791,0.05046
1-106941123,2011-01-13,Y,Beddell House,North East,County Durham,Sherburn House,Durham,DH1 2SE,54.768713,-1.523167,City of Durham,"Bishop, Pauline",,,Y,,Y,,,Y,Y,Y,Y,3,3,E06000047,E02004318,E00183225,60,42.0,71.0,0.93864,11.0,18.3586,0.03262
1-108329896,2010-12-17,Y,Devonshire House,North East,County Durham,The Green,Bishop Auckland,DL14 9HW,54.632148,-1.721225,Bishop Auckland,"Ward, Alison",,,Y,,Y,,,Y,Y,Y,Y,5,5,E06000047,E02004354,E00106070,25,15.0,58.0,0.77925,11.0,44.596,0.17961
1-108990568,2011-01-18,Y,Durham House Residential Care Home,North East,County Durham,Mains Park Road,Chester le Street,DH3 3PU,54.854168,-1.572191,North Durham,"Oates, Jon",,,Y,,Y,,,Y,Y,,,4,4,E06000047,E02004294,E00104481,31,24.0,78.0,0.93267,4.0,14.5161,0.04309
1-109162325,2011-01-14,Y,Rosemount Home,North East,County Durham,79 Medomsley Road,Consett,DH8 5HN,54.855163,-1.831787,North West Durham,"Rowbotham, Joyce",,,Y,,,,,Y,,,,5,5,E06000047,E02004303,E00104741,16,15.0,92.0,0.96577,1.0,5.2291,0.00826
1-111130848,2011-03-24,Y,Howlish Hall Residential Care Home,North East,County Durham,Howlish,Bishop Auckland,DL14 8ED,54.654478,-1.626836,Bishop Auckland,"Rundle, Kelly",,,Y,,Y,,,Y,Y,,Y,5,5,E06000047,E02004352,E00105959,40,28.0,70.0,0.87398,2.0,4.1079,0.13037
1-112469288,2010-10-01,Y,Melbury Court,North East,County Durham,Old Dryburn Way,Durham,DH1 5SE,54.785795,-1.589212,City of Durham,"Hall, Antony",Y,Y,,,Y,,,Y,Y,Y,,2,2,E06000047,E02004315,E00171870,87,82.0,94.0,0.99483,1.0,1.6255,0.00256
1-112944147,2011-01-10,Y,Garden Lodge,North East,County Durham,Maureen Terrace,Seaham,SR7 7SN,54.835773,-1.343041,Easington,"Bosher, Stephen",,,Y,,,Y,,,,,,3,3,E06000047,E02004321,E00105246,8,7.0,92.0,0.96559,1.0,7.2169,0.05633
1-112944161,2011-01-10,Y,Orchard House,North East,County Durham,Maureen Terrace,Seaham,SR7 7SN,54.835773,-1.343041,Easington,"Bosher, Stephen",,,Y,,,Y,,,,,,3,3,E06000047,E02004321,E00105246,7,6.0,81.0,0.99837,1.0,8.2479,0.00151
1-112944231,2011-01-10,Y,East Dene Court,North East,County Durham,Melbury Street,Seaham,SR7 7NF,54.827536,-1.332,Easington,"Bosher, Stephen",,,Y,Y,,Y,,,,,Y,1,1,E06000047,E02004321,E00105260,9,8.0,89.0,0.99811,,,
1-112944259,2011-01-10,Y,Lawreth,North East,County Durham,267 Station Road,Seaham,SR7 0BG,54.84083,-1.357426,Easington,"Bosher, Stephen",,,Y,,,Y,,,,,,2,2,E06000047,E02004320,E00105465,2,2.0,100.0,0.98273,0.0,0.0,0.02175
1-112944273,2011-01-10,Y,Education and Services for People with Autism Limited - 35-37 Portland Avenue,North East,County Durham,35-37 Portland Avenue,Seaham,SR7 8AL,54.836264,-1.357265,Easington,"Bosher, Stephen",,,Y,,,Y,,,,,,2,2,E06000047,E02004322,E00105279,4,4.0,88.0,0.98273,1.0,17.6777,0.02175
1-114061355,2011-01-24,Y,Acorn Grange Care Home,North East,County Durham,Vicarage Road,West Cornforth,DL17 9HU,54.703599,-1.517278,Sedgefield,*,,,Y,,Y,,,Y,,,Y,3,3,E06000047,E02004336,E00105531,46,35.0,76.0,0.96502,3.0,7.5307,0.01236
1-114130839,2011-01-10,Y,Valdigarth,North East,County Durham,20 Granville Terrace,Durham,DH6 3JQ,54.745704,-1.415695,Sedgefield,*,,,Y,,,Y,,,,,,4,4,E06000047,E02004331,E00105502,10,10.0,98.0,0.9777,0.0,5.0,0.0071
1-114576276,2011-01-13,Y,West House Care Home Limited,North East,County Durham,West House,Chester Le Street,DH2 3AA,54.850822,-1.584098,North Durham,"Lisk, Elizabeth",Y,Y,,,,,,Y,,,,6,6,E06000047,E02004293,E00104522,26,25.0,96.0,0.91921,1.0,5.1122,0.10565
1-115189809,2010-11-24,Y,Castle Bank Care Home,North East,County Durham,26 Castle Bank,Bishop Auckland,DL13 4AE,54.747617,-1.815352,North West Durham,"Squibb, Daniel",,,Y,,Y,,,Y,,,,4,4,E06000047,E02004349,E00106052,28,16.0,56.0,0.90511,4.0,12.5,0.1067
1-116984555,2010-11-18,Y,Springfield Lodge Care Home,North East,County Durham,North Street,West Rainton,DH4 6NU,54.815879,-1.50206,City of Durham,"Nesbit, Gareth",,,Y,,Y,,,Y,Y,,,3,3,E06000047,E02004311,E00105180,40,37.0,92.0,0.91461,3.0,6.6144,0.03706
1-117319335,2010-11-25,Y,The Fields Care Home,North East,County Durham,123 Low Etherley,Bishop Auckland,DL14 0HA,54.652616,-1.743961,Bishop Auckland,*,,,Y,,,,,Y,,,,4,4,E06000047,E02004345,E00105862,24,20.0,85.0,0.91618,2.0,9.9187,0.06515
1-117552430,2010-12-23,Y,Kaydar Residential,North East,County Durham,5-7 Snowgreen Road,Consett,DH8 0HD,54.870897,-1.858124,North West Durham,*,,,Y,,,Y,,,,,,2,2,E06000047,E02004298,E00104665,8,8.0,94.0,0.98322,1.0,8.8388,0.02244
1-119625346,2011-01-07,Y,Beamish Residential Care Home,North East,County Durham,Old Vicarage,Stanley,DH9 6RT,54.87166,-1.643113,North Durham,"Murray, Marie",,,Y,,,,,Y,,,,5,5,E06000047,E02004291,E00104545,21,12.0,55.0,0.75005,9.0,42.6716,0.1481
1-120084686,2011-01-12,Y,Bradbury House - Care Home with Nursing Physical Disabilities,North East,County Durham,Worthington Close,Crook,DL15 8NL,54.712816,-1.743195,North West Durham,"Fenn, Hugh",Y,Y,,Y,,,,Y,Y,,Y,1,1,E06000047,E02004350,E00105974,25,24.0,96.0,0.97348,,,
1-120642356,2010-10-01,Y,Resolve,North East,County Durham,Low House,Bishop Auckland,DL14 8AW,54.679172,-1.638443,Bishop Auckland,"King, David",,,Y,,,Y,,,,,,3,3,E06000047,E02004351,E00105948,7,6.0,90.0,0.84091,1.0,8.2479,0.15912
1-120760971,2010-12-01,Y,Murton Grange,North East,County Durham,Knaresborough Road,Seaham,SR7 9RQ,54.816448,-1.392064,Easington,"Thompson, Gary",,,Y,,,Y,,,,,,4,4,E06000047,E02004323,E00105425,10,8.0,85.0,0.9439,2.0,17.3205,0.03887
1-120761013,2010-12-01,Y,Eastholme,North East,County Durham,Denehouse Road,Seaham,SR7 7BQ,54.840609,-1.339679,Easington,"Thompson, Gary",,,Y,Y,,Y,,,,,Y,3,3,E06000047,E02004321,E00105468,4,4.0,92.0,0.93655,1.0,14.4338,0.07895
1-120761041,2010-12-01,Y,Seaham View,North East,County Durham,31-32 North Road,Seaham,SR7 7AB,54.843133,-1.336149,Easington,"Thompson, Gary",,,Y,,,Y,,,,,,0,0,E06000047,E02004321,E00105451,12,9.0,74.44964833749015,,,,
1-120761065,2010-12-01,Y,Trinity House,North East,County Durham,Knaresborough Road,Seaham,SR7 9RQ,54.816448,-1.392064,Easington,"Thompson, Gary",,,Y,,,Y,,,,,,3,3,E06000047,E02004323,E00105425,7,7.0,100.0,0.9196,0.0,0.0,0.08269
1-1214458650,2014-05-06,Y,Peterlee Care Home,North East,County Durham,Westcott Road,Peterlee,SR8 5JE,54.764603,-1.338569,Easington,"Thomas, Varghese",Y,Y,,,Y,Y,,Y,Y,Y,Y,4,4,E06000047,E02004325,E00105338,44,40.0,90.0,0.93806,3.0,6.0131,0.02954
1-122961519,2010-12-10,Y,Willowdene Care Home,North East,County Durham,Lizard Lane,Stockton On Tees,TS21 3ET,54.675448,-1.442834,Sedgefield,"Chapman, Christina",Y,Y,,,Y,,,Y,Y,,Y,4,4,E06000047,E02004339,E00105705,48,42.0,88.0,0.94965,2.0,4.9227,0.03693
1-123667343,2010-11-17,Y,Brockwell Court Care Home,North East,County Durham,9 Cobden Street,Consett,DH8 6AH,54.853829,-1.828325,North West Durham,"Southall, Natasha",Y,Y,Y,,Y,,,Y,,,Y,4,4,E06000047,E02004303,E00171808,75,66.0,89.0,0.90809,7.0,8.7433,0.14609
1-124169755,2011-01-24,Y,The Beeches Nursing and Residential Care Home,North East,County Durham,Church Lane,Kelloe,DH6 4PT,54.723306,-1.465731,City of Durham,*,Y,Y,,,Y,,,Y,,,,7,7,E06000047,E02004319,E00105044,31,17.0,55.0,0.93812,2.0,7.9016,0.03292
1-1246974200,2014-03-24,Y,Lambton House,North East,County Durham,New Lambton,Houghton Le Spring,DH4 6DE,54.851644,-1.508348,North Durham,"Coltman, Richard",,,Y,,Y,,,Y,Y,Y,Y,7,7,E06000047,E02004295,E00104453,57,43.0,75.0,0.83861,5.0,8.9292,0.08667
1-124938646,2010-12-13,Y,Grizedale,North East,County Durham,Pont Head Road,Consett,DH8 6EL,54.862063,-1.805748,North West Durham,"Heginbotham, Martyn",,,Y,,,Y,,,,,,3,3,E06000047,E02004304,E00104872,7,6.0,90.0,0.85304,1.0,16.4957,0.24987
1-125862704,2011-02-15,Y,The Hawthorns,North East,County Durham,O'Neill Drive,Peterlee,SR8 5UP,54.754067,-1.333039,Easington,"O'Reilly, Michael",Y,Y,,,Y,,Y,Y,Y,,Y,3,3,E06000047,E02004329,E00105261,105,87.0,83.0,0.98578,6.0,5.7931,0.00942
1-125940638,2011-02-02,Y,Lindisfarne CLS Nursing,North East,County Durham,Whitehill Park,Chester Le Street,DH2 2EP,54.853806,-1.589565,North Durham,"McAlear, Susan",Y,Y,,,Y,,Y,Y,Y,,,4,4,E06000047,E02004293,E00104518,56,36.0,63.0,0.84891,12.0,21.6506,0.14022
1-125940657,2011-02-02,Y,Lindisfarne CLS Residential,North East,County Durham,Whitehill Park,Chester Le Street,DH2 2EP,54.853806,-1.589565,North Durham,"McAlear, Susan",Y,Y,Y,,Y,,Y,Y,Y,,,3,3,E06000047,E02004293,E00104518,30,25.0,83.0,0.9126,2.0,5.7735,0.06599
1-125940707,2011-02-02,Y,Lindisfarne Ouston,North East,County Durham,Front Street,Chester Le Street,DH2 1QW,54.877001,-1.600644,North Durham,"McAlear, Susan",Y,Y,Y,,Y,,Y,Y,Y,,,4,4,E06000047,E02004291,E00104602,57,37.0,65.0,0.94162,7.0,12.1547,0.04852
1-125940772,2011-02-02,Y,Lindisfarne Seaham,North East,County Durham,King Edward Road,Seaham,SR7 7TY,54.831184,-1.335162,Easington,"McAlear, Susan",Y,Y,,,Y,,Y,Y,Y,,,2,2,E06000047,E02004321,E00105255,62,47.0,76.0,0.76602,1.0,2.281,0.13156
1-125940789,2011-02-02,Y,Lindisfarne Newton Aycliffe,North East,County Durham,Silverdale Place,Newton Aycliffe,DL5 7DZ,54.619867,-1.592665,Sedgefield,"McAlear, Susan",Y,Y,,,Y,,Y,Y,Y,,,5,5,E06000047,E02004342,E00105636,56,47.0,83.0,0.84393,6.0,10.227,0.17919
1-128584223,2010-12-30,Y,Abigail Lodge Care Home - Consett,North East,County Durham,Gloucester Road,Consett,DH8 7LB,54.847407,-1.824054,North West Durham,"Southall, Natasha",Y,Y,Y,,Y,,,Y,Y,,,2,2,E06000047,E02004304,E00104781,60,53.0,88.0,0.77298,4.0,7.0711,0.20976
1-128584277,2010-12-30,Y,Barrington Lodge Care Home,North East,County Durham,Berkshire Place,Bishop Auckland,DL14 6XX,54.650006,-1.674796,Bishop Auckland,"Southall, Natasha",Y,Y,Y,,Y,,,Y,Y,,,6,6,E06000047,E02004355,E00106013,70,55.0,79.0,0.88841,6.0,7.9111,0.09777
1-128584338,2010-12-30,Y,Brandon Lodge Care Home,North East,County Durham,Commercial Street,Durham,DH7 8PH,54.754708,-1.627573,City of Durham,"Southall, Natasha",Y,Y,Y,,,,,Y,Y,,,4,4,E06000047,E02004317,E00104977,38,34.0,91.0,0.89672,3.0,6.9625,0.08989
1-128584594,2010-12-30,Y,Hollie Hill Care Home,North East,County Durham,Durham Road,Stanley,DH9 6QZ,54.863287,-1.686435,North Durham,"Southall, Natasha",Y,Y,Y,,Y,,,Y,Y,,,1,1,E06000047,E02004301,E00104901,62,52.0,84.0,0.82068,,,
1-129132313,2010-12-09,Y,Bowburn Care Centre,North East,County Durham,Bowburn South Industrial Estate,Durham,DH6 5AD,54.73496,-1.530241,City of Durham,"Gilbert, Helen",,Y,Y,,Y,,Y,Y,Y,Y,Y,0,0,E06000047,E02004318,E00105016,80,48.0,59.71523457900862,,,,
1-129132334,2010-12-09,Y,Chilton Care Centre,North East,County Durham,Durham Road,Chilton,DL17 0EX,54.659903,-1.558963,Sedgefield,"Gilbert, Helen",,,Y,,Y,,,Y,,,,2,2,E06000047,E02004338,E00183231,40,36.0,91.0,0.96266,4.0,8.8388,0.00779
1-129453828,2010-12-20,Y,Woodham Grange,North East,County Durham,Burn Lane,Newton Aycliffe,DL5 4PJ,54.626204,-1.574697,Sedgefield,"Cannon, Andrew",,,Y,,,Y,,,,,Y,4,4,E06000047,E02004342,E00105825,8,8.0,94.0,0.73977,1.0,7.2169,0.25752
1-129453843,2010-12-20,Y,Woodham Lodge,North East,County Durham,Burn Lane,Newton Aycliffe,DL5 4PJ,54.626204,-1.574697,Sedgefield,"Cannon, Andrew",,,Y,,,Y,,Y,,,Y,3,3,E06000047,E02004342,E00105825,6,6.0,100.0,0.96167,0.0,0.0,0.03959
1-129459314,2010-12-20,Y,Cosin Lodge,North East,County Durham,Cambridge Avenue,Crook,DL15 0PW,54.709707,-1.693347,North West Durham,"Cannon, Andrew",,,Y,,,Y,,,,,Y,3,3,E06000047,E02004351,E00106083,4,4.0,100.0,0.99415,0.0,0.0,0.00563
1-129460462,2010-12-20,Y,Belchford,North East,County Durham,Hesleden Road,Hartlepool,TS27 4PB,54.743435,-1.302456,Easington,"Cannon, Andrew",,,Y,,,Y,,,,,Y,3,3,E06000047,E02004332,E00105405,7,7.0,100.0,0.9776,0.0,0.0,0.01776
1-130848803,2011-01-21,Y,St Andrews Nursing Home,North East,County Durham,Church Bank,Stanley,DH9 0DU,54.873324,-1.696424,North Durham,"Warren-Gray, Paul",Y,Y,,,Y,,,Y,Y,,,5,5,E06000047,E02004299,E00104833,45,36.0,80.0,0.83318,7.0,16.2542,0.13163
1-131806069,2010-12-30,Y,Croft House Care Home,North East,County Durham,Carlyle Cresent,Durham,DH6 2PB,54.758317,-1.385803,Easington,"Creegan, James",Y,Y,Y,,Y,,Y,Y,Y,Y,,2,2,E06000047,E02004326,E00105353,60,38.0,63.0,0.79279,6.0,9.4281,0.13644
1-132341474,2011-01-28,Y,Kensington Hall,North East,County Durham,Front Street,South Hetton,DH6 2TG,54.799919,-1.409701,Easington,*,,,Y,,,Y,,Y,,,,4,4,E06000047,E02004323,E00105325,16,12.0,73.0,0.93705,2.0,9.375,0.04249
1-1338794195,2014-04-29,Y,30 Southview,North East,County Durham,30 Southview,Stanley,DH9 7UB,54.857747,-1.72944,North Durham,"Keenan, Elaine",,,Y,,,Y,,,,,,3,3,E06000047,E02004302,E00183260,3,3.0,89.0,0.95379,1.0,19.245,0.07421
1-1338836366,2014-04-29,Y,Poplar Lodge,North East,County Durham,Wards End,Bishop Auckland,DL13 4JS,54.755731,-1.834017,North West Durham,"Keenan, Elaine",,,Y,,,Y,Y,,,,,7,7,E06000047,E02004349,E00106056,9,8.0,86.0,0.95748,0.0,5.4217,0.04064
1-1338836788,2014-04-29,Y,Westholme,North East,County Durham,61 Station Road,Stanley,DH9 0JP,54.874151,-1.696745,North Durham,"Keenan, Elaine",,,Y,,,Y,,,,,,3,3,E06000047,E02004299,E00104833,8,7.0,88.0,0.98579,0.0,0.0,0.02123
1-136807469,2011-01-04,Y,Hawthorn House,North East,County Durham,St  Godrics Close,Durham,DH1 5PJ,54.798985,-1.578237,City of Durham,"Emberson, Phillip",,,Y,,,Y,,,,,,1,1,E06000047,E02004308,E00105139,10,73.0,730.0,0.89482,,,
1-137802236,2011-01-19,Y,Shotley Park Residential Home,North East,County Durham,Shotley Park,Consett,DH8 0TJ,54.874991,-1.855164,North West Durham,"Langdon, Theresa",,,Y,,,,,Y,,,,5,5,E06000047,E02004298,E00104802,45,35.0,78.0,0.81248,8.0,17.0981,0.15179
1-1378255210,2014-06-20,Y,Divine Care Centre,North East,County Durham,Front Street,Wingate,TS28 5DP,54.721189,-1.370978,Sedgefield,"Chacko, Biju",Y,Y,,,,,,Y,Y,Y,Y,4,4,E06000047,E02004332,E00105505,44,22.0,49.0,0.92513,12.0,27.0509,0.04719
1-139131675,2010-12-23,Y,Mowbray House,North East,County Durham,High Hope Street,Crook,DL15 9JG,54.718719,-1.751183,North West Durham,"Bogle, Patricia",,,Y,Y,,Y,Y,,,Y,Y,2,2,E06000047,E02004349,E00105962,6,4.0,75.0,0.89667,1.0,11.7851,0.09995
1-139131694,2010-12-23,Y,The Daltons,North East,County Durham,Dalton-le-Dale,Seaham,SR7 8QT,54.826016,-1.365195,Easington,"Bogle, Patricia",,,Y,Y,,Y,Y,,,,Y,4,4,E06000047,E02004322,E00105409,6,12.0,200.0,0.85672,13.0,211.2573,0.18659
1-140085519,2011-01-19,Y,Crosshill Nursing Home,North East,County Durham,2a Paragon Street,Bishop Auckland,DL13 2NN,54.75003,-2.01204,North West Durham,"Rayson, David",Y,Y,,,,,,Y,Y,,,4,4,E06000047,E02004348,E00106039,30,26.0,87.0,0.93937,3.0,10.5409,0.03926
1-140102506,2011-01-19,Y,Anna S Proctor House Care Home,North East,County Durham,23-24 Summerhill,Consett,DH8 0NQ,54.87466,-1.841561,North West Durham,"Rayson, David",,,Y,,,Y,,,,,,6,6,E06000047,E02004298,E00104809,14,10.0,73.0,0.73226,1.0,8.3503,0.25589
1-140255576,2010-12-10,Y,St Aidan Lodge Residential Care Home,North East,County Durham,Front Street,Durham,DH1 5BL,54.796005,-1.589731,City of Durham,"Maredia, Susan",,,Y,,Y,,,Y,,,,2,2,E06000047,E02004309,E00105089,62,50.0,81.0,0.97645,2.0,3.4215,0.01009
1-141576709,2010-12-16,Y,Lyons Court Care Home,North East,County Durham,Stones End,Bishop Auckland,DL14 9RE,54.622128,-1.763573,Bishop Auckland,"Stockdale, David",Y,Y,Y,,Y,Y,Y,Y,Y,Y,,6,6,E06000047,E02004345,E00105873,50,38.0,77.0,0.91518,5.0,10.328,0.08875
1-141590680,2010-12-16,Y,St Aiden's Cottage,North East,County Durham,"St Aiden's Cottage, Auton Style",Durham,DH7 7AA,54.782396,-1.630554,City of Durham,"Stockdale, David",Y,Y,Y,,Y,Y,Y,Y,Y,Y,Y,6,6,E06000047,E02004310,E00104930,41,30.0,74.0,0.92805,1.0,2.0406,0.03822
1-141590701,2010-12-16,Y,Bowe's Court Care Home,North East,County Durham,Bowes Court,Bishop Auckland,DL14 9RE,54.622128,-1.763573,Bishop Auckland,"Stockdale, David",Y,Y,Y,,Y,Y,Y,Y,Y,Y,Y,5,5,E06000047,E02004345,E00105873,23,21.0,92.0,0.87474,2.0,9.4259,0.11643
1-147018514,2011-01-19,Y,The Grange,North East,County Durham,Galbraith Terrace,Trimdon Grange,TS29 6EG,54.716581,-1.425738,Sedgefield,"Hunter, Stephen",,,Y,,,,Y,,,,Y,4,4,E06000047,E02004334,E00105697,18,17.0,94.0,0.87589,1.0,4.5361,0.20756
1-151528330,2011-02-02,Y,Nevilles Court,North East,County Durham,Darlington Road,Durham,DH1 4JX,54.771517,-1.595025,City of Durham,"Stockdale, David",,,Y,,,Y,,,Y,,,4,4,E06000047,E02004315,E00105109,4,4.0,94.0,0.99481,1.0,23.9357,0.00727
1-151717287,2010-12-03,Y,Melbury House,North East,County Durham,Mount Stewart Street,Seaham,SR7 7NG,54.827804,-1.333397,Easington,"Roney, Robert",,,Y,,Y,,,Y,,,,3,3,E06000047,E02004321,E00105259,34,31.0,90.0,0.95274,2.0,6.1225,0.03146
1-154487563,2011-01-28,Y,Hollyacre Bungalow,North East,County Durham,Front Street,Durham,DH7 6AF,54.823497,-1.629775,North Durham,"Ratliff, David",,,Y,,,Y,,,Y,,,4,4,E06000047,E02004296,E00104614,10,9.0,88.0,0.9866,0.0,5.0,0.02388
1-1550746881,2014-08-06,Y,Mill House,North East,County Durham,Barley Mill Road,Consett,DH8 8SE,54.861624,-1.867457,North West Durham,"Reidy, John",,,Y,Y,,Y,,,,Y,Y,2,2,E06000047,E02004305,E00104681,5,5.0,100.0,0.9613,0.0,0.0,0.05206
1-159125877,2011-01-06,Y,Redwell Hills Care Home,North East,County Durham,St Ives Road,Consett,DH8 7SN,54.860765,-1.797933,North West Durham,"Royston, Maureen",Y,Y,,,Y,,,Y,Y,,,5,5,E06000047,E02004304,E00104873,50,33.0,67.0,0.89925,7.0,13.4611,0.1052
1-1707167109,2014-10-20,Y,Highview House,North East,County Durham,Low Road,Spennymoor,DL16 7JT,54.677448,-1.601451,Bishop Auckland,"King, David",,,Y,,,Y,,,,,Y,3,3,E06000047,E02004337,E00183280,8,8.0,96.0,0.99327,1.0,7.2169,0.00839
1-1807461071,2015-01-05,Y,Denehurst Nursing Home,North East,County Durham,Merrington Lane,Ferryhill,DL17 8NL,54.685392,-1.5673,Sedgefield,"Ashdown, Andrew",Y,Y,,,Y,,,Y,Y,,,3,3,E06000047,E02004335,E00105593,37,32.0,86.0,0.84735,5.0,12.1872,0.16267
1-1903467898,2015-01-29,Y,Tanglewood Mews,North East,County Durham,Wylam Road,Stanley,DH9 0EJ,54.87571,-1.691123,North Durham,"Tydeman, Justin",,,Y,,,Y,,,Y,,Y,0,0,E06000047,E02004299,E00104845,7,7.0,99.11442657914586,,,,
1-195336595,2011-04-10,Y,Greenways Court,North East,County Durham,Delves Lane,Consett,DH8 7EE,54.841554,-1.811119,North West Durham,"Hall, Antony",,,Y,,Y,,,Y,,,,2,2,E06000047,E02004304,E00104788,51,48.0,94.0,0.95311,0.0,0.0,0.02064
1-1993262716,2015-06-08,Y,Sandringham Care Home,North East,County Durham,Escomb Road,Bishop Auckland,DL14 6HT,54.656669,-1.68333,Bishop Auckland,"Stephenson, Denise",Y,Y,,,Y,,Y,Y,Y,,Y,3,3,E06000047,E02004353,E00105932,92,89.0,97.0,0.92867,2.0,1.8827,0.05229
1-2034431542,2015-05-22,Y,Church View (Bishop Auckland),North East,County Durham,1 Main Street,Bishop Auckland,DL14 6SL,54.649543,-1.663078,Bishop Auckland,"Auckland, Melanie",,,Y,,Y,,,Y,,,,3,3,E06000047,E02004352,E00105982,45,42.0,94.0,0.8764,1.0,2.566,0.07693
1-2139974969,2015-11-10,Y,River Cottage,North East,County Durham,5 Shotley Grove Road,Consett,DH8 8SF,54.861777,-1.868307,North West Durham,"Reidy, John",,,Y,Y,,Y,,,,,Y,2,2,E06000047,E02004305,E00104681,3,3.0,100.0,0.64241,0.0,0.0,0.02934
1-2208340502,2015-11-06,Y,Benton Care Services Limited,North East,County Durham,4 Benton Terrace,Stanley,DH9 0NT,54.871866,-1.69589,North Durham,"Heslin, Andrea",,,Y,,Y,Y,Y,,,,Y,2,2,E06000047,E02004299,E00104839,13,13.0,100.0,0.92662,0.0,0.0,0.04692
1-222048874,2011-05-03,Y,St Mary's Care Home,North East,County Durham,Church Chare,Chester Le Street,DH3 3PZ,54.855391,-1.57249,North Durham,"McAlear, Susan",Y,Y,,,,,,Y,Y,,,4,4,E06000047,E02004294,E00104477,54,43.0,80.0,0.8676,7.0,13.0946,0.15738
1-226714013,2011-05-05,Y,Picktree Court Care Home,North East,County Durham,Picktree Lane,Chester le Street,DH3 3SP,54.859632,-1.569613,North Durham,"Oates, Jon",Y,Y,,,Y,,,Y,,,,3,3,E06000047,E02004292,E00104487,88,74.0,84.0,0.81046,8.0,9.0196,0.24607
1-2326175995,2016-02-23,Y,Craigarran Care Home,North East,County Durham,Cinnamon Drive,Trimdon Station,TS29 6NY,54.719211,-1.408267,Sedgefield,"Morris, Angela",Y,Y,,,Y,,Y,Y,Y,Y,,4,4,E06000047,E02004331,E00105511,44,36.0,83.0,0.72343,8.0,17.8473,0.08675
1-261136589,2011-07-26,Y,Lindisfarne Care Home,North East,County Durham,Carr House Drive,Newton Hall,DH1 5LT,54.799041,-1.576152,City of Durham,"McAlear, Susan",Y,Y,,,Y,,Y,Y,,,,2,2,E06000047,E02004308,E00105139,63,58.0,91.0,0.96736,4.0,5.612,0.01144
1-263449554,2011-06-21,Y,Oswald House,North East,County Durham,33 St Oswalds Walk,Newton Aycliffe,DL5 4BQ,54.625211,-1.555982,Sedgefield,"Patterson, Stephen",,,Y,,,Y,,,,,,3,3,E06000047,E02004343,E00105719,8,7.0,92.0,0.97793,1.0,7.2169,0.01832
1-263450075,2011-06-21,Y,Elmcroft,North East,County Durham,75 Washington Crescent,Newton Aycliffe,DL5 4BE,54.625352,-1.557513,Sedgefield,"Patterson, Stephen",,,Y,,,Y,,,,,,3,3,E06000047,E02004343,E00105720,3,3.0,100.0,0.97793,0.0,0.0,0.01832
1-263450186,2011-06-21,Y,Ferndale,North East,County Durham,46 St Barbara's Walk,Newton Aycliffe,DL5 4AN,54.625185,-1.55846,Sedgefield,"Patterson, Stephen",,,Y,,,Y,,,,,,3,3,E06000047,E02004343,E00105720,3,3.0,100.0,0.97793,0.0,0.0,0.01832
1-263480336,2011-06-21,Y,St Barbara's,North East,County Durham,35 St Barbaras Walk,Newton Aycliffe,DL5 4AN,54.625185,-1.55846,Sedgefield,"Patterson, Stephen",,,Y,,,Y,,,,,,3,3,E06000047,E02004343,E00105720,3,3.0,100.0,0.97793,0.0,0.0,0.01832
1-263480424,2011-06-21,Y,Wycliffe,North East,County Durham,12 Wycliffe Close,Newton Aycliffe,DL5 4BN,54.624108,-1.558921,Sedgefield,"Patterson, Stephen",,,Y,,,Y,,,,,,3,3,E06000047,E02004343,E00105724,3,3.0,100.0,0.97793,0.0,0.0,0.01832
1-2876048536,2017-04-27,Y,Unity House,North East,County Durham,Westcott Road,Peterlee,SR8 5JE,54.764603,-1.338569,Easington,"Tydeman, Justin",,,Y,,,Y,Y,Y,,,Y,5,5,E06000047,E02004325,E00105338,22,14.0,62.0,0.97393,2.0,8.8607,0.00408
1-3017899182,2016-11-02,Y,St Clare's Court,North East,County Durham,Central Avenue,Newton Aycliffe,DL5 5QH,54.620431,-1.568232,Sedgefield,"Hall, Antony",,,Y,,Y,,,Y,Y,Y,Y,1,1,E06000047,E02004343,E00105728,58,41.0,71.0,0.65576,,,
1-310512491,2011-10-14,Y,Field View,North East,County Durham,Hesleden Road,Hartlepool,TS27 4LH,54.745934,-1.29345,Easington,"Chapman, Christina",Y,Y,Y,,,,,Y,,,Y,4,4,E06000047,E02004330,E00105227,36,29.0,81.0,0.93612,5.0,14.5888,0.03982
1-310528517,2011-10-14,Y,Rose Lodge,North East,County Durham,Carers Way,Newton Aycliffe,DL5 4SE,54.629667,-1.580232,Sedgefield,"Chapman, Christina",,,Y,,Y,,,Y,,,,4,4,E06000047,E02004342,E00105823,54,48.0,89.0,0.90035,4.0,7.1522,0.06013
1-310528608,2011-10-14,Y,Yohden Hall Care Complex,North East,County Durham,Hesleden Road,Hartlepool,TS27 4LH,54.745934,-1.29345,Easington,"Chapman, Christina",Y,Y,,,Y,Y,,Y,Y,,Y,4,4,E06000047,E02004330,E00105227,77,59.0,77.0,0.94897,6.0,8.4165,0.02543
1-312204733,2011-10-31,Y,Hallgarth Care Home,North East,County Durham,Hallgarth Street,Durham,DH1 3AY,54.770629,-1.569423,City of Durham,"Southall, Natasha",Y,Y,,,,,,Y,,,,4,4,E06000047,E02004314,E00105078,60,50.0,83.0,0.93687,8.0,13.0526,0.04411
1-319253182,2011-10-19,Y,Church View (Murton),North East,County Durham,Church Lane,Seaham,SR7 9PG,54.815246,-1.387196,Easington,"Gilbert, Rachel",,,Y,,Y,Y,Y,Y,Y,,Y,3,3,E06000047,E02004323,E00105414,42,36.0,86.0,0.94848,2.0,4.1239,0.03445
1-319259977,2011-10-31,Y,Beaconsfield Court,North East,County Durham,112 Galgate,Barnard Castle,DL12 8ES,54.546636,-1.919738,Bishop Auckland,"Hall, Antony",,,Y,,,,,Y,Y,,Y,4,4,E06000047,E02007022,E00105829,32,29.0,91.0,0.93356,1.0,2.5516,0.03287
1-319264671,2011-10-19,Y,Kings Court Care Home,North East,County Durham,14 Market Place,Barnard Castle,DL12 8ND,54.542801,-1.924012,Bishop Auckland,"Gilbert, Rachel",,,Y,,Y,Y,Y,Y,Y,,Y,3,3,E06000047,E02007022,E00105842,37,30.0,80.0,0.70287,2.0,4.1284,0.22513
1-319264930,2011-10-19,Y,Stanley Park,North East,County Durham,Wear Road,Stanley,DH9 6AH,54.868055,-1.695914,North Durham,"Gilbert, Rachel",Y,Y,,,Y,Y,Y,Y,Y,,Y,4,4,E06000047,E02004301,E00104911,71,59.0,83.0,0.9075,5.0,6.7424,0.11638
1-320350876,2011-10-31,Y,Jack Dormand Care Home,North East,County Durham,Fourth Street,Peterlee,SR8 4LD,54.763732,-1.312909,Easington,"Hall, Antony",Y,Y,,,Y,,,Y,,,,3,3,E06000047,E02004327,E00105381,43,42.0,98.0,0.85534,1.0,2.3256,0.07413
1-320351029,2011-10-31,Y,Lothian House Care Home,North East,County Durham,Clyde Terrace,Spennymoor,DL16 7SG,54.695264,-1.608512,Bishop Auckland,"Hall, Antony",,,Y,,Y,,,Y,,,,3,3,E06000047,E02004337,E00105740,48,32.0,67.0,0.78376,25.0,51.1302,0.22542
1-320589138,2011-10-31,Y,St Margaret's Care Home,North East,County Durham,St Margarets Garth,Durham,DH1 4DS,54.775865,-1.584151,City of Durham,"Hall, Antony",Y,Y,,,Y,,,Y,Y,,Y,5,5,E06000047,E02004314,E00105051,60,50.0,83.0,0.90459,3.0,5.137,0.07837
1-320589264,2011-10-31,Y,Stoneleigh Care Home,North East,County Durham,Durham Road,Stanley,DH9 7XH,54.856672,-1.735055,North Durham,"Hall, Antony",,,Y,,Y,Y,,Y,Y,,Y,3,3,E06000047,E02004302,E00104646,36,33.0,91.0,0.95821,2.0,4.2431,0.01667
1-320614756,2011-10-31,Y,Tenlands Care Home,North East,County Durham,Wood Lane,Ferryhill,DL17 8JD,54.690906,-1.549106,Sedgefield,"Hall, Antony",Y,Y,,,,,,Y,,,,3,3,E06000047,E02004336,E00105597,40,30.0,75.0,0.78009,9.0,21.7945,0.13151
1-320792726,2011-10-31,Y,Defoe Court,North East,County Durham,Defoe Crescent,Newton Aycliffe,DL5 4JP,54.624613,-1.564336,Sedgefield,"Hall, Antony",Y,Y,,,Y,,,Y,Y,,Y,4,4,E06000047,E02004343,E00105735,41,29.0,71.0,0.91181,20.0,47.8519,0.07759
1-325666087,2011-10-31,Y,Bishopsgate Lodge Care Home,North East,County Durham,15 Hexham Street,Bishop Auckland,DL14 7PU,54.663602,-1.681571,Bishop Auckland,"Hall, Antony",Y,Y,,,Y,,,Y,,,Y,3,3,E06000047,E02004352,E00105919,51,30.0,59.0,0.86992,22.0,43.0629,0.11667
1-326347181,2011-11-01,Y,Redworth,North East,County Durham,Byerley Road,Shildon,DL4 1HQ,54.625865,-1.648441,Bishop Auckland,"Goldstein, Alan",Y,Y,,,Y,Y,,Y,,,Y,2,2,E06000047,E02004340,E00105569,57,47.0,82.0,0.92897,8.0,14.8865,0.01683
1-327083373,2011-11-01,Y,Brancepeth Court,North East,County Durham,Hall Lane,Crook,DL15 0PW,54.709707,-1.693347,North West Durham,"Goldstein, Alan",Y,Y,,,Y,Y,,Y,Y,,Y,4,4,E06000047,E02004351,E00106083,49,34.0,70.0,0.79084,3.0,6.3452,0.14051
1-327105808,2011-11-01,Y,Lumley Residential Home,North East,County Durham,Hall Lane,Crook,DL15 0PW,54.709707,-1.693347,North West Durham,"Goldstein, Alan",,,Y,,Y,Y,,Y,,,Y,3,3,E06000047,E02004351,E00106083,40,27.0,68.0,0.8038,2.0,5.0,0.14244
1-327106234,2011-11-01,Y,Richmond Court,North East,County Durham,Hall Lane,Crook,DL15 0PW,54.709707,-1.693347,North West Durham,"Goldstein, Alan",Y,Y,,,Y,Y,Y,Y,Y,,Y,3,3,E06000047,E02004351,E00106083,49,45.0,93.0,0.91883,3.0,5.8913,0.04574
1-327497858,2011-11-01,Y,Aycliffe Care Home,North East,County Durham,Burnhope,Newton Aycliffe,DL5 7ER,54.622924,-1.593022,Sedgefield,"Harkin, Karen",Y,Y,,,Y,,,Y,,,Y,4,4,E06000047,E02004341,E00105632,54,45.0,84.0,0.89112,10.0,18.9079,0.08768
1-327617059,2011-11-01,Y,Westerleigh,North East,County Durham,Scott Street,Stanley,DH9 8AD,54.869939,-1.701373,North Durham,"Harkin, Karen",,,Y,,Y,,,Y,,,Y,5,5,E06000047,E02004299,E00104839,55,49.0,89.0,0.81536,4.0,6.6058,0.17258
1-3489600993,2017-02-17,Y,Grampian Court,North East,County Durham,Grampian Drive,Peterlee,SR8 2LR,54.756792,-1.353162,Easington,"Hall, Antony",,,Y,,Y,,Y,Y,Y,Y,,2,2,E06000047,E02004328,E00105393,57,50.0,88.0,0.93356,8.0,14.8865,0.01734
1-357341625,2012-01-10,Y,Kingsway Nursing Home,North East,County Durham,Kingsway,Durham,DH7 9TB,54.798078,-1.668197,North West Durham,"Cash, Mark",Y,Y,,,Y,Y,Y,Y,Y,Y,Y,3,3,E06000047,E02004307,E00104827,42,38.0,91.0,0.91044,3.0,7.2739,0.05763
1-3745844012,2017-05-17,Y,Pelton Grange Care Home,North East,County Durham,Front Street,Chester Le Street,DH2 1DD,54.872168,-1.609742,North Durham,"Vernon, Mandy",,,Y,,,,,Y,Y,,,5,5,E06000047,E02004291,E00104592,47,29.0,62.0,0.93867,14.0,30.7739,0.04514
1-3745999343,2017-05-17,Y,Bannatyne Lodge,North East,County Durham,Bannatyne Care Home,Peterlee,SR8 5SB,54.75648,-1.330419,Easington,"Vernon, Mandy",Y,Y,,,,,,Y,Y,,Y,4,4,E06000047,E02004325,E00105267,50,35.0,70.0,0.8521,5.0,10.9545,0.10506
1-416352892,2012-05-09,Y,River View,North East,County Durham,4 Shotley Grove Road,Consett,DH8 8SF,54.861777,-1.868307,North West Durham,"Reidy, John",,,Y,,,Y,,,,,,3,3,E06000047,E02004305,E00104681,3,3.0,89.0,0.98459,1.0,19.245,0.01572
1-4325233735,2017-09-30,Y,Parklands Care Home,North East,County Durham,New Road,Crook,DL15 8LN,54.711605,-1.744827,North West Durham,"Chopra, Tarsem",,,Y,,Y,,,Y,,,,2,2,E06000047,E02004350,E00105974,42,34.0,80.0,0.93891,4.0,8.4179,0.0531
1-5704976910,2018-10-12,Y,Abbeyvale Care Centre,North East,County Durham,Laidler Close,Hartlepool,TS27 4QP,54.741019,-1.279821,Easington,"Lewis, Karen",,,Y,,Y,,Y,Y,,,Y,3,3,E06000047,E02004330,E00105225,42,36.0,86.0,0.93247,1.0,2.381,0.05624
1-5806471801,2018-09-28,Y,Derwent Care Home,North East,County Durham,Low Westwood,Newcastle Upon Tyne,NE17 7PL,54.903417,-1.822688,North West Durham,"Kerry, Louise",,,Y,,Y,,,Y,,,,2,2,E06000047,E02004298,E00171811,45,40.0,90.0,0.96385,5.0,10.9994,0.0143
1-5878312988,2018-12-03,Y,Langley House Care Centre,North East,County Durham,Sunderland Road,Peterlee,SR8 4NL,54.764701,-1.320617,Easington,"Nesbit, Gareth",,,Y,,Y,,,Y,Y,Y,,1,1,E06000047,E02004327,E00105369,30,26.0,87.0,0.93317,,,
1-5897117788,2018-10-25,Y,The Village Nursing and Care Home @ Murton,North East,County Durham,Wellfield Road,Seaham,SR7 9HN,54.818437,-1.398197,Easington,"Kohli, Sushilta",Y,Y,,,Y,,Y,Y,Y,Y,Y,1,1,E06000047,E02004322,E00105432,40,36.0,90.0,0.93752,,,
1-5897613226,2018-10-25,Y,The Elms @ Kimblesworth,North East,County Durham,Elm Crescent,Chester Le Street,DH2 3QJ,54.819199,-1.597806,North Durham,"Hughes, Diane",,Y,,,Y,Y,,Y,Y,Y,,5,5,E06000047,E02004296,E00104549,19,16.0,82.0,0.82261,2.0,12.1167,0.11731
1-5902193838,2018-10-25,Y,Benfield Hall Nursing Home,North East,County Durham,155 Durham Road,Consett,DH8 5TH,54.860677,-1.841834,North West Durham,"Hughes, Diane",Y,Y,,,Y,,Y,Y,Y,Y,Y,0,0,E06000047,E02004303,E00104669,20,19.0,94.1224435613772,,,,
1-6165204509,2019-01-08,Y,Holly Lodge Care Home,North East,County Durham,Maddison Street,Shildon,DL4 1NX,54.625879,-1.64681,Bishop Auckland,"Kerry, Louise",,,Y,,Y,,Y,Y,Y,,Y,3,3,E06000047,E02004340,E00171864,41,39.0,95.0,0.93722,2.0,4.878,0.03049
1-6904878517,2019-06-20,Y,Elliott House,North East,County Durham,Seaside Lane,Peterlee,SR8 3PG,54.788054,-1.327875,Easington,"Masar, Ronnie",,,Y,,,Y,Y,,,,,3,3,E06000047,E02004324,E00105302,11,11.0,100.0,0.96346,0.0,0.0,0.00245
1-7079329691,2019-07-22,Y,The Manor House Barnard Castle,North East,County Durham,The Manor House,Barnard Castle,DL12 8ET,54.546607,-1.917558,Bishop Auckland,"Martin, Robert",,,Y,,Y,,,Y,,,Y,2,2,E06000047,E02007022,E00105834,76,64.0,85.0,0.93398,6.0,8.3736,0.08312
1-732493010,2013-06-13,Y,Dipton Manor Care Home,North East,County Durham,Front Street,Stanley,DH9 9BP,54.880308,-1.757359,North West Durham,"Pattinson, Stevie",Y,Y,,,Y,,,Y,,,Y,4,4,E06000047,E02004297,E00104798,70,59.0,85.0,0.7844,4.0,5.8757,0.16498
1-8174752101,2020-01-13,Y,Abbotts Court Care Home,North East,County Durham,Wingate Lane,Durham,DH6 3LP,54.73924,-1.422607,Sedgefield,"Russi, Justin",,,Y,,Y,,Y,Y,Y,Y,Y,2,2,E06000047,E02004331,E00105499,47,40.0,86.0,0.80207,6.0,13.5403,0.21872
1-842367651,2013-07-19,Y,Parklands Nursing Home,North East,County Durham,Station Road,Seaham,SR7 0AD,54.839455,-1.347421,Easington,"Malhotra, Devinder",Y,Y,,,Y,,,Y,Y,,Y,3,3,E06000047,E02004321,E00105457,54,45.0,84.0,0.8831,6.0,11.1624,0.06519
1-8845386921,2020-06-01,Y,St Helens Care Home,North East,County Durham,6 Manor Road,Bishop Auckland,DL14 9DL,54.636378,-1.708657,Bishop Auckland,"Cunningham, Amanda",Y,Y,,,Y,,Y,Y,Y,,Y,3,3,E06000047,E02004354,E00171814,40,36.0,90.0,0.87366,0.0,0.0,0.10242
1-8861734586,2020-06-01,Y,Langley Park Care Home,North East,County Durham,Front Street,Durham,DH7 9YY,54.800446,-1.669982,North West Durham,"Cunningham, Amanda",,,Y,,Y,,,Y,,,,5,5,E06000047,E02004307,E00104824,46,41.0,90.0,0.85952,4.0,8.9104,0.04322
1-894036780,2013-08-20,Y,"NEAS, Short Term Residential Breaks",North East,County Durham,New Warlands Farm,Durham,DH7 6EX,54.834467,-1.662636,North West Durham,"Stoker, Brian",,,Y,Y,,Y,,,,,,2,2,E06000047,E02004306,E00104684,23,8.0,35.0,0.9822,4.0,18.4463,0.02251
1-894198181,2013-09-03,Y,Thornfield Grange,North East,County Durham,60 Etherley Lane,Bishop Auckland,DL14 7QZ,54.659019,-1.68497,Bishop Auckland,"Smith, Peter",Y,Y,,,,Y,Y,Y,,,Y,3,3,E06000047,E02004353,E00105930,10,8.0,83.0,0.84729,1.0,5.7735,0.00039
1-9504574849,2020-09-15,Y,Ashwood Park Residential and Nursing Home,North East,County Durham,Seaside Lane,Peterlee,SR8 3XZ,54.786802,-1.34228,Easington,"O'Connor, Sheila",Y,Y,,,Y,,,Y,,,,4,4,E06000047,E02004325,E00105307,65,55.0,84.0,0.83033,13.0,20.6167,0.13772
1-9504574946,2020-09-15,Y,Birchwood Court Residential Care Home,North East,County Durham,Seaside Lane,Peterlee,SR8 3XZ,54.786802,-1.34228,Easington,"O'Connor, Sheila",,,Y,,Y,,,Y,,,,3,3,E06000047,E02004325,E00105307,43,41.0,95.0,0.83908,3.0,8.0561,0.19447
1-9504575030,2020-09-15,Y,Rushyfields Residential and Nursing Home,North East,County Durham,Brandon Lane,Durham,DH7 8SH,54.75412,-1.632245,City of Durham,"O'Connor, Sheila",Y,Y,,,Y,,Y,Y,,,,6,6,E06000047,E02004317,E00104980,41,30.0,73.0,0.8183,11.0,27.0721,0.1713
1-974089340,2013-10-11,Y,Dr. Ashdown's Stockton Lodge,North East,County Durham,Seaton Park,Seaham,SR7 0HJ,54.838843,-1.367609,Easington,"Ashdown, Andrew",Y,Y,Y,,Y,,,Y,Y,,Y,3,3,E06000047,E02004320,E00105477,39,27.0,69.0,0.82219,3.0,6.784,0.12291
1-999096321,2013-10-20,Y,Eden House,North East,County Durham,Cockton Hill Road,Bishop Auckland,DL14 6EN,54.656247,-1.67673,Bishop Auckland,"Hall, Antony",,,Y,,Y,,Y,Y,Y,Y,,2,2,E06000047,E02004353,E00106009,53,50.0,95.0,0.95507,1.0,1.3342,0.02695
RX3X5,2013-11-20,Y,Durham and Darlington Crisis and Recovery House,North East,County Durham,26 Middleton Road,Shildon,DL4 1NN,54.627162,-1.646107,Bishop Auckland,"Moody, Elizabeth",,,Y,,,Y,Y,Y,,,Y,0,0,E06000047,E02004340,E00105565,9,3.0,34.261417472300124,,,,
1-105311568,2010-12-15,Y,Beachville West End,North East,Northumberland,Beachville Care Home,Newbiggin-by-the-sea,NE64 6XD,55.180019,-1.516076,Wansbeck,*,,,Y,,Y,Y,,Y,,,Y,6,6,E06000057,E02005734,E00140194,13,12.0,95.0,0.93365,1.0,6.2807,0.08533
1-107271282,2010-10-01,Y,Burn Brae Lodge,North East,Northumberland,Prospect Hill,Corbridge,NE45 5RU,54.956968,-2.013617,Hexham,"Howard, Paul",,,Y,,Y,,,Y,,,,4,4,E06000057,E02007107,E00139983,31,16.0,51.0,0.80774,14.0,43.9448,0.20751
1-107972385,2010-12-22,Y,Charlotte Straker House,North East,Northumberland,Cookson Close,Corbridge,NE45 5HB,54.977043,-2.019686,Hexham,"Groves, Berenice",Y,Y,,,Y,,,Y,,Y,Y,2,2,E06000057,E02007107,E00139861,32,26.0,83.0,0.97443,5.0,15.468,0.01344
1-108376838,2010-12-03,Y,Calvert Trust Kielder,North East,Northumberland,Kielder Water and Forest Park,Hexham,NE48 1BS,55.152262,-2.579805,Hexham,"Appleby, Kevin",,,Y,,,Y,,Y,Y,Y,Y,3,3,E06000057,E02005727,E00140008,20,8.0,40.0,0.82987,3.0,17.3205,0.05911
1-109140632,2011-01-20,Y,Bailiffgate,North East,Northumberland,16 Bailiffgate,Alnwick,NE66 1LX,55.4162,-1.709448,Berwick-upon-Tweed,"Head, Amanda",,,Y,,,Y,,,,Y,,3,3,E06000057,E02005703,E00139190,11,9.0,82.0,0.92158,1.0,9.0909,0.06797
1-1092989859,2013-12-31,Y,Thornley Leazes Care,North East,Northumberland,Thornley Leazes,Hexham,NE47 9NH,54.899878,-2.264714,Hexham,*,,,Y,,Y,Y,,Y,,,Y,2,2,E06000057,E02005733,E00139839,12,14.0,121.0,0.82255,4.0,29.4628,0.02462
1-109729425,2010-12-14,Y,Beresford lodge Residential Care Home,North East,Northumberland,88 Beresford Road,Whitley Bay,NE26 4RJ,55.076137,-1.467072,Blyth Valley,*,,,Y,,Y,,,Y,,,,3,3,E06000057,E02005717,E00139531,26,15.0,59.0,0.97043,1.0,2.2206,0.01704
1-112056342,2010-10-01,Y,Hepscott Care Centre,North East,Northumberland,Choppington Road,Morpeth,NE61 6NX,55.160531,-1.664002,Wansbeck,"Burns, Philippa",,,Y,,Y,,,Y,,,,4,4,E06000057,E02005722,E00190068,40,28.0,70.0,0.76195,3.0,7.3598,0.25662
1-112056359,2010-10-01,Y,Haydon View Residential Home,North East,Northumberland,North Bank,Hexham,NE47 6NA,54.976301,-2.259062,Hexham,"Burns, Philippa",,,Y,,,,,Y,,,,4,4,E06000057,E02005733,E00139900,27,20.0,72.0,0.91941,5.0,20.173,0.07148
1-112448479,2010-10-01,Y,Acomb Court,North East,Northumberland,Maidens Walk,Hexham,NE46 1EN,54.968741,-2.093175,Hexham,"Hall, Antony",Y,Y,,,Y,,,Y,Y,Y,,3,3,E06000057,E02005730,E00139928,76,62.0,82.0,0.83189,13.0,17.1221,0.25094
1-112469373,2010-10-01,Y,Hartford Court,North East,Northumberland,Cumbrian Road,Cramlington,NE23 1DA,55.08747,-1.58069,Blyth Valley,"Hall, Antony",,,Y,,Y,,,Y,Y,Y,,4,4,E06000057,E02005715,E00139496,68,56.0,82.0,0.92696,10.0,14.6322,0.04582
1-112469407,2010-10-01,Y,Foxton Court,North East,Northumberland,Morpeth Cottage Hospital,Morpeth,NE61 2BT,55.158354,-1.691879,Wansbeck,"Hall, Antony",,,Y,,Y,,,Y,Y,Y,Y,2,2,E06000057,E02005724,E00139751,77,44.0,57.0,0.92362,3.0,3.6733,0.01575
1-112749390,2011-01-17,Y,The Grange,North East,Northumberland,Church Road,Alnwick,NE66 3RR,55.459558,-1.668269,Berwick-upon-Tweed,"Fitton, Simon",,,Y,,Y,,,Y,,,Y,3,3,E06000057,E02005702,E00139254,27,25.0,93.0,0.93528,1.0,3.7037,0.05964
1-112797176,2010-12-30,Y,Close House Nursing and Residential Care Home,North East,Northumberland,Close House,Hexham,NE46 1ST,54.927507,-2.099305,Hexham,*,Y,Y,,,Y,,,Y,,,,3,3,E06000057,E02005733,E00139987,22,17.0,77.0,0.86645,4.0,19.8132,0.09765
1-114109425,2011-02-15,Y,No 11&12 Third Row,North East,Northumberland,11 & 12 Third Row,Morpeth,NE61 5SB,55.215159,-1.587178,Berwick-upon-Tweed,*,,,Y,,,Y,,,,,,4,4,E06000057,E02005720,E00139687,4,3.0,81.0,0.99874,0.0,12.5,0.00076
1-115191816,2011-01-18,Y,Turret Villa Retirement Home,North East,Northumberland,Etal Road,Berwick Upon Tweed,TD15 2EG,55.760436,-2.010842,Berwick-upon-Tweed,"Kilmartin, Denis",,,Y,,,,,Y,,,,5,5,E06000057,E02005706,E00139362,35,28.0,79.0,0.96128,2.0,6.2597,0.04618
1-116958461,2010-12-15,Y,Albury House,North East,Northumberland,17-19 Tweed Street,Berwick Upon Tweed,TD15 1NG,55.772491,-2.009421,Berwick-upon-Tweed,*,,,Y,,Y,,,Y,,,,5,5,E06000057,E02005707,E00139324,12,11.0,90.0,0.98121,0.0,3.7268,0.01063
1-117231506,2011-01-27,Y,The Grange Nursing Home,North East,Northumberland,Watershaugh Road,Morpeth,NE65 0TX,55.341347,-1.62544,Berwick-upon-Tweed,"Sattar, Naweed",Y,Y,,,Y,,Y,Y,,,Y,9,9,E06000057,E02005704,E00139284,23,21.0,93.0,0.98777,0.0,2.1739,0.00553
1-117351918,2011-01-25,Y,Wentworth Grange,North East,Northumberland,Nursing Home,Riding Mill,NE44 6DZ,54.945182,-1.96768,Hexham,"Lee, Jeffrey",Y,Y,Y,,Y,,,Y,,,Y,4,4,E06000057,E02007107,E00139851,51,44.0,86.0,0.90827,3.0,6.2776,0.03116
1-117953661,2010-12-30,Y,Elpha Lodge Residential Care Home,North East,Northumberland,Elpha Lodge,Morpeth,NE65 9RR,55.29733,-1.6105,Berwick-upon-Tweed,"Dixon, Elsie",,,Y,,,,,,Y,,,1,1,E06000057,E02005720,E00190044,24,20.0,83.0,0.98944,,,
1-117953677,2010-12-30,Y,Hazelmead Residential Care Home,North East,Northumberland,3 Elpha Court,Morpeth,NE65 9RR,55.29733,-1.6105,Berwick-upon-Tweed,"Dixon, Elsie",,,Y,,,Y,,,,,,3,3,E06000057,E02005720,E00190044,5,5.0,100.0,0.9813,0.0,0.0,0.01209
1-117977259,2010-12-22,Y,Harwood Court,North East,Northumberland,Highburn,Cramlington,NE23 6AZ,55.078439,-1.590387,Blyth Valley,"Ryan, Daniel",,,Y,,,,,Y,,,,3,3,E06000057,E02005715,E00139491,35,27.0,77.0,0.95801,3.0,7.5593,0.01338
1-118523793,2010-12-15,Y,Walby Hill (Adult Care Home),North East,Northumberland,The Oaklea Trust,Morpeth,NE65 7NT,55.31001,-1.907275,Berwick-upon-Tweed,"Green, Susan",,,Y,,,Y,,,,,,5,5,E06000057,E02005705,E00139262,7,6.0,83.0,0.98366,1.0,18.6263,0.02527
1-1233521183,2014-05-15,Y,Flexible Support Options Limited (Pengarth),North East,Northumberland,Windmill Hil,Morpeth,NE61 5HU,55.225826,-1.556679,Berwick-upon-Tweed,"Robinson, Rhian",,,Y,,,Y,Y,Y,Y,Y,Y,4,4,E06000057,E02005720,E00139688,5,5.0,100.0,0.92259,0.0,0.0,0.10592
1-1233652937,2014-05-15,Y,Flexible Support Options Limited (Thorntree Way),North East,Northumberland,13-15 Thorntree Way,Blyth,NE24 4LS,55.125749,-1.549241,Blyth Valley,"Robinson, Rhian",,,Y,,,Y,Y,Y,Y,Y,Y,3,3,E06000057,E02005712,E00139568,10,8.0,80.0,0.96174,3.0,26.4575,0.02961
1-124169740,2011-01-24,Y,The Pines Residential Care Home,North East,Northumberland,1 Woodbine Terrace,Ashington,NE63 8PP,55.183869,-1.600331,Wansbeck,*,,,Y,,Y,,,Y,,,Y,2,2,E06000057,E02007105,E00176363,28,19.0,68.0,0.98296,1.0,5.0508,0.00044
1-124938742,2010-12-13,Y,Mountview,North East,Northumberland,1-2 Stocksfield Square,Stocksfield,NE43 7HL,54.945851,-1.916246,Hexham,"Heginbotham, Martyn",,,Y,,,Y,,,,,,4,4,E06000057,E02007107,E00139997,10,9.0,92.0,0.96892,0.0,5.0,0.03641
1-124938756,2010-12-13,Y,New Ridley Road,North East,Northumberland,27-29 New Ridley Road,Stocksfield,NE43 7EY,54.944229,-1.897502,Hexham,"Heginbotham, Martyn",,,Y,,,Y,,,,,,1,1,E06000057,E02007107,E00140000,9,9.0,100.0,0.99547,,,
1-125138928,2011-01-27,Y,Tynedale House,North East,Northumberland,Tynedale Drive,Blyth,NE24 4LH,55.128609,-1.547421,Blyth Valley,"Bradley, Neil",,,Y,,Y,Y,,Y,Y,,,3,3,E06000057,E02005709,E00139577,30,25.0,83.0,0.93436,4.0,12.0185,0.05404
1-125139019,2011-01-27,Y,Chibburn Court,North East,Northumberland,Widdrington,Morpeth,NE61 5QT,55.240445,-1.608854,Berwick-upon-Tweed,"Bradley, Neil",,,Y,,,Y,,,,,,2,2,E06000057,E02005720,E00139826,3,2.0,67.0,0.90754,1.0,47.1405,0.08458
1-125634678,2011-01-20,Y,Summerhill,North East,Northumberland,The Dunterns,Alnwick,NE66 1AL,55.40869,-1.707324,Berwick-upon-Tweed,"Weissbraun, Ben",,,Y,,,,,Y,,,,5,5,E06000057,E02005703,E00139207,29,26.0,91.0,0.95836,1.0,3.9316,0.02164
1-125855708,2011-02-15,Y,Chester Court,North East,Northumberland,Choppington Road,Bedlington,NE22 6LA,55.135869,-1.598756,Wansbeck,"O'Reilly, Michael",Y,Y,,,,Y,,Y,,,Y,5,5,E06000057,E02005741,E00140037,41,35.0,86.0,0.96711,6.0,15.6554,0.02855
1-125861477,2011-02-15,Y,Meadow Park,North East,Northumberland,Choppington Road,Bedlington,NE22 6LA,55.135869,-1.598756,Wansbeck,"O'Reilly, Michael",,,Y,,Y,,,Y,,,,3,3,E06000057,E02005741,E00140037,61,39.0,63.0,0.90417,29.0,47.8602,0.11823
1-125862627,2011-02-15,Y,Station Court,North East,Northumberland,Station Road,Ashington,NE63 8HE,55.182759,-1.580289,Wansbeck,"O'Reilly, Michael",,,Y,,Y,,,Y,,,,4,4,E06000057,E02007105,E00140087,64,57.0,89.0,0.92877,3.0,5.1626,0.03995
1-125863224,2011-02-15,Y,Woodhorn Park,North East,Northumberland,Woodhorn Road,Ashington,NE63 9AN,55.184537,-1.564565,Wansbeck,"O'Reilly, Michael",,,Y,,Y,,,Y,,,,4,4,E06000057,E02005735,E00140167,61,58.0,95.0,0.85833,1.0,1.3385,0.13762
1-126290401,2011-01-28,Y,Heatherdale Residential Home,North East,Northumberland,South Broomhill,Morpeth,NE65 9RT,55.294242,-1.608515,Berwick-upon-Tweed,"McKinney, Susan",,,Y,,Y,,,Y,,,,3,3,E06000057,E02005720,E00190044,36,34.0,95.0,0.95895,1.0,3.2075,0.03409
1-126290508,2011-01-28,Y,Garden House,North East,Northumberland,174 Main Street,Berwick Upon Tweed,TD15 1RD,55.756564,-1.992342,Berwick-upon-Tweed,"McKinney, Susan",,,Y,,Y,,,Y,,,Y,3,3,E06000057,E02005706,E00139381,36,34.0,94.0,0.97219,2.0,4.2431,0.00863
1-126290537,2011-01-28,Y,Wellburn House,North East,Northumberland,Main Road,Prudhoe,NE42 6DE,54.965871,-1.873159,Hexham,"McKinney, Susan",,,Y,,Y,,,Y,,,,3,3,E06000057,E02005729,E00139872,35,31.0,88.0,0.94666,3.0,8.7287,0.05953
1-126700383,2010-12-14,Y,Birch Hill Care Centre,North East,Northumberland,Norham,Berwick Upon Tweed,TD15 2JZ,55.717753,-2.165804,Berwick-upon-Tweed,"Robinson, Stephen",Y,,Y,,Y,,,Y,Y,Y,,2,2,E06000057,E02005707,E00139351,26,22.0,87.0,0.98278,1.0,2.7196,0.01045
1-128584489,2010-12-30,Y,Hillside Lodge Care Home,North East,Northumberland,Braeside,Berwick Upon Tweed,TD15 2BY,55.753823,-2.013405,Berwick-upon-Tweed,"Southall, Natasha",Y,Y,Y,,,,,Y,,,Y,4,4,E06000057,E02005706,E00139366,50,45.0,90.0,0.95049,2.0,4.4347,0.03441
1-128584503,2010-12-30,Y,Chasedale Care Home,North East,Northumberland,Tynedale Drive,Blyth,NE24 4LH,55.128609,-1.547421,Blyth Valley,"Southall, Natasha",Y,Y,,,Y,,,Y,,,,3,3,E06000057,E02005709,E00139577,60,58.0,97.0,0.91289,1.0,1.6667,0.05973
1-128584671,2010-12-30,Y,Northlea Court Care Home,North East,Northumberland,Brockwell Centre,Cramlington,NE23 1XX,55.096262,-1.581774,Blyth Valley,"Southall, Natasha",Y,Y,,,Y,,,Y,,,,4,4,E06000057,E02007106,E00139466,50,42.0,84.0,0.94851,7.0,14.7309,0.02238
1-129266485,2010-12-20,Y,Bentinck Crescent,North East,Northumberland,39-40 Bentinck Crescent,Morpeth,NE61 6SX,55.178881,-1.653015,Wansbeck,"Sheridan, Karen",,,Y,,,Y,,Y,Y,Y,,4,4,E06000057,E02005721,E00139774,7,7.0,96.0,0.97901,0.0,7.1429,0.0313
1-129453501,2010-12-20,Y,The Mews,North East,Northumberland,336 Cowpen Road,Blyth,NE24 5ND,55.130018,-1.544723,Blyth Valley,"Cannon, Andrew",,,Y,,,Y,,,,,Y,3,3,E06000057,E02005709,E00139572,4,4.0,100.0,0.9891,0.0,0.0,0.01673
1-131764763,2010-12-06,Y,Jane Percy House,North East,Northumberland,Brockwell Centre,Cramlington,NE23 1XX,55.096262,-1.581774,Blyth Valley,"Bygrave, Anne",,,Y,,,,,Y,Y,,Y,2,2,E06000057,E02007106,E00139466,25,24.0,96.0,0.95078,0.0,0.0,0.05774
1-135674382,2010-12-07,Y,East Riding Care Home,North East,Northumberland,Whoral Bank,Morpeth,NE61 3AA,55.171692,-1.677707,Wansbeck,"Southall, Natasha",Y,Y,Y,,Y,,,Y,,,Y,8,8,E06000057,E02005721,E00139740,67,42.0,63.0,0.95427,11.0,16.5133,0.02982
1-135944612,2010-12-14,Y,Tweed View House,North East,Northumberland,8-10 Tweed Street,Berwick Upon Tweed,TD15 1NG,55.772491,-2.009421,Berwick-upon-Tweed,"Hacker, Tony",,,Y,,Y,,,Y,Y,,,5,5,E06000057,E02005707,E00139324,36,30.0,84.0,0.97228,2.0,5.7601,0.01395
1-141869916,2011-01-17,Y,Percy House,North East,Northumberland,50-52 Beaconsfield Street,Blyth,NE24 2DS,55.124788,-1.50547,Blyth Valley,"Locker, Stephen",,Y,,,,Y,Y,Y,,,,2,2,E06000057,E02005710,E00139519,18,18.0,100.0,0.98327,0.0,0.0,0.0
1-143431986,2011-01-14,Y,Tweedmouth House,North East,Northumberland,4 Main Street,Berwick Upon Tweed,TD15 2HD,55.767184,-2.011019,Berwick-upon-Tweed,*,Y,Y,,,Y,,,Y,,,,6,6,E06000057,E02005706,E00139369,55,48.0,86.0,0.94608,1.0,2.5062,0.04555
1-1452011961,2014-06-06,Y,Cambian Dilston College,North East,Northumberland,Dilston Hall,Corbridge,NE45 5RJ,54.963538,-2.040414,Hexham,"Phipps, David",,,Y,Y,,Y,,,,,Y,1,1,E06000057,E02007107,E00139983,40,33.0,82.0,0.84581,,,
1-152415406,2011-02-14,Y,Lowgate Care Home,North East,Northumberland,Roseberry Care Centres GB Limited,Hexham,NE46 2NN,54.970344,-2.152037,Hexham,"Auckland, Melanie",Y,Y,,,Y,,,Y,,,,3,3,E06000057,E02005730,E00139919,42,39.0,92.0,0.97196,2.0,3.637,0.00265
